{"metadata":{"generated":"2025-08-05T08:10:52.080989+00:00","total_locations":3,"states_covered":2,"coverage":"2 US states/territories","source":"HAARRRvest - Pantry Pirate Radio Database","database_path":"pantry_pirate_radio.sqlite","format_version":"1.0"},"locations":[{"id":"6744f365-c6f4-4c86-80c4-0a82eff15782","lat":38.85,"lng":-77.02,"name":"Washington","org":"Ambassador Baptist Church","address":"1408 Minnesota Ave SE, Washington, DC 20020","city":"Washington","state":"DC","zip":"20020","phone":"(202) 678-1993","website":"","email":"tjldo1@verizon.net","description":"Food assistance services provided by Ambassador Baptist Church"},{"id":"2b300e71-742f-47f5-83cc-d5606e485bea","lat":38.8047,"lng":-77.0456,"name":"Alexandria","org":"ALIVE","address":"801 S Payne St, Alexandria, VA 22302","city":"Alexandria","state":"VA","zip":"22302","phone":"(703) 837-9300","website":"","email":"opsdir@alive-inc.org","description":"Food assistance organization providing TEFAP services in Alexandria, VA"},{"id":"7e0a85db-d0f6-4874-b284-ba808fd4b32d","lat":39.0458,"lng":-77.4088,"name":"Sterling","org":"ADAMS CENTER","address":"46903 Sugarland Road, Sterling, VA 20164","city":"Sterling","state":"VA","zip":"20164","phone":"(703) 433-1325","website":"","email":"suheir.kafri@adamscenter.org","description":"Food pantry operated by ADAMS CENTER"}]}