{"metadata":{"generated":"2025-08-06T16:52:22.243353+00:00","total_locations":130,"states_covered":44,"coverage":"44 US states/territories","source":"HAARRRvest - Pantry Pirate Radio Database","database_path":"pantry_pirate_radio.sqlite","format_version":"1.0","filtered_by":"state = AL"},"locations":[{"id":"4b6806a7-e032-4360-82b7-b79ed5969768","lat":30.698186973344395,"lng":-88.03413017000868,"name":"Food Assistance Location","org":"Washington Baptist Association","address":", , AL 14810","city":"","state":"AL","zip":"14810","phone":"(251) 847-2753","website":"","email":"","description":"Food assistance program operated by Washington Baptist Association, providing food pantry services to the local community."},{"id":"693ebe60-6d68-4677-999e-848dfcf7350b","lat":30.687593334694455,"lng":-88.04316709033829,"name":"Food Assistance Location","org":"St. Joseph Conference of Society of St. Vincent de Paul","address":", , AL 34290","city":"","state":"AL","zip":"34290","phone":"251-424-5789","website":"","email":"","description":"Food assistance organization providing services through Feeding the Gulf Coast"},{"id":"855fe1b4-10e1-4b1a-b705-def0a4bfca4e","lat":30.69162289743296,"lng":-88.03424443409088,"name":"Food Assistance Location","org":"The Open Door","address":", , AL 27915","city":"","state":"AL","zip":"27915","phone":"(251) 843-5644","website":"","email":"","description":"Food assistance organization providing pantry services in Alabama"},{"id":"dac588b0-55fb-4113-8d94-4f07e593db36","lat":30.697330808737334,"lng":-88.04925909440338,"name":"15 Repton","org":"Belleville Missionary Baptist Church","address":"7841 County Road, 15 Repton, AL 36475","city":"15 Repton","state":"AL","zip":"36475","phone":"(251) 227-0956","website":"","email":"","description":"Food pantry service provided by Belleville Missionary Baptist Church"},{"id":"759077ed-1367-472b-8ec0-ae3dad290f9f","lat":30.68649806719173,"lng":-88.05064781837112,"name":"36 Summerdale","org":"Greenwood Community Covenant Church","address":"21950 County Road, 36 Summerdale, AL 21950","city":"36 Summerdale","state":"AL","zip":"21950","phone":"(251)752-8309","website":"","email":"","description":"Community church providing food assistance services through Feeding the Gulf Coast network"},{"id":"676587bc-f9b4-4f9e-a684-7e664333f255","lat":30.70059709076061,"lng":-88.03408668382167,"name":"Andalusia","org":"Andalusia Full Gospel Tabernacle","address":"1600 Stanley Ave, Andalusia, AL 36420","city":"Andalusia","state":"AL","zip":"36420","phone":"334-222-8353","website":"","email":"","description":"Food assistance organization"},{"id":"93e225cb-4f1d-4e7a-9961-b8209fbe22c3","lat":30.705388026786036,"lng":-88.03818411876532,"name":"Andalusia","org":"Covington Baptist Association","address":"Main Location, Andalusia, AL 18350","city":"Andalusia","state":"AL","zip":"18350","phone":"(334) 222-3840","website":"","email":"","description":"Food pantry operated by Covington Baptist Association providing food assistance to the community"},{"id":"403bd6f6-d3c3-4745-9d38-b4cca6b52fef","lat":30.69276194831946,"lng":-88.03533683934052,"name":"Andalusia","org":"Christ The King Parish","address":"508 Sandford Road, Andalusia, AL 36420","city":"Andalusia","state":"AL","zip":"36420","phone":"(334) 222-4858","website":"","email":"","description":"Faith-based organization providing food assistance to the community through scheduled food pantry distributions"},{"id":"95e82a81-6e0e-416e-80a0-6d972b1ae00a","lat":34.32329,"lng":-86.495919,"name":"Arab","org":"Arab First Baptist Church","address":"Address not provided, Arab, AL 35016","city":"Arab","state":"AL","zip":"35016","phone":"(256)5863153","website":"","email":"","description":"Arab First Baptist Church"},{"id":"3cc3747c-01cf-4571-9086-69888e4a04de","lat":30.692189187033946,"lng":-88.05104827775165,"name":"Atmore","org":"Atmore Area Christian Care","address":"923 West Nashville Avenue, Atmore, AL 36502","city":"Atmore","state":"AL","zip":"36502","phone":"(251) 446-3476","website":"","email":"","description":"Christian care organization providing food assistance services in the Atmore area"},{"id":"bef270ca-3281-418e-b0e7-34cfc872d25e","lat":30.703286172412373,"lng":-88.04029914524945,"name":"Atmore","org":"Atmore Area Christian Care","address":"923 West Nashville Avenue, Atmore, AL 36502","city":"Atmore","state":"AL","zip":"36502","phone":"(251) 446-3476","website":"","email":"","description":"Christian care organization providing food assistance services in the Atmore area"},{"id":"8ac869c8-fbad-45f5-a5f6-c1e6b0807a87","lat":30.686377056898717,"lng":-88.03467402097318,"name":"Bay Minette","org":"Faith Community Full Gospel","address":"401 Moran Street, Bay Minette, AL 36507","city":"Bay Minette","state":"AL","zip":"36507","phone":"(251) 604-7824","website":"","email":"","description":"Faith-based organization providing food pantry services in Bay Minette, Alabama"},{"id":"26e5e4b1-2b48-4eef-8dc1-1b79cdcae400","lat":30.687217382185377,"lng":-88.03717422554716,"name":"Bayou La Batre","org":"Bayou Recovery Project","address":"8720 Downey Street, Bayou La Batre, AL 36509","city":"Bayou La Batre","state":"AL","zip":"36509","phone":"251-776-0468","website":"","email":"","description":"Food assistance program providing food distribution services in Bayou La Batre, Alabama"},{"id":"9374c692-b1c9-4141-88d3-ff218abd811b","lat":33.492245499999996,"lng":-86.8519965,"name":"Birmingham","org":"Urban Ministry Inc. - Food Distribution Center","address":"Address not specified, Birmingham, AL 35000","city":"Birmingham","state":"AL","zip":"35000","phone":"(205)7810517","website":"","email":"","description":"Food distribution services"},{"id":"86e5f80f-ae76-4af8-b7bc-6d4e964642de","lat":30.70510898462338,"lng":-88.04297877619085,"name":"Brewton","org":"Zion Fountain A.M.E. Zion Church","address":"505 Sowell Rd, Brewton, AL 36426","city":"Brewton","state":"AL","zip":"36426","phone":"","website":"","email":"","description":"Food pantry operated by Zion Fountain A.M.E. Zion Church"},{"id":"b1e8f4ee-34fa-4c3d-aa58-42b42b27867c","lat":30.690295111148902,"lng":-88.05142056754681,"name":"Brewton","org":"Escambia County Community Enabled, Inc.","address":"1014 Douglas Avenue, Brewton, AL 36426","city":"Brewton","state":"AL","zip":"36426","phone":"(251) 280-7005","website":"","email":"","description":"Community organization providing food assistance services in Brewton, Alabama"},{"id":"296af1ea-d4cc-4fc5-9924-d7d8b316b39e","lat":30.701117805942953,"lng":-88.0362417794272,"name":"Brewton","org":"Gateway to Heaven Pentecostal Church","address":"323 Alco Drive, Brewton, AL 36426","city":"Brewton","state":"AL","zip":"36426","phone":"(251) 644-8475","website":"","email":"","description":"Gateway to Heaven Pentecostal Church operates a food pantry service providing food assistance to the community."},{"id":"678ce9f2-09b5-458f-9290-e216771efb4f","lat":30.69996007516755,"lng":-88.0394877501832,"name":"Buttler","org":"F.A.I.T.H. Groceries","address":"817 West Pushmataha Street, Buttler, AL 36904","city":"Buttler","state":"AL","zip":"36904","phone":"(205) 459-2824","website":"","email":"","description":"Food pantry providing grocery assistance to the community"},{"id":"04071b15-95ec-4a92-af80-473c0e250f01","lat":30.69866623083729,"lng":-88.04450391910873,"name":"St. Mark United Methodist Church Society of St. Stephen","org":"St. Mark United Methodist Church Society of St. Stephen","address":"98 Martin Luther King Avenue, Chatom, AL 36518","city":"Chatom","state":"AL","zip":"36518","phone":"(251) 342-5861","website":"","email":"","description":"Food pantry operated by St. Mark United Methodist Church providing food assistance to the community"},{"id":"6d5af67e-070a-4aa6-9061-0d1ab0987872","lat":30.691661010405866,"lng":-88.03984270203085,"name":"Chickasaw","org":"High Praise Worship Church","address":"265 Thompson Blvd, Chickasaw, AL 36611","city":"Chickasaw","state":"AL","zip":"36611","phone":"(251) 452-4996","website":"","email":"","description":"A worship church providing food assistance services to the community"},{"id":"fb725ea0-e63e-45d0-872d-69765159b114","lat":30.6901265859417,"lng":-88.03817160514448,"name":"Chickasaw","org":"High Praise Worship Church","address":"265 Thompson Blvd, Chickasaw, AL 36611","city":"Chickasaw","state":"AL","zip":"36611","phone":"(251) 452-4996","website":"","email":"","description":"A worship church providing food assistance services to the community"},{"id":"64491d1c-10a6-4feb-9eaa-ad8e26d70560","lat":30.69140029390223,"lng":-88.04787419203213,"name":"Citronelle","org":"Calvary Baptist Church","address":"21276 Highway 45, Citronelle, AL 21276","city":"Citronelle","state":"AL","zip":"21276","phone":"(251) 866-7501","website":"https://www.cbcjny.org/our-ministries","email":"arvincbc@gmail.com","description":"Food pantry operated by Calvary Baptist Church providing food assistance to the community"},{"id":"d7839e43-6ece-4fd2-bfd6-4ca83b25d3fa","lat":30.686161187932363,"lng":-88.04189492132072,"name":"Citronelle","org":"Citronelle United Methodist Church","address":"7970 Lebaron Avenue, Citronelle, AL 36522","city":"Citronelle","state":"AL","zip":"36522","phone":"(251) 866-7423","website":"","email":"","description":"A United Methodist Church in Citronelle, Alabama that operates a food pantry service"},{"id":"571ba977-11de-4af8-8c8e-9307c5e7e6d4","lat":30.69639533957497,"lng":-88.04020576057628,"name":"Citronelle","org":"Triumph Ministries, Inc.","address":"17980 Celeste Road, Citronelle, AL 17980","city":"Citronelle","state":"AL","zip":"17980","phone":"(251) 404-9707","website":"","email":"","description":"Food pantry ministry providing emergency food assistance to community members in need."},{"id":"16f59a12-5296-471e-a6e7-95c269e5b874","lat":30.699962771273423,"lng":-88.04863619202976,"name":"City not provided","org":"Covington Baptist Association","address":"Address not provided, City not provided, AL 18350","city":"City not provided","state":"AL","zip":"18350","phone":"(334) 222-3840","website":"","email":"","description":"Food pantry operated by Covington Baptist Association providing food assistance to the community"},{"id":"40ac2544-8635-4397-910b-527777a32417","lat":30.69831668924877,"lng":-88.04083397083572,"name":"City not specified","org":"Mt. Aid Missionary Baptist Church","address":"Address not specified, City not specified, AL 36526","city":"City not specified","state":"AL","zip":"36526","phone":"251-600-9777","website":"","email":"","description":"Food assistance organization affiliated with Feeding the Gulf Coast"},{"id":"ebfbd01b-9d62-4f5a-b70e-dae1831ce839","lat":30.692215383475393,"lng":-88.04352490964074,"name":"Covington","org":"River Falls Baptist Church","address":"24951 Covington Street, Covington, AL 24951","city":"Covington","state":"AL","zip":"24951","phone":"334-222-5479","website":"","email":"","description":"Food pantry operated by River Falls Baptist Church"},{"id":"5c9f5551-77d7-4534-a21d-afc77c0581dd","lat":30.692445597356226,"lng":-88.04704444192316,"name":"Creola","org":"St. Andrew's Chapel","address":"2350 Dead Lake Marina Rd, Creola, AL 36525","city":"Creola","state":"AL","zip":"36525","phone":"(251) 679-0755","website":"","email":"","description":"Food pantry service operating through St. Andrew's Chapel in Creola, Alabama, providing food assistance to the community."},{"id":"dec8de6b-531f-405f-9079-531d616b0531","lat":30.699054212655266,"lng":-88.03985216241333,"name":"Creola","org":"St. Andrew's Chapel","address":"2350 Dead Lake Marina Rd, Creola, AL 36525","city":"Creola","state":"AL","zip":"36525","phone":"(251) 679-0755","website":"","email":"","description":"Food pantry service operating through St. Andrew's Chapel in Creola, Alabama, providing food assistance to the community."},{"id":"3a2770c7-fdb3-4681-9cd1-d5c58d851ff7","lat":30.699374950072997,"lng":-88.04088500540254,"name":"Daphne","org":"African Universal Church","address":"8355 Jonesboro Rd, Daphne, AL 36526","city":"Daphne","state":"AL","zip":"36526","phone":"(251) 626-6056","website":"","email":"","description":"Church organization providing food assistance services in Daphne, Alabama"},{"id":"8bbbecc5-f63c-404f-b416-3e684b44504b","lat":30.693173302330777,"lng":-88.04357545881237,"name":"Dauphin Island","org":"Dauphin Island United Methodist Church","address":"302 Key Street, Dauphin Island, AL 36528","city":"Dauphin Island","state":"AL","zip":"36528","phone":"(251) 861-5599","website":"","email":"","description":"United Methodist Church on Dauphin Island providing food pantry services to the local community."},{"id":"7b293810-ab06-4352-a32c-2ef24a6dc371","lat":30.68790075294603,"lng":-88.03696391076093,"name":"Elberta","org":"Miflin Baptist Church","address":"24687 County Rd, Elberta, AL 24687","city":"Elberta","state":"AL","zip":"24687","phone":"251-386-4322","website":"","email":"","description":"Baptist church providing food assistance services through Feeding the Gulf Coast"},{"id":"de06713d-8e6d-4b19-8e32-248a0187da9f","lat":30.691666349762958,"lng":-88.0411356463226,"name":"Excel","org":"Excel Assembly of God","address":"1014 Highway 136 West, Excel, AL 36439","city":"Excel","state":"AL","zip":"36439","phone":"(251) 765-2597","website":"","email":"","description":"Food pantry operated by Excel Assembly of God providing food assistance to the community"},{"id":"59508acd-f625-4dbb-9a6f-67570d25a7a2","lat":30.70598456807797,"lng":-88.04062093962244,"name":"Excel","org":"Excel Assembly of God","address":"1014 Highway 136 West, Excel, AL 36439","city":"Excel","state":"AL","zip":"36439","phone":"(251) 765-2597","website":"","email":"","description":"Food pantry operated by Excel Assembly of God providing food assistance to the community"},{"id":"a364fc9e-c8bf-43f6-a25c-057521ecd6c4","lat":30.69931926080739,"lng":-88.05027194048168,"name":"Foley","org":"Faith Factory","address":"17927 Samantha Dr, Foley, AL 17927","city":"Foley","state":"AL","zip":"17927","phone":"(251) 401-5345","website":"","email":"","description":"Food pantry providing food distributions"},{"id":"fe56f770-c194-408c-98c1-95d3053bc167","lat":30.702047684626944,"lng":-88.04412534215321,"name":"Foley","org":"South Baldwin Christian Church","address":"19489 Keller Rd, Foley, AL 19489","city":"Foley","state":"AL","zip":"19489","phone":"251-981-1000","website":"","email":"","description":"Food pantry operated by South Baldwin Christian Church"},{"id":"effc569b-bdad-4f0f-858b-bb7e867111e9","lat":30.68917055447702,"lng":-88.04268559939602,"name":"Foley","org":"Calvary Chapel Fellowship of Foley","address":"18464 Underwood Rd, Foley, AL 18464","city":"Foley","state":"AL","zip":"18464","phone":"(251) 943-7990","website":"","email":"","description":"A religious organization providing food pantry services to the community in Foley, Alabama."},{"id":"6b674fe6-e25f-429f-a876-28e885fb0ec6","lat":30.689476927002428,"lng":-88.03471458675072,"name":"Foley","org":"New Life in Christ Church","address":"102 East Berry Avenue, Foley, AL 36536","city":"Foley","state":"AL","zip":"36536","phone":"(251) 943-2225","website":"","email":"","description":"Church providing food assistance and soup kitchen services in Foley, Alabama"},{"id":"a574894b-baad-45bc-964c-77078225f627","lat":30.69142229338105,"lng":-88.04173946936017,"name":"Frisco City","org":"Empowerment Tabernacle Christian Center","address":"696 Dr Martin Luther King Jr Street, Frisco City, AL 36445","city":"Frisco City","state":"AL","zip":"36445","phone":"(251) 359-0034","website":"","email":"","description":"Faith-based organization providing food distribution services to the community"},{"id":"8f595e38-9a88-4eeb-b2c7-4946266ca32e","lat":30.705269752135234,"lng":-88.05284397543353,"name":"Gilbertown","org":"Gilbertown Food Bank","address":"95 West Main Street, Gilbertown, AL 36908","city":"Gilbertown","state":"AL","zip":"36908","phone":"(251) 769-6425","website":"","email":"","description":"Food bank providing food assistance to the Gilbertown community"},{"id":"e8d2e823-7ae1-4a59-8067-6f717688e58e","lat":30.691844979823973,"lng":-88.04406514716818,"name":"Grand Bay","org":"First Baptist Church of Grand Bay","address":"Grand Bay, Grand Bay, AL 10170","city":"Grand Bay","state":"AL","zip":"10170","phone":"(251) 865-4734","website":"","email":"","description":"First Baptist Church of Grand Bay provides food assistance services to the community through Feeding the Gulf Coast network."},{"id":"5125f0c2-b1e8-46a9-964f-4203aaeac18f","lat":30.701597461044024,"lng":-88.05172723454152,"name":"Gulf Shores","org":"Christian Service Center","address":"317 Dolphin Avenue, Gulf Shores, AL 36547","city":"Gulf Shores","state":"AL","zip":"36547","phone":"(251) 968-5256","website":"","email":"","description":"Community service organization providing food assistance in Gulf Shores, Alabama"},{"id":"f4d5c6b7-5abb-4027-b5e8-656517aa52bf","lat":30.701387698977303,"lng":-88.04444168590767,"name":"Gulf Shores","org":"Christian Service Center","address":"317 Dolphin Avenue, Gulf Shores, AL 36547","city":"Gulf Shores","state":"AL","zip":"36547","phone":"(251) 968-5256","website":"","email":"","description":"Community service organization providing food assistance in Gulf Shores, Alabama"},{"id":"46a23cf9-fd2d-4f8e-bf32-7b2542633ea2","lat":30.69449395726425,"lng":-88.04901161117552,"name":"Jackson","org":"First United Methodist Church","address":"146 College Ave, Jackson, AL 36545","city":"Jackson","state":"AL","zip":"36545","phone":"(251) 246-2224","website":"http://fumcschenectady.org/","email":"","description":"First United Methodist Church provides community meals and soup kitchen services, typically serving sit-down meals on holidays and Sunday breakfast service."},{"id":"b809b734-da1d-41ab-88b3-58dc01ab9431","lat":30.688696524755283,"lng":-88.04974562211298,"name":"Jackson","org":"Catholic Social Services of Clarke Co.","address":"1206 College Ave, Jackson, AL 36545","city":"Jackson","state":"AL","zip":"36545","phone":"(251) 246-0131","website":"","email":"","description":"Catholic Social Services of Clarke County provides limited and material assistance for residents of Choctaw, Clarke, and Monroe counties who are experiencing a financial crisis due to an interruption in income."},{"id":"b5f77671-53aa-4de1-8482-35d65708e3ec","lat":30.69614931769428,"lng":-88.04676045324936,"name":"Jackson","org":"Catholic Social Services of Clarke County","address":"3309 College Avenue, Jackson, AL 36545","city":"Jackson","state":"AL","zip":"36545","phone":"(251) 246-0131","website":"","email":"","description":"Catholic social services organization providing food assistance and community support in Clarke County, Alabama."},{"id":"0f8e7dbb-371a-4562-835b-264448072fe2","lat":30.696157209258576,"lng":-88.03814087424064,"name":"Jackson","org":"Lifeline Outreach Ministries","address":"1201 College Ave, Jackson, AL 36545","city":"Jackson","state":"AL","zip":"36545","phone":"251-769-7879","website":"","email":"","description":"Food pantry organization providing emergency food assistance to the community"},{"id":"2527d2b0-f181-426f-9da9-da081746962c","lat":30.689644387513873,"lng":-88.04326172869125,"name":"Lillian","org":"Shepherd of the Bay Lutheran Church","address":"12851 Perdido Street, Lillian, AL 12851","city":"Lillian","state":"AL","zip":"12851","phone":"(251) 962-7682","website":"","email":"","description":"Lutheran church providing food assistance services through Feeding the Gulf Coast network"},{"id":"e4823ce3-bb31-44df-8cad-9d3d8d6735cf","lat":34.2082948,"lng":-86.1546877,"name":"Marshall County","org":"Community Free Store of Marshall County","address":"Address Not Available, Marshall County, AL 00000","city":"Marshall County","state":"AL","zip":"00000","phone":"(256)2516813","website":"","email":"","description":"Community organization providing free goods and services"},{"id":"76fc3147-fda7-4a60-afff-f18ce6af2026","lat":30.70337557435916,"lng":-88.04586807216371,"name":"Millry","org":"Millry Baptist Church","address":"70 5th Avenue, Millry, AL 36558","city":"Millry","state":"AL","zip":"36558","phone":"(251) 846-2263","website":"","email":"","description":"Baptist church providing food assistance services in Millry, Alabama"},{"id":"d01641ca-956f-49c1-a75a-2334466a4fd0","lat":30.68827523230652,"lng":-88.04207358771107,"name":"Millry","org":"Copeland Assembly of God","address":"468 Buckatunna Millry Rd, Millry, AL 36558","city":"Millry","state":"AL","zip":"36558","phone":"(251) 846-2638","website":"","email":"","description":"Food assistance organization affiliated with Feeding the Gulf Coast"},{"id":"f631b345-31d4-4c97-bdfc-12353413b0ca","lat":30.696701685286826,"lng":-88.05291197546578,"name":"Millry","org":"Millry Baptist Church","address":"70 5th Avenue, Millry, AL 36558","city":"Millry","state":"AL","zip":"36558","phone":"(251) 846-2263","website":"","email":"","description":"Baptist church providing food assistance services in Millry, Alabama"},{"id":"64cc472d-28ae-4b9c-a64a-d977261f7bca","lat":30.69647006892248,"lng":-88.0334961343197,"name":"Mobile","org":"Calvary Assembly of God","address":"6800 Three Notch Road, Mobile, AL 36619","city":"Mobile","state":"AL","zip":"36619","phone":"(251) 661-8130","website":"","email":"","description":"Faith-based organization providing food assistance services in Mobile, Alabama"},{"id":"7335c6b9-e57d-4b9b-8ea5-bd1d2898c76c","lat":30.68711842630217,"lng":-88.0447514561727,"name":"Mobile","org":"Catholic Social Services Service Center","address":"188 South Florida Street, Mobile, AL 36602","city":"Mobile","state":"AL","zip":"36602","phone":"(251) 434-1500","website":"","email":"","description":"Catholic Social Services providing food assistance and social services to the Mobile community"},{"id":"d082702a-769e-4449-a2c1-68729fcb972a","lat":30.701157412281262,"lng":-88.03375897718443,"name":"Mobile","org":"Christ United Church","address":"6101 Grelot Road, Mobile, AL 36609","city":"Mobile","state":"AL","zip":"36609","phone":"(251)342-0462","website":"","email":"","description":"Religious organization providing food assistance services in Mobile, Alabama"},{"id":"fa7e373d-637f-4681-b75f-1d69f79382e0","lat":30.697730197622715,"lng":-88.04776238094429,"name":"Mobile","org":"New Beginnings Seventh-Day Adventist Church","address":"855 McRae Avenue, Mobile, AL 36606","city":"Mobile","state":"AL","zip":"36606","phone":"(251) 471-3010","website":"","email":"","description":"A Seventh-Day Adventist church providing food assistance services to the Mobile community"},{"id":"66727c8d-588b-49af-af9e-4709a0698cc2","lat":30.68922125726732,"lng":-88.03801739666935,"name":"Mobile","org":"St. Louis Street Missionary Baptist Church","address":"108 North Dearborn Street, Mobile, AL 36602","city":"Mobile","state":"AL","zip":"36602","phone":"(251) 438-3823","website":"","email":"","description":"A missionary Baptist church providing food pantry and soup kitchen services to the Mobile community"},{"id":"ac94d117-f809-460b-8feb-96bd308552c5","lat":30.694727615707805,"lng":-88.05289147173345,"name":"Mobile","org":"Trinity Episcopal Church","address":"1900 Dauphin Street, Mobile, AL 36606","city":"Mobile","state":"AL","zip":"36606","phone":"(251) 473-2779","website":"","email":"","description":"Episcopal church providing food assistance services in Mobile, Alabama"},{"id":"2ed84ab4-ae3b-42af-bfee-c25eee49bd77","lat":30.701428945535792,"lng":-88.04400482174937,"name":"Mobile","org":"St. Pius X Church","address":"217 South Sage Ave, Mobile, AL 36606","city":"Mobile","state":"AL","zip":"36606","phone":"(251) 391-9499","website":"","email":"","description":"Church-based food pantry providing food assistance services in Mobile, Alabama"},{"id":"aa66cd60-50b0-4062-a72e-9398ad713a92","lat":30.68973510820681,"lng":-88.03605286058712,"name":"Mobile","org":"Walk By Faith Christian Ministries","address":"1110 Texas Street, Mobile, AL 36604","city":"Mobile","state":"AL","zip":"36604","phone":"251-648-5239","website":"","email":"","description":"Christian ministry organization providing food assistance services in Mobile, Alabama."},{"id":"4f2900ee-bf37-46da-82b1-07773a067124","lat":30.69316804007841,"lng":-88.0515735160429,"name":"Mobile","org":"St. Andrew Episcopal Church","address":"1854 Staples Road, Mobile, AL 36605","city":"Mobile","state":"AL","zip":"36605","phone":"(251) 599-0736","website":"","email":"","description":"Episcopal church providing food pantry services to the Mobile community"},{"id":"6f4b0a8b-4a52-4878-8e84-65997cd258cd","lat":30.690051254813437,"lng":-88.0333740252172,"name":"Mobile","org":"First Baptist Church of Baltimore Street","address":"1200 Baltimore St, Mobile, AL 36605","city":"Mobile","state":"AL","zip":"36605","phone":"(251) 433-8492","website":"","email":"","description":"Food pantry service provided by First Baptist Church of Baltimore Street"},{"id":"d8b35240-3f9d-436f-bc24-181b2d670564","lat":30.68634011806096,"lng":-88.0405355697778,"name":"Mobile","org":"St. John's Deliverance Temple","address":"2621 Ralston Ave, Mobile, AL 36605","city":"Mobile","state":"AL","zip":"36605","phone":"(251) 470-0350","website":"","email":"","description":"Food pantry service provided by St. John's Deliverance Temple"},{"id":"055bbd1f-99c8-4189-8dad-f37934c2af63","lat":30.68640465480119,"lng":-88.03341136730074,"name":"Mobile","org":"Salvation Army","address":"1009 Dauphin St, Mobile, AL 36604","city":"Mobile","state":"AL","zip":"36604","phone":"(518) 346-0222","website":"https://empire.salvationarmy.org/empireny/schenectady","email":"","description":"The Salvation Army provides SNAP (Food Stamps) registration assistance to help individuals and families access food benefits."},{"id":"f2ae1731-16f6-4a4a-b8db-d6ec329dd46f","lat":30.6894569779101,"lng":-88.04425440693447,"name":"Mobile","org":"CHILD MEAL SITE: Joseph Dotch Community Center","address":"3100 Bank Ave, Mobile, AL 36617","city":"Mobile","state":"AL","zip":"36617","phone":"(251) 452-9856","website":"","email":"","description":"Free meals for children, 18 and younger. Child must be present to receive meal."},{"id":"d6086378-1a37-4742-9ec4-055874c38f8d","lat":30.69844850358842,"lng":-88.04941539294599,"name":"Mobile","org":"CHILD MEAL SITE: Laun Park","address":"5401 Windmill Dr, Mobile, AL 36693","city":"Mobile","state":"AL","zip":"36693","phone":"251-661-6541","website":"","email":"","description":"Free meals for children, 18 and younger. Child must be present to receive meal."},{"id":"676d62a8-28e0-4255-ab45-e31419b19bc1","lat":30.69868081532714,"lng":-88.050357279798,"name":"Mobile","org":"The Redeemed Christian Church of God","address":"444 Azalea Rd, Mobile, AL 36609","city":"Mobile","state":"AL","zip":"36609","phone":"(518) 463-5231","website":"http://www.rccgalbanyny.org/our-ministries/rccg-albany-food-pantry/","email":"","description":"A Christian church organization providing food pantry services to the community in Toledo, Ohio."},{"id":"95900bff-0102-41b8-aa5f-3196c43b2b27","lat":30.693935241427692,"lng":-88.05025847094522,"name":"Mobile","org":"CHILD MEAL SITE: Springhill Recreation Center","address":"1151 Spring Hill Ave, Mobile, AL 36604","city":"Mobile","state":"AL","zip":"36604","phone":"251-438-7415","website":"","email":"","description":"Free meals for children, 18 and younger. Child must be present to receive meal."},{"id":"12c9a071-8e81-40f8-ae21-bb02a494ef13","lat":30.69090978321767,"lng":-88.04201553354027,"name":"Mobile","org":"New Beginning Church of God","address":"3106 Moffett Rd, Mobile, AL 36607","city":"Mobile","state":"AL","zip":"36607","phone":"251-329-0822","website":"","email":"","description":"Food pantry operated by New Beginning Church of God"},{"id":"a36d0cfa-b103-4bf4-95cb-10589f9a8c57","lat":30.69125975938449,"lng":-88.04941032016033,"name":"Mobile","org":"workinmobile.com","address":"1 S Water St, Mobile, AL 36602","city":"Mobile","state":"AL","zip":"36602","phone":"","website":"https://www.workinmobile.com","email":"","description":"Visit www.workinmobile.com to find a hospitality career in Mobile, AL."},{"id":"2c5bd36d-20cb-42a6-a328-fac799472d2d","lat":30.700902388334196,"lng":-88.04055801669328,"name":"Mobile","org":"New Birth Community Church","address":"1329 E Forest Ridge Rd, Mobile, AL 36618","city":"Mobile","state":"AL","zip":"36618","phone":"(251) 604-7495","website":"","email":"","description":"Food pantry operated by New Birth Community Church"},{"id":"5294193c-2cff-43ba-809f-01847f3b75e7","lat":30.6947179793516,"lng":-88.05078055279817,"name":"Mobile","org":"Job Resource:: Infinity Training Center, Inc.","address":"1968 S Magazine Rd, Mobile, AL 36610","city":"Mobile","state":"AL","zip":"36610","phone":"(251) 300-7068","website":"","email":"","description":"Preparing youth and young adults to be workforce and life ready. Specialized job training and mentoring. Essential job skills and interview training. Resume building and mock interviewing."},{"id":"5c5965b8-5409-4b2d-bb9b-ed1ceb5e1a04","lat":30.692164581982034,"lng":-88.04336041284552,"name":"Mobile","org":"Calvary Assembly of God","address":"6800 Three Notch Road, Mobile, AL 36619","city":"Mobile","state":"AL","zip":"36619","phone":"(251) 661-8130","website":"","email":"","description":"Faith-based organization providing food assistance services in Mobile, Alabama"},{"id":"a8c68b01-90cc-4ad2-b795-4cd5f254624b","lat":30.69914841507241,"lng":-88.04707576142394,"name":"Mobile","org":"Loaves and Fish","address":"1260 Dauphin Street, Mobile, AL 36604","city":"Mobile","state":"AL","zip":"36604","phone":"251-432-0591","website":"","email":"","description":"Food pantry providing food assistance to the Mobile community"},{"id":"6b25a787-2c04-484b-9e71-65a36f3aacd2","lat":30.69188401061759,"lng":-88.0458205184746,"name":"Mobile","org":"Christ United Church","address":"6101 Grelot Road, Mobile, AL 36609","city":"Mobile","state":"AL","zip":"36609","phone":"(251)342-0462","website":"","email":"","description":"Religious organization providing food assistance services in Mobile, Alabama"},{"id":"3ca241a6-8c63-4983-b50d-d82806407318","lat":30.697317986849047,"lng":-88.04187096727253,"name":"Mobile","org":"Congregation Tree of Life","address":"8715 Jeff Hamilton Road, Mobile, AL 36695","city":"Mobile","state":"AL","zip":"36695","phone":"(251) 367-8592","website":"","email":"","description":"Food pantry operated by Congregation Tree of Life, distributing food assistance to community members in need."},{"id":"955fd01a-fbc4-4132-803c-6c97132b3394","lat":30.694221897759654,"lng":-88.04482817455347,"name":"Mobile","org":"Kingswood United Methodist Church","address":"5200 Perin Road, Mobile, AL 36693","city":"Mobile","state":"AL","zip":"36693","phone":"(251) 661-0420","website":"","email":"","description":"Food pantry operated by Kingswood United Methodist Church providing food assistance to residents in the Mobile, Alabama area"},{"id":"571e0405-c5d5-4808-9c88-308be3eee2c5","lat":30.705562623636414,"lng":-88.03404845817884,"name":"Mobile","org":"Mt. Hebron Missionary Baptist Church","address":"2531 Berkley Avenue, Mobile, AL 36610","city":"Mobile","state":"AL","zip":"36610","phone":"(251) 457-9900","website":"","email":"","description":"Missionary Baptist church providing food assistance services to the community"},{"id":"8db59100-7b8c-4d4f-82c8-f7897384e1c9","lat":30.695136034068977,"lng":-88.03433301115446,"name":"Mobile","org":"Mt. Zion Baptist Church","address":"1012 Adams Street, Mobile, AL 36603","city":"Mobile","state":"AL","zip":"36603","phone":"(251) 432-2997","website":"","email":"","description":"Community church providing food assistance services in Mobile, Alabama"},{"id":"cee34700-de5d-4004-9d75-5c99f9f78d41","lat":30.690889896640506,"lng":-88.03931907996399,"name":"Mobile","org":"New Generation Church","address":"1350 N Cody Rd, Mobile, AL 36608","city":"Mobile","state":"AL","zip":"36608","phone":"(251) 344-0898","website":"","email":"","description":"A church organization providing food assistance services to the community."},{"id":"ffd0d3c0-6401-4e30-936c-f44b36d0d16e","lat":30.689088958701543,"lng":-88.03913045954619,"name":"Mobile","org":"New Beginnings Seventh-Day Adventist Church","address":"855 McRae Avenue, Mobile, AL 36606","city":"Mobile","state":"AL","zip":"36606","phone":"(251) 471-3010","website":"","email":"","description":"A Seventh-Day Adventist church providing food assistance services to the Mobile community"},{"id":"576b14b5-ff86-49b3-bc36-098233fc9795","lat":30.694757761325505,"lng":-88.03796961909998,"name":"Mobile","org":"Redeemed Community Church","address":"6254 Howells Ferry Road, Mobile, AL 36618","city":"Mobile","state":"AL","zip":"36618","phone":"(251) 421-2481","website":"","email":"","description":"Community church providing food assistance through monthly food pantry distribution"},{"id":"4d862d57-2794-47d0-a88d-90fc1d864607","lat":30.69645156507955,"lng":-88.04437382967657,"name":"Mobile","org":"The Joseph Project","address":"126 Mobile Street, Mobile, AL 36607","city":"Mobile","state":"AL","zip":"36607","phone":"(251) 478-6356","website":"","email":"","description":"Food pantry providing food distributions to the community"},{"id":"cbdd10a1-46f7-456c-8f8b-acd348f1665e","lat":30.69245768513254,"lng":-88.03427379281622,"name":"Mobile","org":"Waterfront Rescue Mission","address":", Mobile, AL 36603","city":"Mobile","state":"AL","zip":"36603","phone":"(251) 433-1847","website":"","email":"","description":"Rescue mission providing food assistance services in Mobile, Alabama"},{"id":"98262a71-8860-4641-a38e-25fa80bdbb56","lat":30.690046020368047,"lng":-88.04293277806326,"name":"Mobile","org":"Empowerment Tabernacle Christian Center","address":"309 Peachtree St, Mobile, AL 36502","city":"Mobile","state":"AL","zip":"36502","phone":"(251) 359-0034","website":"","email":"","description":"Faith-based organization providing food distribution services to the community"},{"id":"ae9604c5-b6b7-4cec-b028-5b8ffdb2dc8c","lat":30.70380488268125,"lng":-88.04695569025473,"name":"Mobile","org":"St. Louis Street Missionary Baptist Church","address":"108 North Dearborn Street, Mobile, AL 36602","city":"Mobile","state":"AL","zip":"36602","phone":"(251) 438-3823","website":"","email":"","description":"A missionary Baptist church providing food pantry and soup kitchen services to the Mobile community"},{"id":"2ed94fdd-aea3-4c53-bdb7-21b6c2742cc4","lat":30.6975261756202,"lng":-88.04749898996427,"name":"Mobile","org":"St. Pius X Church","address":"217 South Sage Ave, Mobile, AL 36606","city":"Mobile","state":"AL","zip":"36606","phone":"(251) 391-9499","website":"","email":"","description":"Church-based food pantry providing food assistance services in Mobile, Alabama"},{"id":"2d3ac492-077f-4aa5-9200-d8fb99214eb4","lat":30.704399059332992,"lng":-88.03648236153562,"name":"Mobile","org":"Walk By Faith Christian Ministries","address":"1110 Texas Street, Mobile, AL 36604","city":"Mobile","state":"AL","zip":"36604","phone":"251-648-5239","website":"","email":"","description":"Christian ministry organization providing food assistance services in Mobile, Alabama."},{"id":"23aa0daa-8435-408b-80a8-6b82b3560989","lat":30.689927670479218,"lng":-88.03312414440869,"name":"Mobile","org":"West Mobile Baptist Church","address":"7501 Airport Blvd, Mobile, AL 36608","city":"Mobile","state":"AL","zip":"36608","phone":"(251) 639-6868","website":"","email":"","description":"A Baptist church in Mobile, Alabama that operates a food pantry program serving the community once monthly."},{"id":"6a4abda1-b7a3-4387-b778-b026a552c432","lat":30.690355705513458,"lng":-88.03741106929908,"name":"Mobile","org":"St. Andrew Episcopal Church","address":"1854 Staples Road, Mobile, AL 36605","city":"Mobile","state":"AL","zip":"36605","phone":"(251) 599-0736","website":"","email":"","description":"Episcopal church providing food pantry services to the Mobile community"},{"id":"7e5a0362-7d17-4fb6-866d-5bac0ef62a9d","lat":30.701819911319095,"lng":-88.0460750533328,"name":"Mobile","org":"Woodridge Baptist Church","address":"2700 Schillinger Road, Mobile, AL 36695","city":"Mobile","state":"AL","zip":"36695","phone":"(251) 633-6000","website":"","email":"","description":"Baptist church providing food pantry services to residents of Mobile, Alabama area zip codes including 36695, 36609, 36619, and 36582."},{"id":"660880aa-222f-4366-8ac1-6fea49039a4c","lat":30.703363283523352,"lng":-88.05153855817424,"name":"Mobile","org":"St. Stephen African Methodist Episcopal Church","address":"2707 Josephine St, Mobile, AL 36607","city":"Mobile","state":"AL","zip":"36607","phone":"(251) 344-6760","website":"","email":"","description":"African Methodist Episcopal Church providing food pantry services"},{"id":"f030a171-d242-4b1e-8ae2-e97a16b7f394","lat":30.693015918302493,"lng":-88.05021855646045,"name":"Monroeville","org":"Annunciation Catholic Church","address":"565 Whetstone St, Monroeville, AL 36460","city":"Monroeville","state":"AL","zip":"36460","phone":"(251) 575-2644","website":"","email":"","description":"Catholic church providing food pantry services to the community"},{"id":"db9a9836-9bdf-4c1b-9cb1-72390956cb61","lat":30.688380206420764,"lng":-88.03894067520811,"name":"Monroeville","org":"Kingdom Works, Inc.","address":"225 Legion Dr, Monroeville, AL 36460","city":"Monroeville","state":"AL","zip":"36460","phone":"251-362-1722","website":"","email":"","description":"Food pantry organization providing assistance to the community"},{"id":"8ce4197e-7ecf-4321-a337-37b458843891","lat":30.687262828353038,"lng":-88.04370071860244,"name":"Monroeville","org":"Our Place Youth and Family Center","address":"271 Park Drive, Monroeville, AL 36460","city":"Monroeville","state":"AL","zip":"36460","phone":"(251) 362-4529","website":"","email":"","description":"Youth and family center providing food assistance services in the Monroeville community"},{"id":"d51fbd29-437d-4b29-8eef-e0f5a3fa0ff6","lat":30.70450050180747,"lng":-88.04381203402579,"name":"N. Semmes","org":"Holy Name of Jesus Church","address":"2275 Snow Road, N. Semmes, AL 36575","city":"N. Semmes","state":"AL","zip":"36575","phone":"212-932-8040","website":"","email":"","description":"A church-based food pantry serving the N. Semmes community through Feeding the Gulf Coast network"},{"id":"e1692d09-b944-423c-a109-56b0908332e5","lat":30.69481900515598,"lng":-88.0441968938339,"name":"N. Semmes","org":"Holy Name of Jesus Church","address":"2275 Snow Road, N. Semmes, AL 36575","city":"N. Semmes","state":"AL","zip":"36575","phone":"212-932-8040","website":"","email":"","description":"A church-based food pantry serving the N. Semmes community through Feeding the Gulf Coast network"},{"id":"379f7e20-9ec8-49d0-b4c6-56596e3589f2","lat":30.69134792986409,"lng":-88.0470521455237,"name":"North Semmes","org":"Azalea City Church of Christ","address":"3550 Schillinger Road, North Semmes, AL 36575","city":"North Semmes","state":"AL","zip":"36575","phone":"(251) 649-2436","website":"","email":"","description":"A church organization providing food assistance services in the Mobile area through partnership with Feeding the Gulf Coast."},{"id":"0a65389b-3d4a-4181-8186-170953a901f3","lat":30.703566161167444,"lng":-88.03351646183809,"name":"North Semmes","org":"Azalea City Church of Christ","address":"3550 Schillinger Road, North Semmes, AL 36575","city":"North Semmes","state":"AL","zip":"36575","phone":"(251) 649-2436","website":"","email":"","description":"A church organization providing food assistance services in the Mobile area through partnership with Feeding the Gulf Coast."},{"id":"2d4a6925-993f-46c1-b868-4803c8e39538","lat":30.697518799819942,"lng":-88.03759853162357,"name":"Opp","org":"Meals of Love Opp","address":"205 Covington Ave, Opp, AL 36467","city":"Opp","state":"AL","zip":"36467","phone":"334-764-3853","website":"","email":"","description":"Food pantry serving the Opp, AL community"},{"id":"68fbccfc-19f9-4d3a-b423-725e6cf67140","lat":30.70503885172264,"lng":-88.05200907718574,"name":"Opp","org":"Opp Church of Christ","address":"901 East Hart Avenue, Opp, AL 36467","city":"Opp","state":"AL","zip":"36467","phone":"(334) 493-3728","website":"","email":"","description":"Food pantry operated by Opp Church of Christ providing food assistance to the community"},{"id":"73cb2014-e566-4b7b-9751-166bfb0556a6","lat":30.70015415259282,"lng":-88.04997290691345,"name":"Orange Beach","org":"Christian Life Church","address":"25550 Canal Road, Orange Beach, AL 25550","city":"Orange Beach","state":"AL","zip":"25550","phone":"(251) 967-4840","website":"","email":"","description":"Faith-based organization providing food assistance services in Orange Beach, Alabama"},{"id":"e04cb804-76bc-4caf-ab91-8ccff8116335","lat":30.692947981390205,"lng":-88.04593006135748,"name":"Orange Beach","org":"Christian Life Church","address":"25550 Canal Road, Orange Beach, AL 25550","city":"Orange Beach","state":"AL","zip":"25550","phone":"(251) 967-4840","website":"","email":"","description":"Faith-based organization providing food assistance services in Orange Beach, Alabama"},{"id":"d501af1d-1d10-4234-9e49-63df626d37a2","lat":30.69327354701636,"lng":-88.05275904483872,"name":"Perdido","org":"Morning Dove Baptist Church","address":"54620 Lottie Road, Perdido, AL 54620","city":"Perdido","state":"AL","zip":"54620","phone":"(251) 580-3674","website":"","email":"","description":"Baptist church providing food assistance services to the community"},{"id":"9b63f65d-29da-4006-b027-2288ad251730","lat":30.698132048896856,"lng":-88.04720274330238,"name":"Plateau","org":"Yorktown Missionary Baptist Church","address":"851 East Street, Plateau, AL 36610","city":"Plateau","state":"AL","zip":"36610","phone":"(251) 452-8108","website":"","email":"","description":"Religious organization providing food assistance services through Feeding the Gulf Coast food bank network."},{"id":"f5281628-46db-4ae7-b2d5-e66e1191d7a0","lat":30.687804398271588,"lng":-88.04995998643237,"name":"Prichard","org":"True Miracle Church of God","address":"817 Overton Street, Prichard, AL 36610","city":"Prichard","state":"AL","zip":"36610","phone":"(251) 452-4628","website":"","email":"","description":"Faith-based organization providing food pantry services to the community"},{"id":"acdad37f-4d4d-4d34-9fe5-fb09af169654","lat":30.690065137041774,"lng":-88.03354705666672,"name":"Prichard","org":"Church of Life, Inc.","address":"539 South Wilson Avenue, Prichard, AL 36610","city":"Prichard","state":"AL","zip":"36610","phone":"(251) 457-4040","website":"","email":"","description":"Religious organization providing food assistance services in Prichard, Alabama"},{"id":"3fec7fd5-716d-405d-8063-609cede50fac","lat":30.69314109210891,"lng":-88.0478693856299,"name":"Prichard","org":"True Miracle Church of God","address":"817 Overton Street, Prichard, AL 36610","city":"Prichard","state":"AL","zip":"36610","phone":"(251) 452-4628","website":"","email":"","description":"Faith-based organization providing food pantry services to the community"},{"id":"e25edb8c-cc7d-475f-a153-ca81f241949e","lat":30.68947915751103,"lng":-88.03815839163227,"name":"Prichard","org":"True Glory Church of the Lord Jesus Christ","address":"401 Whistler Street, Prichard, AL 36610","city":"Prichard","state":"AL","zip":"36610","phone":"(251) 457-0900","website":"","email":"","description":"A church-based organization providing food pantry services in Prichard, Alabama through partnership with Feeding the Gulf Coast."},{"id":"ba7696e4-88fb-440b-a123-cd809ef8d55e","lat":30.70539996318282,"lng":-88.04721549246649,"name":"Saraland","org":"Bayou Sara Baptist Church","address":"12 Bayou Sara Avenue, Saraland, AL 36571","city":"Saraland","state":"AL","zip":"36571","phone":"(251) 675-1770","website":"","email":"","description":"Faith-based food pantry serving neighbors in Saraland and Satsuma communities"},{"id":"eb61452e-33ec-4305-8df0-05ec0dcb4dd4","lat":30.695970713868327,"lng":-88.03977263783715,"name":"Saraland","org":"Cedar Street Baptist Church","address":"541 Cedar Street, Saraland, AL 36571","city":"Saraland","state":"AL","zip":"36571","phone":"(251) 675-0606","website":"","email":"","description":"A Baptist church in Saraland, Alabama that operates a food pantry program serving the local community"},{"id":"b806c2bd-daea-4816-9136-910ef6e60115","lat":30.69170598851119,"lng":-88.0505031322695,"name":"Saraland","org":"CHILD MEAL SITE: North Mobile Family YMCA","address":"401 SHELTON BEACH ROAD, Saraland, AL 36571","city":"Saraland","state":"AL","zip":"36571","phone":"251-586-8396","website":"","email":"","description":"Free meals for children, 18 and younger. Child must be present to receive meal."},{"id":"c065706c-f8e2-412d-8952-1c5c078d3a4e","lat":30.69528944216597,"lng":-88.05018305744521,"name":"Saraland","org":"Cedar Street Baptist Church","address":"541 Cedar Street, Saraland, AL 36571","city":"Saraland","state":"AL","zip":"36571","phone":"(251) 675-0606","website":"","email":"","description":"A Baptist church in Saraland, Alabama that operates a food pantry program serving the local community"},{"id":"f8a79175-8d56-4980-990f-37423cc3be58","lat":30.696739048075855,"lng":-88.03647128647344,"name":"Saraland","org":"Stillwater Church","address":"415 McKeough Avenue, Saraland, AL 36571","city":"Saraland","state":"AL","zip":"36571","phone":"(251) 675-2728","website":"","email":"","description":"Food pantry operated by Stillwater Church serving the Saraland area and surrounding communities including Satsuma, Creola, Axis, and Chunchula."},{"id":"5fb49e89-fc13-42fd-9a93-e10c6e570943","lat":30.68688979524514,"lng":-88.03514416956465,"name":"Satsuma","org":"First Baptist Church of Satsuma","address":"5600 Old Highway 43, Satsuma, AL 36572","city":"Satsuma","state":"AL","zip":"36572","phone":"(251) 675-1280","website":"","email":"","description":"Food pantry operated by First Baptist Church providing food assistance to local residents"},{"id":"3a04e2d8-e765-473e-90b9-d38e69b11975","lat":34.6780767,"lng":-86.01321109999999,"name":"Scottsboro","org":"Salvation Army - Scottsboro - Food Distribution Center","address":"Address not provided, Scottsboro, AL UNKNOWN","city":"Scottsboro","state":"AL","zip":"UNKNOWN","phone":"(256)2594320","website":"","email":"","description":"Food distribution services provided by The Salvation Army"},{"id":"5915618f-bb7e-4ccb-a5ba-0a53897137fc","lat":30.70323571283069,"lng":-88.04169440168384,"name":"Semmes","org":"The River","address":"5610 McCrary Rd, Semmes, AL 36575","city":"Semmes","state":"AL","zip":"36575","phone":"251-645-4990","website":"","email":"","description":"Food pantry organization"},{"id":"2f668952-4e84-4497-8a59-7361efd85e08","lat":30.688914887757182,"lng":-88.04350483449123,"name":"South Grand Bay","org":"Union Baptist Church","address":"5257 Grand Bay Wilmer Rd, South Grand Bay, AL 36541","city":"South Grand Bay","state":"AL","zip":"36541","phone":"(251) 865-6073","website":"","email":"","description":"Church-based organization providing food pantry services to the Winston-Salem community."},{"id":"b6c03c71-1a93-4849-8dec-f76e8676b75d","lat":30.70465680297466,"lng":-88.04279562020817,"name":"South Mobile","org":"Providence Presbyterian Church","address":"2320 Schillinger Road, South Mobile, AL 36695","city":"South Mobile","state":"AL","zip":"36695","phone":"(251) 633-9701","website":"","email":"","description":"Religious organization providing food assistance services to residents of Mobile County through monthly food distribution."},{"id":"a1abeb8b-eb3b-4518-ac5e-413a26587fc0","lat":30.695377784574752,"lng":-88.045334796601,"name":"South Mobile","org":"Regency Church of Christ","address":"501 University Boulevard, South Mobile, AL 36609","city":"South Mobile","state":"AL","zip":"36609","phone":"(251) 345-8050","website":"","email":"","description":"Church organization providing food assistance services in South Mobile, Alabama"},{"id":"1792c55e-20a9-4c03-bdab-22a4f0ae5b09","lat":30.699223358833322,"lng":-88.03476890839151,"name":"South Semmes","org":"South Alabama Worship Center","address":"2811 Schillinger Road, South Semmes, AL 36575","city":"South Semmes","state":"AL","zip":"36575","phone":"(251) 645-2070","website":"","email":"","description":"Food pantry service - 2nd Tuesday of each month. Please call for hours."},{"id":"f8a02e93-aa72-4277-8f82-0c7e3fa65f44","lat":30.693507338649184,"lng":-88.04731068774826,"name":"Spanish Fort","org":"Prodisee Pantry","address":"9315 Spanish Fort Boulevard, Spanish Fort, AL 36527","city":"Spanish Fort","state":"AL","zip":"36527","phone":"(251) 626-1720","website":"","email":"","description":"Food pantry providing emergency food assistance to residents in need"},{"id":"3445e0be-4a93-4514-bacb-3359c5a42cb2","lat":30.704263638754504,"lng":-88.03698572688579,"name":"Spanish Fort","org":"Prodisee Pantry","address":"9315 Spanish Fort Boulevard, Spanish Fort, AL 36527","city":"Spanish Fort","state":"AL","zip":"36527","phone":"(251) 626-1720","website":"","email":"","description":"Food pantry providing emergency food assistance to residents in need"},{"id":"3697196d-f9a2-4deb-bcf5-6fba8ef5efc7","lat":30.70016698571169,"lng":-88.05198694674604,"name":"Summerdale","org":"Greenwood Community Covenant Church","address":"21950 County Road 36, Summerdale, AL 21950","city":"Summerdale","state":"AL","zip":"21950","phone":"(251)752-8309","website":"","email":"","description":"Community church providing food assistance services through Feeding the Gulf Coast network"},{"id":"d6464330-b540-4c69-a153-1c12aa879609","lat":30.696874893998622,"lng":-88.04645154242668,"name":"Thomasville","org":"CHILD MEAL SITE: Busy Bee's Hive Daycare","address":"600 N Park Dr, Thomasville, AL 36784","city":"Thomasville","state":"AL","zip":"36784","phone":"334-636-2100","website":"","email":"","description":"Free meals for children, 18 and younger. Child must be present to receive meal."},{"id":"bd37c909-9c73-4bb6-986a-7622e1ff2e00","lat":30.699025950983117,"lng":-88.05043714911491,"name":"Tibbie","org":"Tibbie Baptist Church","address":"Tibbie Baptist Church, Tibbie, AL 36583","city":"Tibbie","state":"AL","zip":"36583","phone":"(251) 847-2900","website":"","email":"","description":"Baptist church providing food assistance services through Feeding the Gulf Coast"},{"id":"976e0520-5ca2-48fb-abc7-17b3eb80160e","lat":30.692072795334806,"lng":-88.03821133506963,"name":"Uriah","org":"Uriah United Methodist Church The Shepard's Pantry","address":"26 County Road, Uriah, AL 36480","city":"Uriah","state":"AL","zip":"36480","phone":"(251) 862-5495","website":"","email":"","description":"Food pantry operated by Uriah United Methodist Church providing emergency food assistance to the community"},{"id":"fd17c988-c93a-4f02-8190-a186fcda0232","lat":30.69397549868223,"lng":-88.04453170545123,"name":"Uriah","org":"Uriah United Methodist Church The Shepard's Pantry","address":"26 County Road, Uriah, AL 36480","city":"Uriah","state":"AL","zip":"36480","phone":"(251) 862-5495","website":"","email":"","description":"Food pantry operated by Uriah United Methodist Church providing emergency food assistance to the community"},{"id":"584afa69-a6b6-4207-9276-9538466a3731","lat":30.70545969033123,"lng":-88.04665669508617,"name":"W Theodore","org":"Infinite Opportunities","address":"7941 Theodore Dawes Rd, W Theodore, AL 36582","city":"W Theodore","state":"AL","zip":"36582","phone":"251-662-9812","website":"","email":"","description":"Food assistance organization serving the W Theodore area"},{"id":"02023118-60a5-4aa0-bd86-1b0a72f6b1c2","lat":30.689017931179983,"lng":-88.03634483720958,"name":"Washington","org":"Washington Baptist Association","address":"Washington Baptist Association, Washington, AL 14810","city":"Washington","state":"AL","zip":"14810","phone":"(251) 847-2753","website":"","email":"","description":"Food assistance program operated by Washington Baptist Association, providing food pantry services to the local community."}]}