{"metadata":{"generated":"2025-08-05T05:41:09.937553+00:00","total_locations":11,"states_covered":42,"coverage":"42 US states/territories","source":"HAARRRvest - Pantry Pirate Radio Database","database_path":"pantry_pirate_radio.sqlite","format_version":"1.0","filtered_by":"state = CA"},"locations":[{"id":"f1c3467f-2565-4853-beb3-969f6c83b587","lat":38.1770652,"lng":-122.260703,"name":"American Canyon","org":"American Canyon Food Pantry - Harvest Freewill Baptist Church","address":"240 Rio Del Mar, American Canyon, CA 94503","city":"American Canyon","state":"CA","zip":"94503","phone":"","website":"https://www.canv.org/food-pantry/","email":"","description":"Food pantry providing assistance to community members. Participants can receive food once every 30 days. Must bring two forms of ID (one with current address and one with birthdate) and shopping bags/box."},{"id":"aa4559b9-752c-4bc3-9c02-088744336280","lat":34.0965722,"lng":-117.7351813,"name":"Claremont","org":"Claremont Meals On Wheels","address":"Address not specified, Claremont, CA 91711","city":"Claremont","state":"CA","zip":"91711","phone":"(909) 621-4018","website":"","email":"","description":"Claremont Meals On Wheels"},{"id":"33d4daed-656c-4daa-9541-aab9d92ae77c","lat":33.7650296063,"lng":-116.27019141627,"name":"Indio","org":"FIND Mobile Market Distribution - Shadow Hills High School","address":"39225 Jefferson St., Indio, CA 92201","city":"Indio","state":"CA","zip":"92201","phone":"(760) 775-3663","website":"https://findfoodbank.org/map/","email":"","description":"Mobile food distribution service at Shadow Hills High School providing food assistance to the community through FIND Food Bank."},{"id":"50566cbb-c182-49de-b5c1-f05009896914","lat":33.709774717553,"lng":-116.210471194335,"name":"Indio","org":"Apostolic Church of Indio","address":"46601 Vargas Rd., Indio, CA 92201","city":"Indio","state":"CA","zip":"92201","phone":"(760)342-4199","website":"https://findfoodbank.org/map/","email":"","description":"Food distribution services provided by Apostolic Church of Indio"},{"id":"e8db0395-adbb-443f-9e06-dccca9bd49e8","lat":38.447675033681,"lng":-122.19689282691,"name":"Lake Berryessa","org":"Berryessa - Moskowite Corners","address":"6004 Monticello Road, Lake Berryessa, CA 94558","city":"Lake Berryessa","state":"CA","zip":"94558","phone":"","website":"https://www.canv.org/food-pantry/","email":"","description":"Food pantry service providing food assistance to community members"},{"id":"c40cfa6e-269a-4b4f-b198-2b00fd9ccdba","lat":33.576125999999995,"lng":-117.1783828,"name":"Murrieta","org":"Community Food Pantry of Murrieta","address":"Unknown Address, Murrieta, CA 00000","city":"Murrieta","state":"CA","zip":"00000","phone":"(951) 677-6347","website":"","email":"","description":"Community food pantry serving the Murrieta area"},{"id":"71b09964-7a5b-424e-8098-2a53345b11fa","lat":38.2581591,"lng":-122.274353,"name":"Napa","org":"Napa Food Pantry (NEW LOCATION)","address":"938 Kaiser Road, Napa, CA 94559","city":"Napa","state":"CA","zip":"94559","phone":"","website":"https://www.canv.org/food-pantry/","email":"","description":"Food pantry providing food assistance to community members. Participants can receive food once every 30 days. Must bring two forms of ID (one with current address and one with birthdate) and shopping bags/box."},{"id":"a5c3bc93-2a03-41a7-8732-682b4fc59009","lat":35.041161599999995,"lng":-120.4779644,"name":"Nipomo","org":"Nipomo Food Basket - Food Distribution Center","address":"Address not specified, Nipomo, CA 93444","city":"Nipomo","state":"CA","zip":"93444","phone":"(805) 619-7681","website":"","email":"autoclassicattrilogy@gmail.com","description":"Food distribution services"},{"id":"4ed243e3-c64e-4ea1-b26a-dd52417e7945","lat":34.953412199999995,"lng":-120.4433025,"name":"Catholic Charities - Food Distribution Center","org":"Catholic Charities - Food Distribution Center","address":"607 W Main St, Santa Maria, CA 93458","city":"Santa Maria","state":"CA","zip":"93458","phone":"(805) 922-2059","website":"","email":"","description":"Food distribution services provided by Catholic Charities"},{"id":"c1c20fe0-294e-4d75-aa22-905e977f8c7b","lat":38.5085436,"lng":-122.475797,"name":"St. Helena","org":"North of Yountville Pantry - St. Helena Community Pantry","address":"1777 Main St., St. Helena, CA 94574","city":"St. Helena","state":"CA","zip":"94574","phone":"","website":"https://www.canv.org/food-pantry/","email":"","description":"Food pantry service providing food assistance to community members. Participants can receive food once every 30 days. Must bring two forms of ID (one with current address and one with birthdate) and shopping bags/box."},{"id":"9a99bec5-032a-4fe0-868d-425fecb8b758","lat":34.2058252,"lng":-119.1631408,"name":"Unknown City","org":"Colonial Village Tenant Association - Food Distribution Center","address":"Location Address, Unknown City, CA 00000","city":"Unknown City","state":"CA","zip":"00000","phone":"(805) 385-7574","website":"","email":"","description":"Food distribution services provided by Colonial Village Tenant Association"}]}