{"metadata":{"generated":"2025-07-27T00:46:18.115184+00:00","total_locations":24,"states_covered":26,"coverage":"26 US states/territories","source":"HAARRRvest - Pantry Pirate Radio Database","database_path":"pantry_pirate_radio.sqlite","format_version":"1.0","filtered_by":"state = DC"},"locations":[{"id":"099eb83f-a90d-4879-a131-9ddde66b32f9","lat":38.8851425,"lng":-77.00089059999999,"name":"Capitol Hill","org":"Washington City Church of the Brethren","address":"337 North Carolina Avenue Southeast, Capitol Hill, DC 20003","city":"Capitol Hill","state":"DC","zip":"20003","phone":"(202) 547-5924","website":"http://www.madcob.com/places/united-states/district-of-columbia/washington/church/washington-city/","email":"","description":"Washington City Church of the Brethren"},{"id":"e2782570-851e-4cdf-af42-2c7789dd7cbf","lat":38.8893461,"lng":-76.9210021,"name":"Capitol View","org":"Capital Area Food Bank Grocery plus","address":"5601 East Capitol Street Southeast, Capitol View, DC 20019","city":"Capitol View","state":"DC","zip":"20019","phone":"(202) 644-9880","website":"https://www.capitalareafoodbank.org/what-we-do/direct-food-distribution-programs/commodity-supplemental-food-program/","email":"","description":"Serves Montgomery County and Prince George's County\nGrocery Plus applications must be processed in person at a Grocery Plus distribution site or East Capitol Walk-In Center. To identify the pickup site closest to you, please call the Grocery Plus main line at 202-921-7471. When registering, participants are required to bring in supporting documents to prove identity, age, and residency. One or two documents can be used as proof of meeting all requirements"},{"id":"ce5a26d0-1e4a-4cf9-a573-a975d26ea25d","lat":38.8565353,"lng":-76.97182169999999,"name":"Garfield Heights","org":"Emmanuel Baptist Church","address":"2409 Ainger Place Southeast, Garfield Heights, DC 20020","city":"Garfield Heights","state":"DC","zip":"20020","phone":"(301) 266-1610","website":"","email":"","description":"Food service organization: Emmanuel Baptist Church"},{"id":"bf530dd1-4a9c-41b4-9306-76e50bd5a28f","lat":38.9310197,"lng":-77.0014008,"name":"Northeast Washington","org":"Basilica of the National Shrine","address":"400 Michigan Avenue Northeast, Northeast Washington, DC 20017","city":"Northeast Washington","state":"DC","zip":"20017","phone":"(202) 526-8300","website":"https://www.nationalshrine.org/","email":"","description":"Food service organization: Basilica of the National Shrine"},{"id":"3914476b-4739-4a17-b9f7-d3791f3219e3","lat":38.8980873,"lng":-76.9872127,"name":"Northeast Washington","org":"Purity Baptist Church","address":"1325 Maryland Avenue Northeast, Northeast Washington, DC 20002","city":"Northeast Washington","state":"DC","zip":"20002","phone":"(202) 397-4333","website":"https://www.puritybaptistdc.org/","email":"","description":"Religious organization providing food assistance services"},{"id":"50e14c7a-2302-4154-ae64-61ee8ea2c403","lat":38.9063427,"lng":-77.0401649,"name":"Northwest Washington","org":"Cathedral of Saint Matthew the Apostle","address":"1725 Rhode Island Avenue Northwest, Northwest Washington, DC 20036","city":"Northwest Washington","state":"DC","zip":"20036","phone":"(202) 347-3215","website":"https://www.stmatthewscathedral.org/outreach","email":"","description":"Cathedral of Saint Matthew the Apostle"},{"id":"87b164dc-03a4-4853-8038-f76c116e3a99","lat":38.90316869999999,"lng":-77.0529834,"name":"Northwest Washington","org":"St Stephen-Martyr Church","address":"2436 Pennsylvania Avenue Northwest, Northwest Washington, DC 20037","city":"Northwest Washington","state":"DC","zip":"20037","phone":"(202) 785-0982","website":"https://www.ststephenmartyrdc.org/social-justice","email":"","description":"St Stephen-Martyr Church"},{"id":"5d328d3d-a011-4422-9e9a-b1e9558dac0c","lat":38.918358,"lng":-77.03288599999999,"name":"Northwest Washington","org":"St. Augustine Catholic Church","address":"1419 V Street Northwest, Northwest Washington, DC 20009","city":"Northwest Washington","state":"DC","zip":"20009","phone":"(202) 265-1470","website":"https://saintaugustine-dc.org/share","email":"","description":"Call before going"},{"id":"dd2fcfdf-9472-4c1b-8fe1-21484d74445a","lat":38.93961669999999,"lng":-77.0234512,"name":"Northwest Washington","org":"First SDA Church","address":"810 Shepherd Street Northwest, Northwest Washington, DC 20011","city":"Northwest Washington","state":"DC","zip":"20011","phone":"(202) 997-9663","website":"","email":"","description":"Food pantry is at the basement of the church."},{"id":"c99b0036-0273-40c4-8c38-fc7786bcbae0","lat":38.9322386,"lng":-77.0278122,"name":"Northwest Washington","org":"Park Road Community Church","address":"1019 Park Road Northwest, Northwest Washington, DC 20010","city":"Northwest Washington","state":"DC","zip":"20010","phone":"(202) 427-5939","website":"","email":"","description":"Community church organization"},{"id":"985f9aeb-9fc2-4488-ab8c-2e913741be55","lat":38.9269726,"lng":-77.03274309999999,"name":"Northwest Washington","org":"Columbia Heights Village Tenant Association","address":"2900 14th Street Northwest, Northwest Washington, DC 20009","city":"Northwest Washington","state":"DC","zip":"20009","phone":"(202) 617-8349","website":"","email":"","description":"(202) 234-6900"},{"id":"0da9a823-2e70-47a3-95c9-6efe6f7c6067","lat":38.9028352,"lng":-77.01150969999999,"name":"Northwest Washington","org":"SeVerna","address":"43 K Street Northwest, Northwest Washington, DC 20001","city":"Northwest Washington","state":"DC","zip":"20001","phone":"(202) 759-8010","website":"","email":"","description":"Food service organization: SeVerna"},{"id":"0ab4de78-adf8-4c43-ade5-ecb7ffb652fe","lat":38.9214861,"lng":-77.02582629999999,"name":"Northwest Washington","org":"Garfield Terrace Resident Council","address":"2301 11th Street Northwest, Northwest Washington, DC 20001","city":"Northwest Washington","state":"DC","zip":"20001","phone":"(240) 681-4234","website":"","email":"","description":"Community organization serving residents"},{"id":"eb884d29-e989-4296-98b1-da0f3eff7679","lat":38.917618,"lng":-77.0299466,"name":"Northwest Washington","org":"Walker Memorial Baptist Church","address":"2020 13th Street Northwest, Northwest Washington, DC 20009","city":"Northwest Washington","state":"DC","zip":"20009","phone":"(202) 232-1120","website":"","email":"","description":"Emergency food available. Call to inquire."},{"id":"726462bc-78d5-41a5-b9ca-0c8b2ef2699b","lat":38.9295181,"lng":-77.0357569,"name":"Northwest Washington","org":"Columbia Heights Education Campus","address":"3101 16th Street Northwest, Northwest Washington, DC 20010","city":"Northwest Washington","state":"DC","zip":"20010","phone":"(202) 939-7700","website":"https://www.checdc.org/apps/contact/","email":"","description":"only for students and parents"},{"id":"26442fc8-c496-452a-b02e-84b58909535d","lat":38.92931719999999,"lng":-77.01077819999999,"name":"Northwest Washington","org":"Washington DC VA Medical Center","address":"50 Irving Street Northwest, Northwest Washington, DC 20422","city":"Northwest Washington","state":"DC","zip":"20422","phone":"(202) 745-8190","website":"https://www.va.gov/washington-dc-health-care/health-services/","email":"","description":"Serves Veterans only \nDistribution at Clinical Research Building Gate 1"},{"id":"8638506c-b926-4682-987e-375eb6c35ecc","lat":38.907011,"lng":-77.06625509999999,"name":"Northwest Washington","org":"Tabernacle of Praise","address":"1302 33rd Street Northwest, Northwest Washington, DC 20007","city":"Northwest Washington","state":"DC","zip":"20007","phone":"","website":"","email":"","description":"Food service organization: Tabernacle of Praise"},{"id":"984c33d8-2a3f-41e4-8942-fe26ba040ab6","lat":38.8998368,"lng":-77.03127640000001,"name":"Northwest Washington","org":"New York Avenue Presbyterian Church","address":"1313 New York Avenue Northwest, Northwest Washington, DC 20005","city":"Northwest Washington","state":"DC","zip":"20005","phone":"(202) 393-3700","website":"","email":"","description":"Food pantry service organization"},{"id":"714ea150-b7e3-4dbe-943c-b4e50b192e72","lat":38.9319061,"lng":-77.0360795,"name":"Northwest Washington","org":"The Family Place","address":"3309 16th Street Northwest, Northwest Washington, DC 20010","city":"Northwest Washington","state":"DC","zip":"20010","phone":"(202) 265-0149","website":"https://www.thefamilyplacedc.org/","email":"","description":"CALL BEFORE GOING, SCHEDULE VARIES. We have free pantry food product bags. Walk-ins can request one per month. Fresh produce are available on third Wedsnesday of the month."},{"id":"ca41451b-73d5-4369-bee8-ce78a384333f","lat":38.8657658,"lng":-76.9807293,"name":"Southeast Washington","org":"Anacostia Community Service Center","address":"1649 Marion Barry Avenue SouthEast, Southeast Washington, DC 20020","city":"Southeast Washington","state":"DC","zip":"20020","phone":"(202) 610-5900","website":"https://www.upo.org/about/facilities-locations/","email":"","description":"Community service organization"},{"id":"b4790fd1-66f2-40ec-995d-b4d796f99891","lat":38.8476855,"lng":-76.9808603,"name":"Southeast Washington","org":"Friends Of Douglass Community Center","address":"3261 Stanton Road Southeast, Southeast Washington, DC 20020","city":"Southeast Washington","state":"DC","zip":"20020","phone":"(202) 285-5354","website":"","email":"","description":"Families need to complete the 2024-25 school meal & summer EBT application to receive summer benefits ($120 per eligible child)- name spelling, address, etc. all need to be up to date and accurate! Summer EBT Outreach Toolkit\" https://www.dchunger.org/federal-nutrition-programs/sun-bucks-summer-ebt/"},{"id":"0d102386-f903-49aa-964f-0a4fc917c379","lat":38.8645963,"lng":-76.9896052,"name":"Southeast Washington","org":"Martha's Table - Martha's Outfitters","address":"2204 Martin Luther King Junior Avenue Southeast, Southeast Washington, DC 20020","city":"Southeast Washington","state":"DC","zip":"20020","phone":"(202) 885-9613","website":"https://marthastable.org/","email":"","description":"Martha's Outfitters offer adult clothing & children's clothing via a monthly credit. Call directly at (202) 885-9613. Accepts [clothing donations](https://marthastable.org/clothing-donations/)"},{"id":"5409221c-c631-48da-bb09-654b7f250dfa","lat":38.86411630000001,"lng":-77.0123906,"name":"Southwest Washington","org":"DC Central Kitchen food bank","address":"2121 First Street Southwest, Southwest Washington, DC 20024","city":"Southwest Washington","state":"DC","zip":"20024","phone":"(202) 234-0707","website":"https://dccentralkitchen.org/community-meals/","email":"","description":"Food service organization: DC Central Kitchen food bank"},{"id":"fb578a8f-13bb-4682-8586-6002283c399a","lat":38.9001734,"lng":-77.0018736,"name":"Washington","org":"mRelief SNAP Screener - Washington DC","address":", Washington, DC 20002","city":"Washington","state":"DC","zip":"20002","phone":"","website":"https://apply.mrelief.com/screener","email":"","description":"Families need to complete the 2024-25 school meal & summer EBT application to receive summer benefits ($120 per eligible child)- name spelling, address, etc. all need to be up to date and accurate! Summer EBT Outreach Toolkit\" https://www.dchunger.org/federal-nutrition-programs/sun-bucks-summer-ebt/\nGo to https://apply.mrelief.com/screener or text \"Food\" to 74544 to check eligibility."}]}