{"metadata":{"generated":"2025-07-27T04:08:36.038554+00:00","total_locations":85,"states_covered":26,"coverage":"26 US states/territories","source":"HAARRRvest - Pantry Pirate Radio Database","database_path":"pantry_pirate_radio.sqlite","format_version":"1.0","filtered_by":"state = FL"},"locations":[{"id":"7474dc5c-d69e-4ef1-84a0-341d3f1dc04d","lat":28.2528395,"lng":-82.3761767,"name":"Angus Valley","org":"Life Community Center – ext. of Life Church","address":"6542 Applewood Drive, Angus Valley, FL 33544","city":"Angus Valley","state":"FL","zip":"33544","phone":"(813) 994-0685","website":"","email":"","description":"Life Community Center – ext. of Life Church"},{"id":"4d627bf6-cb0b-40b7-859c-31e22cb678f5","lat":28.05634869999999,"lng":-81.7873528,"name":"Auburndale","org":"Central Assembly Of God","address":"601 Lemon Street, Auburndale, FL 33823","city":"Auburndale","state":"FL","zip":"33823","phone":"(863) 967-2876","website":"","email":"","description":"Central Assembly Of God"},{"id":"1a4afc25-8b78-4172-8403-c955b2180983","lat":28.0753893,"lng":-81.77954179999999,"name":"Auburndale","org":"Auburndale Community Church","address":"601 Stadium Road, Auburndale, FL 33823","city":"Auburndale","state":"FL","zip":"33823","phone":"(863) 956-2685","website":"https://auburndalecommunitychurch.com/","email":"","description":"Food service organization: Auburndale Community Church"},{"id":"40fca195-b28a-4b38-aa8c-f190849d4185","lat":28.360292,"lng":-82.19816949999999,"name":"Avondale","org":"Love One Another Ministry","address":"13853 15th Street, Avondale, FL 33525","city":"Avondale","state":"FL","zip":"33525","phone":"(352) 424-4972","website":"https://dadecityarts.com/the-market-place","email":"","description":"Love One Another Ministry"},{"id":"f107d912-b473-4e32-ae14-97e0d8656dad","lat":27.9324368,"lng":-82.2781002,"name":"Brandon","org":"The Three B's Ministry Inc.","address":"306 Lithia Pinecrest Road, Brandon, FL 33511","city":"Brandon","state":"FL","zip":"33511","phone":"(813) 624-1119","website":"https://thethreebsministry.org/","email":"","description":"Registration is open wednesday afternoon but for first timers there will be emergency food supply before registration."},{"id":"655b7a29-528c-4ec2-8682-e6e6867fed6a","lat":27.9283837,"lng":-82.2852241,"name":"Brandon","org":"HILLSBOROUGH | Humanitary Medical Center","address":"731 South Parsons Avenue, Brandon, FL 33511","city":"Brandon","state":"FL","zip":"33511","phone":"(813) 499-1500","website":"","email":"","description":"Humanitary Medical Center providing services in Hillsborough County"},{"id":"cc6a3941-5fa1-43bd-ac23-6ff7740a93cd","lat":28.2349005,"lng":-82.1761432,"name":"City Of Zephyrhills","org":"St Joseph Zephyrhills","address":"5316 11th Street, City Of Zephyrhills, FL 33542","city":"City Of Zephyrhills","state":"FL","zip":"33542","phone":"(813) 782-2813","website":"https://www.stjosephzephyrhills.org/food-pantry.html","email":"","description":"Food pantry services"},{"id":"dc9ad512-0669-4e16-8193-ab2f173ba7c3","lat":28.2326619,"lng":-82.1820381,"name":"City Of Zephyrhills","org":"Neighborhood Care Center","address":"5140 6th Street, City Of Zephyrhills, FL 33542","city":"City Of Zephyrhills","state":"FL","zip":"33542","phone":"(813) 780-6822","website":"","email":"","description":"Community care organization"},{"id":"9138d411-7dc2-406c-ba03-90c627f7fb1a","lat":28.2380523,"lng":-82.1721281,"name":"City Of Zephyrhills","org":"First Presbyterian Church of Zephyrhills","address":"5510 19th Street, City Of Zephyrhills, FL 33542","city":"City Of Zephyrhills","state":"FL","zip":"33542","phone":"(813) 782-7412","website":"https://www.firstpcz.org/","email":"","description":"https://www.facebook.com/firstpcz/"},{"id":"deed0c43-0a39-4a4e-9a0b-fc735cd0b1a5","lat":27.916996,"lng":-82.7388022,"name":"Clearwater","org":"Bible Fellowship Church","address":"4670 East Bay Drive, Clearwater, FL 33764","city":"Clearwater","state":"FL","zip":"33764","phone":"(727) 536-1641","website":"https://www.bible-fellowship.church/ministries","email":"","description":"Food service organization: Bible Fellowship Church"},{"id":"dbcd9ac1-6f08-4212-976d-d38f054da9f1","lat":27.9581321,"lng":-82.7332453,"name":"Clearwater","org":"Carey Leisure Carney","address":"622 Bypass Drive, Clearwater, FL 33764","city":"Clearwater","state":"FL","zip":"33764","phone":"(727) 761-5064","website":"https://careyandleisure.com/free-turkey-giveaway-in-clearwater-fl/","email":"","description":"Food assistance organization providing turkey giveaways in Clearwater, FL"},{"id":"f1040c95-491e-4c33-b971-b8662e095b5f","lat":28.3648611,"lng":-82.19137959999999,"name":"Dade City","org":"Foundations of Life","address":"37733 Meridian Avenue, Dade City, FL 33525","city":"Dade City","state":"FL","zip":"33525","phone":"(352) 521-1218","website":"","email":"","description":"Clients can visit once every two months"},{"id":"b02e13ed-1cf7-4842-8fbe-f5fe788bb9f2","lat":28.3438832,"lng":-82.183748,"name":"Dade City","org":"Emmanuel Ministries","address":"12639 Candlewood Circle, Dade City, FL 33525","city":"Dade City","state":"FL","zip":"33525","phone":"(813) 713-0305","website":"","email":"","description":"Food service organization: Emmanuel Ministries"},{"id":"f6696d67-2599-48e8-b7bd-38cce8f447f1","lat":28.3837482,"lng":-82.1927326,"name":"Dade City","org":"Daystar Hope Center, Inc.","address":"15512 U.S. 301, Dade City, FL 33523","city":"Dade City","state":"FL","zip":"33523","phone":"(352) 523-0844","website":"https://www.facebook.com/DaystarHopeCenter/","email":"","description":"Community service organization"},{"id":"977c7c48-302c-4f90-8897-93c968c22ed6","lat":26.306276,"lng":-80.097054,"name":"Deerfield Beach","org":"Nina's Place","address":"959 SE 6th Ave, Deerfield Beach, FL 33441","city":"Deerfield Beach","state":"FL","zip":"33441","phone":"(954) 421-3146","website":"http://www.ninasplacedfb.org","email":"","description":"Food pantry organization"},{"id":"19843105-0966-4e12-99f3-0f8d306c6133","lat":27.9927586,"lng":-82.2194061,"name":"Dover","org":"HILLSBOROUGH | Dover Advent Christian Church","address":"14202 Downing Street, Dover, FL 33527","city":"Dover","state":"FL","zip":"33527","phone":"(813) 659-2600","website":"https://www.doveracchurch.com/feedingdover","email":"","description":"Food pantry services provided by Dover Advent Christian Church"},{"id":"7c4af3b4-c200-4a77-afd1-40884e209d97","lat":27.9828999,"lng":-82.5105185,"name":"Drew Park","org":"Without Walls ONE Reach-Food Pantry","address":"4414 North Grady Avenue, Drew Park, FL 33614","city":"Drew Park","state":"FL","zip":"33614","phone":"(813) 879-4673","website":"https://verticaltampa.org/events/","email":"","description":"Food pantry service providing nutritional assistance to the community"},{"id":"4169979a-a411-48ed-a5db-40b3f1d5b300","lat":27.8504481,"lng":-82.1748049,"name":"Fish Hawk","org":"HILLSBOROUGH | Dwelling Place Lithia","address":"6627 Lithia Pinecrest Road, Fish Hawk, FL 33547","city":"Fish Hawk","state":"FL","zip":"33547","phone":"(813) 685-4240","website":"https://www.dwellingplacelithia.org/","email":"","description":"Food pantry service organization"},{"id":"da1dd4da-e089-483d-aaba-eec65d0cb209","lat":27.7587034,"lng":-81.53322460000001,"name":"Frostproof","org":"Polk County Outreach @ Family Life Church","address":"139 Bulldog Way, Frostproof, FL 33843","city":"Frostproof","state":"FL","zip":"33843","phone":"(863) 298-7500","website":"https://www.polk-county.net/news/polk-county-opens-citizens-information-line/","email":"","description":"Distribution every day until power is restored and commercial supplies are available.."},{"id":"2bf6df37-444c-41e7-90b3-f10db9af9f9f","lat":27.9394224,"lng":-82.3694818,"name":"Greater Palm River Point CDC","org":"Bautista Project Inc. @ Keeney Chapel","address":"7736 Destin Drive, Greater Palm River Point CDC, FL 33619","city":"Greater Palm River Point CDC","state":"FL","zip":"33619","phone":"","website":"https://www.thebautistaprojectinc.org/","email":"","description":"Mobile pantry"},{"id":"79b79d61-6f8f-49d6-9cf8-a0277f6f2c3a","lat":28.3260999,"lng":-82.68483789999999,"name":"Gulf Highlands","org":"Messengers of Hope - Gulf Highlands","address":"7831 Gulf Highlands Drive, Gulf Highlands, FL 34668","city":"Gulf Highlands","state":"FL","zip":"34668","phone":"(813) 404-2300","website":"","email":"","description":"Food pantry service"},{"id":"9bf7dead-de98-48ea-9e47-50073aa42e3c","lat":28.1236311,"lng":-81.5963014,"name":"Haines City","org":"Creating Disciples Ministry","address":"3520 Baker Dairy Road, Haines City, FL 33844","city":"Haines City","state":"FL","zip":"33844","phone":"","website":"","email":"","description":"Food service organization: Creating Disciples Ministry"},{"id":"355af6c4-2717-4040-b9b5-cc60ca801b88","lat":28.1801468,"lng":-82.753965,"name":"Holiday","org":"Joining Hands Mission","address":"3624 Atlantis Drive, Holiday, FL 34691","city":"Holiday","state":"FL","zip":"34691","phone":"","website":"joininghandsmission.org","email":"","description":"Serving at Holiday Lake Estates Civic Center\nDrive through hot breakfast served to all who come as long as food lasts"},{"id":"82d0cbc3-6831-45e9-8c1e-2b97975a1cd0","lat":28.3645286,"lng":-82.6987546,"name":"Hudson","org":"First Baptist of Hudson","address":"7009 Hudson Avenue, Hudson, FL 34667","city":"Hudson","state":"FL","zip":"34667","phone":"(727) 378-5885","website":"","email":"","description":"Food service organization: First Baptist of Hudson"},{"id":"2d0df28c-a67b-4e5c-9941-216a0a9f42aa","lat":28.3769136,"lng":-82.1960158,"name":"Lake George Park","org":"First Baptist Church","address":"15029 14th Street, Lake George Park, FL 33523","city":"Lake George Park","state":"FL","zip":"33523","phone":"(352) 567-3265","website":"https://mannapantryfbdc.org/","email":"info@omick.com","description":"Community Meal/Soup Kitchen providing food services. Call to verify hours of operation and to see if an appointment is required"},{"id":"f36be7c0-ae8d-4a99-8207-0b5f19273fb2","lat":27.9127537,"lng":-81.5912922,"name":"Lake Wales","org":"B Street Community Service Center","address":"230 B Street, Lake Wales, FL 33853","city":"Lake Wales","state":"FL","zip":"33853","phone":"(863) 648-1500","website":"https://uwcf.org/initiatives/endhunger/schedule/#toggle-id-9","email":"","description":"Community service center providing food assistance"},{"id":"f23a4993-1f38-4ad1-907f-f2af301daa97","lat":27.9024774,"lng":-81.5886666,"name":"Lake Wales","org":"Lake Wales Emergency Food Pantry","address":"140 East Park Avenue, Lake Wales, FL 33853","city":"Lake Wales","state":"FL","zip":"33853","phone":"(863) 676-6678","website":"https://lakewalescarecenter.com/programs/","email":"","description":"Call the Care Centre at +1 (863) 676-6678 to be assessed by a case manager for food access."},{"id":"fc7e13e5-3158-499b-afb5-b2c4c1bfa79e","lat":28.0875549,"lng":-81.9566425,"name":"Lakeland","org":"Faith Wesleyan Church","address":"3501 North Florida Avenue, Lakeland, FL 33805","city":"Lakeland","state":"FL","zip":"33805","phone":"(863) 686-1787","website":"https://www.faithwesleyan.net/upcoming-events","email":"","description":"Faith Wesleyan Church"},{"id":"fc15c41b-c358-401d-b961-84448303b538","lat":28.0576915,"lng":-81.9083453,"name":"Lakeland","org":"Combee Connection Ministries","address":"1140 North Combee Road, Lakeland, FL 33801","city":"Lakeland","state":"FL","zip":"33801","phone":"(863) 617-5824","website":"https://www.combeeconnection.com/","email":"","description":"Combee Connection Ministries"},{"id":"898483d1-e612-47ea-a1ef-c4cebde33ea0","lat":28.17607259999999,"lng":-81.9872439,"name":"Lakeland","org":"Polk County Outreach @ Gator Creek Preserve","address":"9725 US Highway 98 North, Lakeland, FL 33809","city":"Lakeland","state":"FL","zip":"33809","phone":"(863) 298-7500","website":"https://www.polk-county.net/news/polk-county-opens-citizens-information-line/","email":"","description":"Distribution every day until power is restored and commercial supplies are available."},{"id":"137be501-6fa7-484c-8038-69dbf26aee11","lat":28.06059239999999,"lng":-82.0312041,"name":"Lakeland","org":"Polk County Outreach @ Walker Road Park","address":"1285 Walker Road, Lakeland, FL 33810","city":"Lakeland","state":"FL","zip":"33810","phone":"(863) 298-7500","website":"https://www.polk-county.net/news/polk-county-opens-citizens-information-line/","email":"","description":"Distribution every day until power is restored and commercial supplies are available."},{"id":"934a3e07-a6c0-4c7e-ad66-020848f3e3f4","lat":28.109521,"lng":-81.9480961,"name":"Lakeland","org":"Believers' Fellowship Church","address":"5240 North Socrum Loop Road, Lakeland, FL 33809","city":"Lakeland","state":"FL","zip":"33809","phone":"(863) 858-5668","website":"https://believersfellowship.com/#events","email":"","description":"Distribution is in youth hall"},{"id":"c4364fdd-bfb7-4dcf-a21c-15471601c234","lat":28.0346913,"lng":-81.91188749999999,"name":"Lakeland","org":"Crystal Lake Elementary","address":"700 Galvin Drive, Lakeland, FL 33801","city":"Lakeland","state":"FL","zip":"33801","phone":"(863) 499-2970","website":"https://uwcf.org/initiatives/endhunger/schedule/","email":"","description":"Food service organization: Crystal Lake Elementary"},{"id":"6678038e-3415-41f2-9944-a0ddc0b524b5","lat":27.979769,"lng":-81.9225331,"name":"Lakeland","org":"Blessing & Hope Food Pantry","address":"4730 Lakeland Highlands Road, Lakeland, FL 33813","city":"Lakeland","state":"FL","zip":"33813","phone":"(863) 698-7512","website":"https://www.blessingsandhope.org/","email":"","description":"Food pantry services"},{"id":"e2db25cc-5d53-41b1-9af8-027fd2b9dc24","lat":28.19329889999999,"lng":-82.46191619999999,"name":"Land O' Lakes","org":"Father and Son Food Pantry","address":"21418 Carson Drive, Land O' Lakes, FL 34639","city":"Land O' Lakes","state":"FL","zip":"34639","phone":"(813) 846-9993","website":"https://www.fatherandsonfreefoodpantry.org/events/free-grocery-shopping-1","email":"","description":"Food pantry service providing free grocery shopping"},{"id":"4c976c1e-0d35-4a6f-8fda-1517be9e2cd1","lat":27.8727973,"lng":-82.7915642,"name":"Largo","org":"BEAMING HOPE CHURCH","address":"11035 110th Avenue North, Largo, FL 33778","city":"Largo","state":"FL","zip":"33778","phone":"(727) 216-3364","website":"https://beaminghope.org/series/free-groceries/","email":"","description":"Food assistance organization"},{"id":"718f515b-b27d-47f8-aed9-b7c7f4ea0e05","lat":28.1706518,"lng":-82.4109847,"name":"Lutz","org":"North Tampa Church of Christ / Messengers of Hope","address":"3611 East County Line Road, Lutz, FL 33559","city":"Lutz","state":"FL","zip":"33559","phone":"(813) 909-4646","website":"https://northtampa.church/events/messengers-of-hope-food-distribution","email":"","description":"https://www.facebook.com/photo/?fbid=793197462851271&set=a.632625858908433"},{"id":"8f9cdac2-448e-4f3a-8870-f27038169c55","lat":27.92604,"lng":-82.0367756,"name":"Mulberry","org":"RCMA Mulberry CDC","address":"4441 Academy Drive, Mulberry, FL 33860","city":"Mulberry","state":"FL","zip":"33860","phone":"(863) 425-1523","website":"https://uwcf.org/initiatives/endhunger/schedule/","email":"","description":"RCMA Mulberry CDC organization"},{"id":"b67a0992-be7d-4542-b985-e6f7e05ed94e","lat":27.8981187,"lng":-81.9662953,"name":"Mulberry","org":"Polk County Outreach @ Mulberry Civic Center","address":"901 Northeast 5th Street, Mulberry, FL 33860","city":"Mulberry","state":"FL","zip":"33860","phone":"(863) 298-7500","website":"https://www.polk-county.net/news/polk-county-opens-citizens-information-line/","email":"","description":"Polk County outreach services at Mulberry Civic Center location"},{"id":"f3be1510-cb25-4f0c-9a49-1303720313e5","lat":28.18643699999999,"lng":-82.60453299999999,"name":"New Port Richey","org":"St Peter the Apostle Catholic Church","address":"12747 Interlaken Road, New Port Richey, FL 34655","city":"New Port Richey","state":"FL","zip":"34655","phone":"(727) 264-8968","website":"https://sptatrinity.org/caritas","email":"","description":"Food service organization: St Peter the Apostle Catholic Church"},{"id":"abf66a52-d3ea-4f11-a73e-c30c0fa976f9","lat":28.25844249999999,"lng":-82.726394,"name":"New Port Richey","org":"Feed the Neighbors by Refuge Church","address":"5320 Palmetto Road, New Port Richey, FL 34652","city":"New Port Richey","state":"FL","zip":"34652","phone":"(727) 849-2762","website":"","email":"","description":"Food pantry service operated by Refuge Church"},{"id":"03a981c0-ed9c-4565-b4ec-a7b85ccd8e22","lat":28.2536174,"lng":-82.71722129999999,"name":"New Port Richey","org":"First United Methodist Church","address":"5901 Indiana Avenue, New Port Richey, FL 34652","city":"New Port Richey","state":"FL","zip":"34652","phone":"(727) 842-7674","website":"http://fumcschenectady.org/","email":"ewilcomb@yahoo.com","description":"Community meal/soup kitchen that usually serves on holidays with sit-down meals"},{"id":"688306dc-190c-4ce8-b5fc-20374e889ea5","lat":28.2529912,"lng":-82.7019542,"name":"New Port Richey","org":"Covenant Christian Church","address":"6814 Indiana Avenue, New Port Richey, FL 34653","city":"New Port Richey","state":"FL","zip":"34653","phone":"(727) 842-4566","website":"","email":"","description":"Community organization providing services"},{"id":"aeec12db-003c-448f-9437-4b9cd6a88eb7","lat":28.2150763,"lng":-82.677123,"name":"New Port Richey","org":"St. Vincent DePaul – St. Thomas Aquanis","address":"8320 Old County Road 54, New Port Richey, FL 34653","city":"New Port Richey","state":"FL","zip":"34653","phone":"(727) 372-8600","website":"https://stanpr.org/st-vincent-de-paul/","email":"","description":"Call In Line: 727-372-8600 x 142\nhttps://www.facebook.com/stanpr/"},{"id":"9aaa5c8a-8448-47ff-8e08-54888f9a22ed","lat":28.0530853,"lng":-82.4474626,"name":"North Tampa","org":"Crossover Church","address":"1235 East Fowler Avenue, North Tampa, FL 33612","city":"North Tampa","state":"FL","zip":"33612","phone":"(813) 971-8887","website":"https://www.crossoverchurch.org/ministries","email":"cwethers@msn.com | reggielee@crossoverchurch.tv","description":"Food service organization: Crossover Church"},{"id":"61f16dcf-4734-4cb0-86d5-9ae61691cb2e","lat":28.3328137,"lng":-82.65224760000001,"name":"Parkwood Acres","org":"GOD'S WORKSHOP","address":"12106 Parkwood Street, Parkwood Acres, FL 34669","city":"Parkwood Acres","state":"FL","zip":"34669","phone":"(727) 233-9335","website":"https://godsworkshop.org/services/","email":"","description":"Community organization providing services"},{"id":"1b8a0418-a47d-4e70-bfca-ccd55c60d703","lat":28.3303793,"lng":-82.2231348,"name":"Pasadena","org":"Pasadena Baptist Church","address":"35845 Clinton Avenue, Pasadena, FL 33525","city":"Pasadena","state":"FL","zip":"33525","phone":"(352) 521-0545","website":"","email":"","description":"Saturday January 13, 2024 and every other Saturday from that date.\nhttps://www.facebook.com/pasadenabaptistchurch/"},{"id":"cd0c8002-5da6-4799-a871-50d153b29f53","lat":27.8739751,"lng":-82.71285739999999,"name":"Pinellas Park","org":"The Family Services Initiative (FSI Connect)","address":"11254 58th Street, Pinellas Park, FL 33782","city":"Pinellas Park","state":"FL","zip":"33782","phone":"(727) 545-6477","website":"http://www.pemhs.org","email":"","description":"- no food pantry at this location."},{"id":"bf422923-2aac-4cc4-9d87-f21bdabf8e32","lat":28.0078034,"lng":-82.1190601,"name":"Plant City","org":"United Food Bank & Services","address":"702 East Alsobrook Street, Plant City, FL 33563","city":"Plant City","state":"FL","zip":"33563","phone":"(813) 764-0625","website":"https://ufbpc.org/","email":"","description":"Food service organization: United Food Bank & Services"},{"id":"4d7cdb04-dcb6-4cd5-800d-023232a9f192","lat":28.0768946,"lng":-82.2011486,"name":"Plant City","org":"Harmony Baptist Church","address":"6008 West Knights Griffin Road, Plant City, FL 33565","city":"Plant City","state":"FL","zip":"33565","phone":"(813) 986-7165","website":"https://www.harmonybaptistpcf.com/","email":"","description":"Religious organization providing community services"},{"id":"6db59ac5-a2eb-4a03-a3ad-3ee12dc0a175","lat":27.013341,"lng":-82.16675479999999,"name":"Port Charlotte","org":"Eben-Ezer Haitian Baptist Church of Port Charlotte","address":"17195 Oakleaf Avenue, Port Charlotte, FL 33953","city":"Port Charlotte","state":"FL","zip":"33953","phone":"(941) 629-5301","website":"","email":"","description":"Religious organization serving the Port Charlotte community"},{"id":"8c984b5e-7acd-4058-b0aa-74d0489dba72","lat":28.3172491,"lng":-82.7043965,"name":"Port Richey","org":"Gulfview Grace Brethern Church","address":"6639 Hammock Road, Port Richey, FL 34668","city":"Port Richey","state":"FL","zip":"34668","phone":"(727) 862-7777","website":"","email":"","description":"Food service organization: Gulfview Grace Brethern Church"},{"id":"d691dca7-0465-4c07-b393-f321f11ca88f","lat":28.2809629,"lng":-82.7031633,"name":"Port Richey","org":"Messengers of Hope","address":"6715 Ridge Road, Port Richey, FL 34668","city":"Port Richey","state":"FL","zip":"34668","phone":"(813) 404-2300","website":"https://www.facebook.com/MessengersOfHopeMission","email":"","description":"Community organization providing services"},{"id":"d3d37963-d9e8-4b0d-80b6-8867efcc3c08","lat":26.9322992,"lng":-82.0544692,"name":"Punta Gorda","org":"New Life Church","address":"507 West Marion Avenue, Punta Gorda, FL 33950","city":"Punta Gorda","state":"FL","zip":"33950","phone":"(941) 639-3842","website":"https://newlifeforall.church/","email":"info@newliferaymond.org","description":"Food service organization: New Life Church"},{"id":"8ea089ac-4586-4ad1-8c02-c5933541c52c","lat":27.8756383,"lng":-82.3700167,"name":"Riverview","org":"Lighthouse Gospel","address":"7211 South 78th Street, Riverview, FL 33578","city":"Riverview","state":"FL","zip":"33578","phone":"(813) 677-5220","website":"","email":"","description":"Food pantry service"},{"id":"3df7bf1c-9c58-4e60-9fce-556e7f224961","lat":28.368121,"lng":-82.18999749999999,"name":"Ross Addition","org":"The Salvation Army East Pasco Service Center","address":"14445 7th Street, Ross Addition, FL 33523","city":"Ross Addition","state":"FL","zip":"33523","phone":"(352) 521-3126","website":"https://www.salvationarmyusa.org/usn/plugins/gdosCenterSearch?query=33597&mode=query_1&limit=40","email":"","description":"The Salvation Army East Pasco Service Center"},{"id":"ee9e58ec-20d8-4d9c-af36-1393c8d03c9a","lat":28.247093,"lng":-81.255463,"name":"SAINT CLOUD","org":"With Open Hands","address":"1215 Old Hickory Tree Rd, SAINT CLOUD, FL 34771","city":"SAINT CLOUD","state":"FL","zip":"34771","phone":"(689) 269-8842","website":"https://withopenhands.org","email":"","description":"Food service organization: With Open Hands"},{"id":"12cc897e-45cd-4d68-85a5-6ded4274f9c3","lat":28.0200845,"lng":-82.7040671,"name":"Safety Harbor","org":"anchor church / Messengers of Hope","address":"2701 Rigsby Lane, Safety Harbor, FL 34695","city":"Safety Harbor","state":"FL","zip":"34695","phone":"(727) 726-7016","website":"https://www.facebook.com/photo/?fbid=793197462851271&set=a.632625858908433","email":"","description":"Food pantry service provider"},{"id":"907c6011-c597-491c-8d50-23d84be44df0","lat":27.9818785,"lng":-82.2910685,"name":"Seffner Community Alliance","org":"Unity AME Church","address":"1013 West Doctor Martin Luther King Junior Boulevard, Seffner Community Alliance, FL 33584","city":"Seffner Community Alliance","state":"FL","zip":"33584","phone":"(813) 571-3758","website":"https://unityame.org/services/joyce-jones-culinary-ministry","email":"","description":"Unity AME Church providing community services including culinary ministry"},{"id":"2a2e1718-96ae-4a5f-86ce-83181b4f28c5","lat":27.924931,"lng":-82.4150824,"name":"Southeast Tampa","org":"Feeding Tampa Bay Causeway Center","address":"3624 Causeway Boulevard, Southeast Tampa, FL 33619","city":"Southeast Tampa","state":"FL","zip":"33619","phone":"(813) 254-1190","website":"https://www.feedingtampabay.org/#","email":"","description":"Stay\nInformed\nText FTBFYI to\n833-530-3663"},{"id":"ce70b498-e27b-43f5-a6cd-ae2a8ae478c6","lat":28.3850801,"lng":-82.5518498,"name":"Spring Hill","org":"Shady Hills Mission Chapel","address":"15925 Greenglen Lane, Spring Hill, FL 34610","city":"Spring Hill","state":"FL","zip":"34610","phone":"(727) 856-2948","website":"https://www.shadyhillsmissionchapel.org/","email":"","description":"727-856-2948 x105 – Pantry"},{"id":"0f857798-c7df-4efb-824d-fb39bf5f4b82","lat":27.7488331,"lng":-82.6611022,"name":"St. Petersburg","org":"St. Joseph","address":"2101 22nd Avenue South, St. Petersburg, FL 33712","city":"St. Petersburg","state":"FL","zip":"33712","phone":"(727) 822-2153","website":"https://stjosephstpete.church","email":"","description":"Food service organization: St. Joseph"},{"id":"c03bc09a-d5f4-4c1a-8940-a340f56f8b6b","lat":28.0210911,"lng":-82.4531212,"name":"Sulphur Springs","org":"Winner's Worship Center","address":"701 East Bird Street, Sulphur Springs, FL 33604","city":"Sulphur Springs","state":"FL","zip":"33604","phone":"(813) 443-5720","website":"https://imawinner.org/","email":"","description":"Food service organization: Winner's Worship Center"},{"id":"bf5762f4-f54d-46c3-855a-10112f3e0f77","lat":28.0689369,"lng":-82.5423454,"name":"Tampa","org":"Acts 29 Foccus","address":"13302 Lynn Road, Tampa, FL 33625","city":"Tampa","state":"FL","zip":"33625","phone":"(813) 727-9484","website":"https://www.acts29foccus.org/food-distribution/","email":"","description":"Food distribution services"},{"id":"8b1b4836-5308-4035-bd9c-9e9ee85c559e","lat":28.0248256,"lng":-82.4560567,"name":"Tampa","org":"mRelief SNAP Screener - Tampa","address":", Tampa, FL UNKNOWN","city":"Tampa","state":"FL","zip":"UNKNOWN","phone":"","website":"https://apply.mrelief.com/screener","email":"","description":"Families need to complete the 2024-25 school meal & summer EBT application to receive summer benefits ($120 per eligible child)- name spelling, address, etc. all need to be up to date and accurate! Summer EBT Outreach Toolkit\" https://hungerfreenj.org/summer-ebt-2024/\nGo to https://apply.mrelief.com/screener or text \"Food\" to 74544 to check eligibility."},{"id":"7ac379e4-9ba2-4caa-97da-eda68b51355b","lat":28.0245385,"lng":-82.367838,"name":"Tampa","org":"New Salem Missionary Baptist","address":"8525 North 78th Street, Tampa, FL 33637","city":"Tampa","state":"FL","zip":"33637","phone":"(813) 985-7825","website":"https://www.newsalemtampa.org/","email":"","description":"Closed during inclement weather or emergency situations. A notice will be posted outside the food pantry location.\n\nPlease check https://www.facebook.com/NewSalemMBC/ for any updates on closure due to events or inclement weather."},{"id":"25b2d495-c831-46d2-97e1-467f1b5990ad","lat":28.006617,"lng":-82.5044212,"name":"Tampa","org":"Humanitary Medical Center Tampa","address":"6607 North Dale Mabry Highway, Tampa, FL 33614","city":"Tampa","state":"FL","zip":"33614","phone":"(813) 499-1500","website":"https://www.humanitarymc.com/","email":"","description":"Food service organization: Humanitary Medical Center Tampa"},{"id":"7d9db832-82ab-4cc6-a42e-d8f199a4c90e","lat":27.981482,"lng":-82.3936361,"name":"Tampa","org":"Mission Hill Church","address":"1000 North 56th Street, Tampa, FL 33617","city":"Tampa","state":"FL","zip":"33617","phone":"(813) 988-1138","website":"https://missionhill.org/about/#locations","email":"","description":"Food service organization: Mission Hill Church"},{"id":"3d975d7d-d7af-4b92-828a-bcad26176e28","lat":27.9909458,"lng":-82.41328419999999,"name":"Tampa","org":"Heavenly Angels Mobile Food Pantry","address":"4104 East Ellicott Street, Tampa, FL 33610","city":"Tampa","state":"FL","zip":"33610","phone":"(813) 753-0118","website":"","email":"","description":"Mobile food pantry service"},{"id":"aad6a6c0-54e8-4a6b-86e8-5def400cc99b","lat":28.0312056,"lng":-82.43384549999999,"name":"Tampa","org":"HILLSBOROUGH | Woodson Elementary *PRODUCE ONLY PANTRY","address":"8715 North 22nd Street, Tampa, FL 33604","city":"Tampa","state":"FL","zip":"33604","phone":"(813) 975-7652","website":"","email":"","description":"Food pantry service providing produce only"},{"id":"8fad9023-a56b-4d12-98ae-8ea7023f6f9a","lat":28.0358963,"lng":-82.5415819,"name":"Tampa","org":"HILLSBOROUGH | Dedicated Senior Medical Center","address":"9501 Anderson Road, Tampa, FL 33634","city":"Tampa","state":"FL","zip":"33634","phone":"(813) 579-1769","website":"","email":"","description":"Medical center providing healthcare services for seniors"},{"id":"a9698cae-3ea6-4618-9b84-eb0da3f3a1b1","lat":28.1457716,"lng":-82.74375669999999,"name":"Tarpon Springs","org":"Florida Dream Center","address":"812 East Tarpon Avenue, Tarpon Springs, FL 34689","city":"Tarpon Springs","state":"FL","zip":"34689","phone":"(727) 851-9074","website":"https://floridadreamcenter.org/","email":"","description":"Community organization providing food assistance services"},{"id":"165c769b-c04b-4c93-935d-8f0ba8f56f33","lat":28.0569919,"lng":-82.2969243,"name":"Thonotosassa","org":"Cowboys for Christ","address":"10625 1st Street, Thonotosassa, FL 33592","city":"Thonotosassa","state":"FL","zip":"33592","phone":"(813) 681-9515","website":"","email":"","description":"Food service organization: Cowboys for Christ"},{"id":"7ab1dca0-fe5a-47da-b415-6f9d9b658e08","lat":27.772549,"lng":-82.6798609,"name":"United Central","org":"St Vincent de Paul CARES Community Thrift Store","address":"180 34th Street North, United Central, FL 33713","city":"United Central","state":"FL","zip":"33713","phone":"(727) 328-2730","website":"","email":"","description":"Community thrift store operated by St Vincent de Paul CARES"},{"id":"cf2c4165-ef24-46aa-bcc3-f46f4f53e7df","lat":27.9893949,"lng":-82.48300449999999,"name":"Wellswood","org":"HILLSBOROUGH | La Senda Antiqua","address":"4810 North Howard Avenue, Wellswood, FL 33603","city":"Wellswood","state":"FL","zip":"33603","phone":"(813) 876-2470","website":"","email":"","description":"Food pantry service organization"},{"id":"84343eae-cfe6-4f14-818e-6a5b6f76dac2","lat":28.3758838,"lng":-82.1993481,"name":"West Pasco Heights","org":"Farm Workers Self Help","address":"37240 Lock Street, West Pasco Heights, FL 33523","city":"West Pasco Heights","state":"FL","zip":"33523","phone":"(352) 567-1432","website":"https://fshflorida.wixsite.com/farmworkers-self-hel/blank-2","email":"","description":"352-567-1432\n352-523-1646"},{"id":"67fce9c5-5332-4bf2-868a-468d7f3e71cd","lat":28.8634976,"lng":-82.0391264,"name":"Wildwood","org":"Wildwood Soup Kitchen","address":"203 Barwick Street, Wildwood, FL 34785","city":"Wildwood","state":"FL","zip":"34785","phone":"(352) 299-6494","website":"","email":"","description":"Community soup kitchen providing food services"},{"id":"f01169ba-5250-4da7-8ba6-0d32ffade226","lat":28.041124,"lng":-81.728043,"name":"Winter Haven","org":"First Missionary Baptist Church","address":"200 Avenue R Northwest, Winter Haven, FL 33881","city":"Winter Haven","state":"FL","zip":"33881","phone":"(863) 294-6553","website":"https://www.fmbcwh.com/food-pantry","email":"","description":"Community organization providing services to the local area"},{"id":"104a8606-7591-453f-a050-8806dc4ec41d","lat":28.0420081,"lng":-81.7272637,"name":"Winter Haven","org":"Neighborhood Service Center","address":"608 Avenue South Northwest, Winter Haven, FL 33881","city":"Winter Haven","state":"FL","zip":"33881","phone":"(863) 294-5860","website":"","email":"","description":"Community service organization"},{"id":"d0b9dde6-7b2f-493d-8a62-aea1f6c306b7","lat":28.035085,"lng":-81.73243099999999,"name":"Winter Haven","org":"Catholic Charities Of Winter Haven","address":"532 Avenue M Northwest, Winter Haven, FL 33881","city":"Winter Haven","state":"FL","zip":"33881","phone":"(863) 299-7983","website":"","email":"","description":"Catholic Charities Of Winter Haven"},{"id":"0228bc49-492f-4657-977d-787ebf2a2fd1","lat":28.0217042,"lng":-81.7715288,"name":"Winter Haven","org":"Ridgepoint Church","address":"100 Hatfield Road, Winter Haven, FL 33880","city":"Winter Haven","state":"FL","zip":"33880","phone":"(863) 965-2464","website":"","email":"","description":"Food pantry service"},{"id":"880e3703-2660-4379-b5a2-5b8ad5cb6604","lat":28.0218432,"lng":-81.7250826,"name":"Winter Haven","org":"The Mission Of Winter Haven","address":"122 East Central Avenue, Winter Haven, FL 33880","city":"Winter Haven","state":"FL","zip":"33880","phone":"(863) 299-2348","website":"","email":"","description":"Food service organization: The Mission of Winter Haven"},{"id":"2f93688d-7a36-49c9-8ade-b56f0a381a8f","lat":28.0283456,"lng":-81.7334566,"name":"Winter Haven","org":"First Presbyterian Church of WH","address":"637 6th Street Northwest, Winter Haven, FL 33881","city":"Winter Haven","state":"FL","zip":"33881","phone":"(863) 294-3121","website":"","email":"","description":"First Presbyterian Church of WH"},{"id":"1a868f2c-7e88-4484-80a4-1bb99daa053e","lat":27.9786377,"lng":-82.4387558,"name":"Ybor City","org":"HILLSBOROUGH | Lockhart Magnet","address":"3719 North 17th Street, Ybor City, FL 33610","city":"Ybor City","state":"FL","zip":"33610","phone":"(813) 276-5727","website":"","email":"","description":"Distribution Entrance is : 3888 N 19th St, Tampa, FL 33610\n\nDistribution starts at 4:30 PM but line starts at 3PM"},{"id":"20e39d41-6b24-47a8-9757-c97de522159d","lat":28.251486,"lng":-82.17948799999999,"name":"Zephyr Park","org":"Healing Hearts Café","address":"6436 12th Street, Zephyr Park, FL 33542","city":"Zephyr Park","state":"FL","zip":"33542","phone":"(813) 395-5500","website":"","email":"","description":"Community food service organization"}]}