{"metadata":{"generated":"2025-08-06T18:58:45.825657+00:00","total_locations":278,"states_covered":44,"coverage":"44 US states/territories","source":"HAARRRvest - Pantry Pirate Radio Database","database_path":"pantry_pirate_radio.sqlite","format_version":"1.0","filtered_by":"state = MA"},"locations":[{"id":"66edf17c-ff51-46f0-b973-db3d1dc439cf","lat":42.061196,"lng":-72.61745,"name":"Agawam Senior Center","org":"Agawam Senior Center Brown Bag","address":"954 Main Street, Agawam, MA 01001","city":"Agawam","state":"MA","zip":"01001","phone":"(413) 821-0604","website":"","email":"","description":"Senior center providing food pantry services through monthly brown bag distribution program"},{"id":"9b8300d4-04ac-4afe-af0f-41f71227c8d1","lat":42.074205,"lng":-72.619116,"name":"Bethany Assembly of God Church Best Life Food Ministry","org":"Bethany Assembly of God Church Best Life Food Ministry","address":"580 Main Street, Agawam, MA 01001","city":"Agawam","state":"MA","zip":"01001","phone":"(413) 789-2930","website":"","email":"","description":"Food pantry operated by Bethany Assembly of God Church providing food assistance to the community. Pantry is closed on holidays."},{"id":"be0d867a-e904-4e36-a9dc-ce54c8fc704c","lat":42.085429,"lng":-72.634214,"name":"One Call Away Veterans Support Center","org":"One Call Away Veterans Support Center","address":"104 Ramah Circle South, Agawam, MA 01001","city":"Agawam","state":"MA","zip":"01001","phone":"(413) 301-8125","website":"https://www.onecallawayfoundation.org/vsc","email":"","description":"Veterans support center providing food pantry services to serve veterans and their families in need"},{"id":"d913475e-a782-44a8-a967-c13f9ec45612","lat":42.350488,"lng":-72.527354,"name":"Amherst","org":"Boulders Apartment Mobile Food Bank","address":"125 Brittany Manor Drive, Amherst, MA 01002","city":"Amherst","state":"MA","zip":"01002","phone":"(413) 419-0079","website":"","email":"","description":"Mobile food distribution service occurring monthly at Boulders Apartment complex with no eligibility requirements"},{"id":"08d82735-0955-4c7a-84e6-f6dba9cfe45f","lat":42.375835,"lng":-72.51617,"name":"Amherst","org":"Center for Human Development Not Bread Alone Soup Kitchen","address":"165 Main Street, Amherst, MA 01002","city":"Amherst","state":"MA","zip":"01002","phone":"(413) 256-0128","website":"https://chd.org/programs-services/emergency-housing-assistance-western-ma/notbreadalone/","email":"","description":"A soup kitchen operated by Center for Human Development providing meal services in Amherst, MA. Wednesday's meals are served to-go."},{"id":"3deaeb14-7528-4e9c-be14-a8cb06f377e3","lat":42.376877,"lng":-72.51872,"name":"Amherst","org":"Amherst Brown Bag","address":"70 Boltwood Walk, Amherst, MA 01002","city":"Amherst","state":"MA","zip":"01002","phone":"(413) 259-3062","website":"","email":"","description":"Food pantry providing emergency food assistance with monthly pickup distribution"},{"id":"a68fea9e-5e8e-466f-a3e7-3db83bdab6e1","lat":42.385238,"lng":-72.522061,"name":"Amherst","org":"First Baptist Church Food Pantry","address":"434 North Pleasant Street, Amherst, MA 01002","city":"Amherst","state":"MA","zip":"01002","phone":"(413) 549-3596","website":"https://www.fbcamherst.org/serving-our-neighbors","email":"","description":"Food pantry operated by First Baptist Church providing food assistance to community members"},{"id":"0376705d-859e-41e9-bae8-e0b49a772bea","lat":42.414612,"lng":-72.53289,"name":"Amherst","org":"Amherst Survival Center Food Pantry","address":"138 Sunderland Road, Amherst, MA 01002","city":"Amherst","state":"MA","zip":"01002","phone":"(413) 549-3968","website":"https://amherstsurvival.org/","email":"","description":"Food pantry providing emergency food assistance with both curbside pickup and in-pantry shopping options. Curbside pickup available by appointment, and in-pantry shopping available every 3rd Saturday from 9:00 AM to 12:00 PM and during regular hours."},{"id":"dbd2ac08-8a57-43f0-93ad-ddc0b19bffe4","lat":42.41447,"lng":-72.532425,"name":"Amherst Survival Center Meal Site","org":"Amherst Survival Center Meal Site","address":"138 Sunderland Road, Amherst, MA 01002","city":"Amherst","state":"MA","zip":"01002","phone":"(413) 549-3968","website":"https://amherstsurvival.org/","email":"","description":"Indoor dining, picnic area seating, to-go lunches, and an outdoor fresh food distribution are all available during the mealtime hours."},{"id":"5cfc0051-56a5-4f94-a019-5b0550d1b09c","lat":42.6302759,"lng":-71.1636363,"name":"Andover","org":"Ballard Vale United Church","address":"23 Clark Road, Andover, MA 01810","city":"Andover","state":"MA","zip":"01810","phone":"(978) 475-2506","website":"https://www.bvuc.org/(X(1)S(wkn5umqhjeaylrrb4544xldd))/pantry","email":"","description":"Open 24/7! Free, outdoor community fridge/pantry operated by local volunteers."},{"id":"ee7fed85-9112-477b-9f2d-86caa0af8cd2","lat":41.9470891,"lng":-71.2746837,"name":"Attleboro","org":"Self-Service DTA Kiosk at Bristol Community College - Taunton (limited services available)","address":"34 Forest Street, Attleboro, MA 02703","city":"Attleboro","state":"MA","zip":"02703","phone":"(877) 382-2363","website":"https://www.mass.gov/locations/self-service-dta-kiosk-at-bristol-community-college-taunton-limited-services-available","email":"","description":"**Parking**\n* No Parking available.\n\n**Services**\n* There is an official Department of Transitional Assistance Kiosk at this location with access to the DTA Connect mobile application and website. [Learn what you can do through DTA Connect.](https://www.mass.gov/guides/how-to-contact-dta)\n.\n***PLEASE NOTE:***\nThese locations are not staffed by DTA employees."},{"id":"8c1f318f-c8e5-4b99-9c95-72b15e8fac35","lat":42.6398553,"lng":-71.3118037,"name":"Back Central","org":"Life Connection Center","address":"192 Appleton Street, Back Central, MA 01852","city":"Back Central","state":"MA","zip":"01852","phone":"(978) 997-0588","website":"","email":"","description":"Hot Meals for Middlesex County Adults"},{"id":"b36ea4ab-2e52-469e-9a07-78951b9f9036","lat":42.6402052,"lng":-71.31048129999999,"name":"Back Central","org":"The Salvation Army Lowell Corps Community Center","address":"150 Appleton Street, Back Central, MA 01852","city":"Back Central","state":"MA","zip":"01852","phone":"(978) 458-3396","website":"https://easternusa.salvationarmy.org/massachusetts/lowell/","email":"","description":"978-458-3396– Please call first"},{"id":"3fbe84ea-2bc9-46e8-b373-54d0e83b976f","lat":42.271435,"lng":-72.41337,"name":"Belchertown","org":"Belchertown Brown Bag","address":"60 State Street, Belchertown, MA 01007","city":"Belchertown","state":"MA","zip":"01007","phone":"(413) 323-0420","website":"","email":"","description":"Food pantry providing emergency food assistance through a brown bag program with scheduled pickup times."},{"id":"0051c447-345c-4da7-b56d-4af0b349ee3c","lat":42.27781,"lng":-72.40086,"name":"Belchertown","org":"St. Francis Parish Food Pantry","address":"10 Park Street, Belchertown, MA 01007","city":"Belchertown","state":"MA","zip":"01007","phone":"(413) 323-6272","website":"https://www.stfrancisbelchertown.com/food-pantry","email":"","description":"Food pantry providing delivery-only services to the Belchertown community. Appointments required for food distribution services."},{"id":"b558e2fa-9128-4701-9535-664cac006a6e","lat":42.6437833,"lng":-71.30353339999999,"name":"Belvidere","org":"DTA Lowell Transitional Assistance Office (Walk-in)","address":"131 Davidson Street, Belvidere, MA 01852","city":"Belvidere","state":"MA","zip":"01852","phone":"(978) 446-2400","website":"https://www.mass.gov/locations/dta-lowell-transitional-assistance-office","email":"","description":"**OVERVIEW**\n* DTA's local office lobby is open for services, including new self-service options. Visit the services section on this page to learn about all the things you can do at a DTA office and ways to contact the Department.\n\n**TRANSPORTATION**\n* You can reach the vicinity of the DTA office via MBTA subway and bus routes.\n* It is strongly recommended that you check with the MBTA's website to make sure you receive their updated routes. They offer a [Trip Planner](https://www.mbta.com/trip-planner?plan=gsQEZnJvbYTECGxhdGl0dWRlxADECWxvbmdpdHVkZcQAxARuYW1lxADEB3N0b3BfaWTEAMQCdG-ExAhsYXRpdHVkZcQAxAlsb25naXR1ZGXEAMQEbmFtZcQAxAdzdG9wX2lkxAA=), which enables users to get personalized recommendations. \n\n**SERVICES**\n* DTA's local office lobby is open for services, including new self-service options. You can use our phones, copiers, or kiosks to apply for benefits or manage your case. DTA staff and interpreters are available to assist you.\n\n* If you need an EBT card, you can request one be sent to you via mail on the DTA Connect mobile app, DTAConnect.com or using the automated prompts on the DTA Assistance Line (877-382-2363). Most cards are delivered within 3-5 days. You can also visit one of our local offices to receive an EBT card if you need one more quickly. If you cannot visit an office, talk to our staff about other options.\n\n* You can apply for SNAP, TAFDC, and EAEDC online at DTAConnect.com or over the phone on the DTA Assistance Line at 877-382-2363 (press 7) (help in over 100 languages). Learn all you can do to manage your case 24/7 without visiting a DTA office (e.g., submit documents, request letter showing your DTA benefits, etc.) at Mass.gov/ContactDTA."},{"id":"aba74696-4402-47e3-a844-58cb8d9f5dd8","lat":42.5588029,"lng":-71.26981789999999,"name":"Billerica","org":"Billerica Community Food Pantry","address":"11 Concord Road, Billerica, MA 01821","city":"Billerica","state":"MA","zip":"01821","phone":"(978) 357-7560","website":"https://mvfb.org/resources/","email":"","description":"* Call 978-357-7560 or text 978-987-4384 to pre-register and make appointment.\n* Open to Billerica residents only.\n* Must have a car since it's a drive-thru food pantry."},{"id":"20b78d45-7310-401a-b725-0daaa3da72a0","lat":42.3693901,"lng":-71.0394754,"name":"Boston","org":"Massachusetts SNAP Application","address":", Boston, MA UNKNOWN","city":"Boston","state":"MA","zip":"UNKNOWN","phone":"(877) 382-2363","website":"https://dtaconnect.eohhs.mass.gov/","email":"","description":"Help get the food you need\n\n1 out of 6 people in Massachusetts receive SNAP benefits.\nApply for SNAP in 20 minutes or less.\n\nThis application is about you, your household, your income, and your expenses. It should only take about 20 minutes.\n\nYou do not need a fixed address or phone number to apply for SNAP, but DTA does need a way to reach you to complete your online SNAP application. If you do not have an address we can send mail to, please call DTA Assistance Line at 877-382-2363 or go to your local DTA office.\nIf they apply to you, have these numbers handy!\n\n* Birth dates\n* Social Security Numbers\n* Incomes\n* Expenses"},{"id":"19a2925b-2dca-4ff0-8d43-dd7eaa666129","lat":42.3564439,"lng":-71.1193016,"name":"Boston","org":"mRelief SNAP Screener - Boston","address":", Boston, MA UNKNOWN","city":"Boston","state":"MA","zip":"UNKNOWN","phone":"","website":"https://apply.mrelief.com/screener","email":"","description":"Families need to complete the 2024-25 school meal & summer EBT application to receive summer benefits ($120 per eligible child)- name spelling, address, etc. all need to be up to date and accurate! Summer EBT Outreach Toolkit\" https://www.mass.gov/massachusetts-summer-ebt-program\nGo to https://apply.mrelief.com/screener or text \"Food\" to 74544 to check eligibility."},{"id":"b00ea9d4-b8d6-4931-83d5-8666daaa7562","lat":42.3482358,"lng":-71.15345950000001,"name":"Brighton","org":"Ethos Veronica Smith Café","address":"20 Chestnut Hill Avenue, Brighton, MA 02135","city":"Brighton","state":"MA","zip":"02135","phone":"(617) 477-6688","website":"https://www.ethocare.org/services/nutrition/community-cafes/","email":"","description":"For more information or to register to attend a Community Cafe near you, please call 617-477-6688 or email ethosmeals@ethocare.org."},{"id":"8f9c7e08-5a43-4864-93e3-0018aa656b24","lat":42.3381809,"lng":-71.1486477,"name":"Brighton","org":"Tifereth Raphael, Inc","address":"77 Englewood Avenue, Brighton, MA 02135","city":"Brighton","state":"MA","zip":"02135","phone":"","website":"","email":"","description":"**161-738-8554 Ext. 2**"},{"id":"6b893d53-88cc-4ff2-a1cb-cc1a334e2abc","lat":42.28668690000001,"lng":-71.7892561,"name":"Brittan Square","org":"Self-Service DTA Kiosk at Ascentria (limited services available)","address":"11 Shattuck Street, Brittan Square, MA 01605","city":"Brittan Square","state":"MA","zip":"01605","phone":"(877) 382-2363","website":"https://www.mass.gov/locations/self-service-dta-kiosk-at-ascentria-limited-services-available","email":"","description":"**SERVICES**\n* There is an official self-service Department of Transitional Assistance Kiosk at this location with access to the DTA Connect mobile application and website. [Learn what you can do through DTA Connect](https://www.mass.gov/guides/how-to-contact-dta).\n\n***PLEASE NOTE:***\nThese locations are not staffed by DTA employees.\n\n"},{"id":"99084000-4735-47e2-9612-8b15d75475d1","lat":42.2393959,"lng":-71.7479759,"name":"Broadmeadow Brook","org":"DTA Worcester Transitional Assistance Office (Walk-in)","address":"50 Southwest Cutoff, Broadmeadow Brook, MA 01604","city":"Broadmeadow Brook","state":"MA","zip":"01604","phone":"(508) 767-3100","website":"https://www.mass.gov/locations/dta-worcester-transitional-assistance-office","email":"","description":"**OVERVIEW**\n* DTA's local office lobby is open for services, including new self-service options. Visit the services section on this page to learn about all the things you can do at a DTA office and ways to contact the Department.\n\n**TRANSPORTATION**\n* You can reach the vicinity of the DTA office via MBTA subway and bus routes.\n* It is strongly recommended that you check with the MBTA's website to make sure you receive their updated routes. They offer a [Trip Planner](https://www.mbta.com/trip-planner?plan=gsQEZnJvbYTECGxhdGl0dWRlxADECWxvbmdpdHVkZcQAxARuYW1lxADEB3N0b3BfaWTEAMQCdG-ExAhsYXRpdHVkZcQAxAlsb25naXR1ZGXEAMQEbmFtZcQAxAdzdG9wX2lkxAA=), which enables users to get personalized recommendations. \n\n**SERVICES**\n* DTA's local office lobby is open for services, including new self-service options. You can use our phones, copiers, or kiosks to apply for benefits or manage your case. DTA staff and interpreters are available to assist you.\n\n* If you need an EBT card, you can request one be sent to you via mail on the DTA Connect mobile app, DTAConnect.com or using the automated prompts on the DTA Assistance Line (877-382-2363). Most cards are delivered within 3-5 days. You can also visit one of our local offices to receive an EBT card if you need one more quickly. If you cannot visit an office, talk to our staff about other options.\n\n* You can apply for SNAP, TAFDC, and EAEDC online at DTAConnect.com or over the phone on the DTA Assistance Line at 877-382-2363 (press 7) (help in over 100 languages). Learn all you can do to manage your case 24/7 without visiting a DTA office (e.g., submit documents, request letter showing your DTA benefits, etc.) at Mass.gov/ContactDTA."},{"id":"99e5eb5b-0b89-4fbc-9eaf-335e4b97b9b5","lat":42.0883495,"lng":-71.0518321,"name":"Brockton","org":"Self-Service DTA Kiosk at the Brockton WIC Program (limited services available)","address":"795 Pleasant Street, Brockton, MA 02301","city":"Brockton","state":"MA","zip":"02301","phone":"(877) 382-2363","website":"https://www.mass.gov/locations/self-service-dta-kiosk-at-the-brockton-wic-program-limited-services-available","email":"","description":"**Parking**\n* There is parking available onsite.\n\n**Services**\n* There is an official Department of Transitional Assistance Kiosk at this location with access to the DTA Connect mobile application and website. [Learn what you can do through DTA Connect.](https://www.mass.gov/guides/how-to-contact-dta)\n\n\n***NOTE:*** These locations are not staffed by DTA employees."},{"id":"541ed868-64c0-4508-83f6-c3db5dc98e48","lat":42.07637769999999,"lng":-71.0369158,"name":"Brockton","org":"Self-Service DTA Kiosk at Father Bill's & Mainspring (limited services available)","address":"430 Belmont Street, Brockton, MA 02301","city":"Brockton","state":"MA","zip":"02301","phone":"(877) 382-2363","website":"https://www.mass.gov/locations/self-service-dta-kiosk-at-father-bills-mainspring-limited-services-available","email":"","description":"**Parking**\n* There is parking.\n\n**Services**\n* There is an official Department of Transitional Assistance Kiosk at this location with access to the DTA Connect mobile application and website. [Learn what you can do through DTA Connect.](https://www.mass.gov/guides/how-to-contact-dta)\n\n***PLEASE NOTE:***\nThese locations are not staffed by DTA employees."},{"id":"b8c0a24b-1b50-4568-9ed1-d3f4fe379d69","lat":42.3235553,"lng":-71.1223389,"name":"Brookline","org":"Ethos Out2Brunch @ Goddard Café (LGBTQ)","address":"165 Chestnut Street, Brookline, MA 02445","city":"Brookline","state":"MA","zip":"02445","phone":"(617) 477-6688","website":"https://www.ethocare.org/services/nutrition/community-cafes/","email":"","description":"For more information or to register to attend a Community Cafe near you, please call 617-477-6688 or email ethosmeals@ethocare.org."},{"id":"028270ab-6b7e-42ca-aa65-23fa538a1163","lat":42.3242044,"lng":-71.12101539999999,"name":"Brookline","org":"Brookline Emergency Food Pantry","address":"226 High Street, Brookline, MA 02445","city":"Brookline","state":"MA","zip":"02445","phone":"(617) 800-5339","website":"brooklinefoodpantry.com.","email":"","description":"Emergency food assistance services"},{"id":"2c0cdc68-d4da-4a93-9cb7-35bc6149dfd0","lat":42.1718049,"lng":-71.1111986,"name":"Canton","org":"Fountain of grace Church (Brooklyn Food Corps / Brooklyn Rescue)","address":"427 Turnpike Street, Canton, MA 02021","city":"Canton","state":"MA","zip":"02021","phone":"(617) 852-5967","website":"https://brmuhc.org/community-food-center/bed-stuy-farm/","email":"","description":"Food pantry service providing community support"},{"id":"24ce775b-4443-4266-ac35-f1903d08addf","lat":41.8429701,"lng":-70.7452782,"name":"Carver","org":"Self-Service DTA Kiosk at the Carver Council on Aging (limited services available)","address":"48 Lakeview Street, Carver, MA 02330","city":"Carver","state":"MA","zip":"02330","phone":"(877) 382-2363","website":"https://www.mass.gov/locations/self-service-dta-kiosk-at-the-carver-council-on-aging-limited-services-available","email":"","description":"**Parking**\n* There is parking available onsite.\n\n**Services**\n* There is an official Department of Transitional Assistance Kiosk at this location with access to the DTA Connect mobile application and website. [Learn what you can do through DTA Connect.](https://www.mass.gov/guides/how-to-contact-dta)\n\n\n***NOTE:*** These locations are not staffed by DTA employees."},{"id":"4c1c4bc8-bffa-44ff-b15a-1ebb19e55187","lat":42.2700664,"lng":-71.7951021,"name":"Central Business District","org":"The Community Builders Inc (TCB) at Plumley Village","address":"16 Laurel Street, Central Business District, MA 01608","city":"Central Business District","state":"MA","zip":"01608","phone":"(877) 382-2363","website":"https://www.mass.gov/locations/self-service-dta-kiosk-at-the-community-builders-inc-tcb-at-plumley-village-limited-services-available","email":"","description":"**Parking**\n* There is visitor parking.\n\n**Services**\n* There is an official Department of Transitional Assistance Kiosk at this location with access to the DTA Connect mobile application and website. [Learn what you can do through DTA Connect.](https://www.mass.gov/guides/how-to-contact-dta)\n\n\n***NOTE:***  DTA staff will be available every Tuesday and Thursday from 8:45am - 5:00pm."},{"id":"1613b011-b233-404c-be9e-37494729c4fd","lat":42.2653091,"lng":-71.8021009,"name":"Central Business District","org":"Self-Service DTA Kiosk at Mass Hire Worcester (limited services available)","address":"340 Main Street, Central Business District, MA 01608","city":"Central Business District","state":"MA","zip":"01608","phone":"","website":"","email":"","description":"**Parking**\n* Parking not available.\n\n**Services**\n* There is an official Department of Transitional Assistance Kiosk at this location with access to the DTA Connect mobile application and website. [Learn what you can do through DTA Connect.](https://www.mass.gov/guides/how-to-contact-dta)\n\n***PLEASE NOTE:***\nDTA staff will be available every Tuesday and Thursday from 8:45am - 5:00pm."},{"id":"205f1f11-061a-4829-a982-ee08b28a10f6","lat":42.3656863,"lng":-71.101751,"name":"Central Square","org":"St. Paul AME Church/Elnora Yard Food Pantry","address":"85 Bishop Allen Drive, Central Square, MA 02139","city":"Central Square","state":"MA","zip":"02139","phone":"(617) 868-2900","website":"https://www.ceoccambridge.org/food-pantry","email":"","description":"Food service organization: St. Paul AME Church/Elnora Yard Food Pantry"},{"id":"5256f84b-9816-41f3-bea6-36e9c3b4fd89","lat":42.652402,"lng":-71.3015906,"name":"Centralville","org":"St. Paul's Soup Kitchen","address":"7th Street, Centralville, MA 01850","city":"Centralville","state":"MA","zip":"01850","phone":"(978) 206-1189","website":"https://stpaulssoupkitchen.org/","email":"","description":"Community soup kitchen providing meals"},{"id":"f13e096e-21eb-4ff7-a548-55807914ceb8","lat":42.3743388,"lng":-71.0693692,"name":"Charlestown","org":"DISH Food Pantry at Bunker Hill Community College","address":"250 Rutherford Avenue, Charlestown, MA 02129","city":"Charlestown","state":"MA","zip":"02129","phone":"(617) 228-2045","website":"www.bhcc.edu/dishfoodpantry/","email":"","description":"Grocery orders can be picked up by appointment only.\nGrab & Go meals: 11am-3pm in B101, 3-7pm in G-Building Lounge\n\nOpen to students and staff of Bunker Hill Community College only."},{"id":"68c1a896-687e-4167-9cdc-1341666edbce","lat":42.5986659,"lng":-71.3471217,"name":"Chelmsford","org":"Chelmsford Community Exchange","address":"50 Billerica Road, Chelmsford, MA 01824","city":"Chelmsford","state":"MA","zip":"01824","phone":"","website":"Chelmsfordfoodpantry.org","email":"","description":"Food service organization: Chelmsford Community Exchange"},{"id":"b0df625c-b46d-44be-a90e-36e2c82fab66","lat":42.3934605,"lng":-71.0396623,"name":"Chelsea","org":"DTA Chelsea Center Transitional Assistance Office (Walk-in)","address":"80 Everett Avenue, Chelsea, MA 02150","city":"Chelsea","state":"MA","zip":"02150","phone":"(617) 551-1700","website":"https://www.mass.gov/locations/dta-chelsea-center-transitional-assistance-office","email":"","description":"**OVERVIEW**\n* DTA's local office lobby is open for services, including new self-service options. Visit the services section on this page to learn about all the things you can do at a DTA office and ways to contact the Department.\n\n**TRANSPORTATION**\n* You can reach the vicinity of the DTA office via MBTA subway and bus routes.\n* It is strongly recommended that you check with the MBTA's website to make sure you receive their updated routes. They offer a [Trip Planner](https://www.mbta.com/trip-planner?plan=gsQEZnJvbYTECGxhdGl0dWRlxADECWxvbmdpdHVkZcQAxARuYW1lxADEB3N0b3BfaWTEAMQCdG-ExAhsYXRpdHVkZcQAxAlsb25naXR1ZGXEAMQEbmFtZcQAxAdzdG9wX2lkxAA=), which enables users to get personalized recommendations. \n\n**SERVICES**\n* DTA's local office lobby is open for services, including new self-service options. You can use our phones, copiers, or kiosks to apply for benefits or manage your case. DTA staff and interpreters are available to assist you.\n\n* If you need an EBT card, you can request one be sent to you via mail on the DTA Connect mobile app, DTAConnect.com or using the automated prompts on the DTA Assistance Line (877-382-2363). Most cards are delivered within 3-5 days. You can also visit one of our local offices to receive an EBT card if you need one more quickly. If you cannot visit an office, talk to our staff about other options.\n\n* You can apply for SNAP, TAFDC, and EAEDC online at DTAConnect.com or over the phone on the DTA Assistance Line at 877-382-2363 (press 7) (help in over 100 languages). Learn all you can do to manage your case 24/7 without visiting a DTA office (e.g., submit documents, request letter showing your DTA benefits, etc.) at Mass.gov/ContactDTA."},{"id":"829d0110-dd16-409b-b73c-9db014bb1e78","lat":42.3911609,"lng":-71.044716,"name":"Chelsea","org":"Chelsea Jewish Foundation Food Pantry","address":"165 Captains Row, Chelsea, MA 02150","city":"Chelsea","state":"MA","zip":"02150","phone":"(617) 887-0001","website":"https://chelseajewish.org/contact/","email":"","description":"Food pantry services provided by Chelsea Jewish Foundation"},{"id":"ff53f929-33f2-416b-860c-ad52b0dc3124","lat":42.18427430046199,"lng":-72.61231845188688,"name":"Birch Bark Place Mobile Pantry Location","org":"Lorraine's Soup Kitchen and Pantry Birch Bark Place Mobile Pantry","address":"630 Chicopee St, Chicopee, MA 01013","city":"Chicopee","state":"MA","zip":"01013","phone":"(413) 592-9528","website":"https://www.lorrainessoupkitchen.com/","email":"","description":"Mobile food pantry providing food assistance through monthly distributions. Operated by Lorraine's Soup Kitchen and Pantry."},{"id":"81b652fb-b12e-4b2a-a36b-d68bf62fd109","lat":42.16572369389506,"lng":-72.52171383106311,"name":"Blue Bird Acres Mobile Pantry Location","org":"Lorraine's Soup Kitchen and Pantry Blue Bird Acres Mobile Pantry","address":"31 Kiwi Dr, Chicopee, MA 01020","city":"Chicopee","state":"MA","zip":"01020","phone":"(413) 592-9528","website":"https://www.lorrainessoupkitchen.com/","email":"","description":"Mobile food pantry providing food distribution services on the 3rd Tuesday of each month from 4:00-5:30 p.m."},{"id":"9ca33da2-cd0c-4d64-a183-84285fe7d3d3","lat":42.15688286746015,"lng":-72.58054534510313,"name":"Broadway Street Mobile Pantry Location","org":"Lorraine's Soup Kitchen and Pantry Broadway Street Mobile Pantry","address":"55 Broadway St, Chicopee, MA 01020","city":"Chicopee","state":"MA","zip":"01020","phone":"(413) 592-9528","website":"https://www.lorrainessoupkitchen.com/","email":"","description":"Mobile food pantry providing food distribution on the first Monday of each month from 4:00-5:30 p.m."},{"id":"e23d4831-c263-4f96-b7ba-2a6c27486782","lat":42.14242359814861,"lng":-72.60668809627504,"name":"Cabot Manor Mobile Pantry Location","org":"Lorraine's Soup Kitchen and Pantry Cabot Manor Mobile Pantry","address":"106 Stonina Dr, Chicopee, MA 01013","city":"Chicopee","state":"MA","zip":"01013","phone":"(413) 592-9528","website":"https://www.lorrainessoupkitchen.com/","email":"","description":"Mobile food pantry operated by Lorraine's Soup Kitchen and Pantry, providing food distribution services to the community on a monthly schedule."},{"id":"f25e21ad-1789-4a3d-9145-118217d8687a","lat":42.14691581309378,"lng":-72.60695812846582,"name":"Center Street Mobile Pantry Location","org":"Lorraine's Soup Kitchen and Pantry Center Street Mobile Pantry","address":"35 Center St, Chicopee, MA 01013","city":"Chicopee","state":"MA","zip":"01013","phone":"(413) 592-9528","website":"https://www.lorrainessoupkitchen.com/","email":"","description":"Mobile food pantry providing food distribution services on the third Monday of each month from 4:00-5:30 p.m."},{"id":"38aa6e1c-8145-41f5-b895-561be32dad92","lat":42.147807,"lng":-72.610791,"name":"Chicopee","org":"United Way of Pioneer Valley Chicopee Service Center","address":"226 Exchange Street, Chicopee, MA 01013","city":"Chicopee","state":"MA","zip":"01013","phone":"(413) 693-0213","website":"https://www.uwpv.org/chicopee","email":"","description":"A food pantry service center operated by United Way of Pioneer Valley, providing food assistance to the Chicopee community. Note: Pantry will be closing permanently after June 30, 2025."},{"id":"fd3eb1df-c4f4-4ea7-b597-d5a3118c669b","lat":42.167671071292055,"lng":-72.61882495478974,"name":"Chicopee Housing Mobile Pantry Location","org":"Lorraine's Soup Kitchen and Pantry Chicopee Housing Mobile Pantry","address":"128 Meeting House Rd, Chicopee, MA 01013","city":"Chicopee","state":"MA","zip":"01013","phone":"(413) 592-9528","website":"https://www.lorrainessoupkitchen.com/","email":"","description":"Mobile food pantry providing food assistance to the Chicopee community through monthly distributions"},{"id":"a16d132e-9e91-4405-b7e2-9a0dbbd81b80","lat":42.148332546923896,"lng":-72.5986353723727,"name":"Chicopee Library Mobile Pantry Location","org":"Lorraine's Soup Kitchen and Pantry Chicopee Library Mobile Pantry","address":"449 Front St, Chicopee, MA 01013","city":"Chicopee","state":"MA","zip":"01013","phone":"(413) 592-9528","website":"https://www.lorrainessoupkitchen.com/","email":"","description":"Mobile food pantry operated by Lorraine's Soup Kitchen providing food distribution services through the Chicopee Library location"},{"id":"9e9b8166-e30c-4479-a624-8ffe8a172b75","lat":42.156877,"lng":-72.581311,"name":"Chicopee Mobile Food Bank Location","org":"Chicopee Mobile Food Bank","address":"50 Broadway Street, Chicopee, MA 01020","city":"Chicopee","state":"MA","zip":"01020","phone":"(413) 419-0079","website":"","email":"","description":"Mobile food distribution service operated by the Food Bank of Western Massachusetts, providing free food assistance to community members."},{"id":"c4481b95-879c-4598-85cf-dd318c0edd30","lat":42.165627,"lng":-72.56723,"name":"Chicopee Moose Lodge Brown Bag","org":"Chicopee Moose Lodge Brown Bag","address":"244 Fuller Road, Chicopee, MA 01020","city":"Chicopee","state":"MA","zip":"01020","phone":"(413) 427-7608","website":"","email":"","description":"Food pantry providing emergency food assistance through a brown bag distribution program"},{"id":"75c0e4a4-2c02-4ba0-920d-b000939df1de","lat":42.176434564078846,"lng":-72.58578467513384,"name":"Docs Place Mobile Pantry Location","org":"Lorraine's Soup Kitchen and Pantry Docs Place Mobile Pantry","address":"1264 Granby Rd, Chicopee, MA 01020","city":"Chicopee","state":"MA","zip":"01020","phone":"(413) 592-9528","website":"https://www.lorrainessoupkitchen.com/","email":"","description":"Mobile food pantry providing food distribution services, operating monthly distributions on the 1st Tuesday of each month from 4:00 - 5:30 p.m."},{"id":"11682995-4e08-4bf8-b72b-4d4fcea39fa1","lat":42.158295250834264,"lng":-72.57387943295836,"name":"Edward Bury Apartments Mobile Pantry Site","org":"Lorraine's Soup Kitchen and Pantry Edward Bury Apts Mobile Pantry","address":"Benoit Cir, Chicopee, MA 01020","city":"Chicopee","state":"MA","zip":"01020","phone":"(413) 592-9528","website":"https://www.lorrainessoupkitchen.com/","email":"","description":"Mobile food pantry serving the Chicopee community with monthly food distributions at Edward Bury Apartments"},{"id":"d4a03715-58ed-4846-ae77-7e94aeb0fd51","lat":42.20868687947995,"lng":-72.57379463949071,"name":"Fairhaven Mobile Pantry Location","org":"Lorraine's Soup Kitchen and Pantry Fairhaven Mobile Pantry","address":"400 Britton St, Chicopee, MA 01020","city":"Chicopee","state":"MA","zip":"01020","phone":"(413) 592-9528","website":"https://www.lorrainessoupkitchen.com/","email":"","description":"Mobile food pantry providing food distribution on the 3rd Wednesday of each month from 4:00 – 5:30 p.m."},{"id":"3f2a3fee-1caa-4888-b05f-274f7e7e4b45","lat":42.157627,"lng":-72.58127,"name":"First Central Bible Church The Lord's Food Pantry Location","org":"First Central Bible Church The Lord's Food Pantry","address":"50 Broadway Street, Chicopee, MA 01020","city":"Chicopee","state":"MA","zip":"01020","phone":"(413) 592-5353","website":"","email":"","description":"A food pantry operated by First Central Bible Church, providing food assistance to community members with scheduled distribution times throughout the month."},{"id":"e02882c7-3c4e-4995-b93f-e12d82f278f4","lat":42.166937,"lng":-72.625852,"name":"First Congregational Church of Chicopee Regina's Pantry Location","org":"First Congregational Church of Chicopee Regina's Pantry","address":"306 Chicopee Street, Chicopee, MA 01013","city":"Chicopee","state":"MA","zip":"01013","phone":"(413) 592-0396","website":"","email":"","description":"Food pantry operated by First Congregational Church of Chicopee providing food assistance to community members."},{"id":"c29c48ab-851d-451d-894a-03bc1d944222","lat":42.212944,"lng":-72.569592,"name":"House of Refuge International Project Hope Pantry","org":"House of Refuge International Project Hope Pantry","address":"292 New Ludlow Road, Chicopee, MA 01020","city":"Chicopee","state":"MA","zip":"01020","phone":"(413) 437-8600","website":"https://houseofrefugeintl.org/project-hope-pantry","email":"","description":"Food pantry providing food assistance to community members. Pantry is open every 2nd and 4th Saturday of the month from 2:00 – 4:30 p.m."},{"id":"45f4b19e-026d-464e-baf8-6af4535414fa","lat":42.147797,"lng":-72.612063,"name":"La Iglesia De Dios Food Pantry","org":"La Iglesia De Dios Food Pantry","address":"200 Exchange St., Chicopee, MA 01013","city":"Chicopee","state":"MA","zip":"01013","phone":"(413) 314-9067","website":"","email":"","description":"Food pantry operated by La Iglesia De Dios providing food assistance to community members in Chicopee, MA."},{"id":"96847ab5-e91e-49af-ad76-0ff040fbef5a","lat":42.18514143073909,"lng":-72.61005826448826,"name":"Lorraine's Soup Kitchen and Pantry Veteran's Housing Mobile Pantry","org":"Lorraine's Soup Kitchen and Pantry Veteran's Housing Mobile Pantry","address":"40 Meadow St, Chicopee, MA 01020","city":"Chicopee","state":"MA","zip":"01020","phone":"(413) 592-9528","website":"https://www.lorrainessoupkitchen.com/","email":"","description":"Mobile food pantry serving veterans with food distribution on the first Thursday of each month from 4:00-5:30 PM"},{"id":"4030e2ec-5523-4eb2-b245-77fd223d98c7","lat":42.175488,"lng":-72.615616,"name":"Main Location","org":"Lorraine's Soup Kitchen and Pantry, Soup Kitchen","address":"170 Pendexter Avenue, Chicopee, MA 01013","city":"Chicopee","state":"MA","zip":"01013","phone":"(413) 592-9528","website":"https://www.lorrainessoupkitchen.com/","email":"","description":"Food pantry and soup kitchen serving the Chicopee, MA community"},{"id":"ff70bf2b-b755-4a7b-922f-7f0641e2a64c","lat":42.13647,"lng":-72.60243,"name":"Main Location","org":"Chicopee McKinley Brown Bag","address":"38 Asinof Avenue, Chicopee, MA 01013","city":"Chicopee","state":"MA","zip":"01013","phone":"(413) 427-4974","website":"","email":"","description":"Food pantry providing brown bag food distribution services to the community"},{"id":"d738c1e9-fc92-42ac-8a3c-fc18627d2b96","lat":42.193105585498394,"lng":-72.57684251710738,"name":"Memorial Apartments Mobile Pantry Location","org":"Lorraine's Soup Kitchen and Pantry Memorial Apartments Mobile Pantry","address":"94 Debra Dr, Chicopee, MA 01020","city":"Chicopee","state":"MA","zip":"01020","phone":"(413) 592-9528","website":"https://www.lorrainessoupkitchen.com/","email":"","description":"Mobile food pantry providing emergency food assistance to community members. Distribution occurs monthly with scheduled pantry services."},{"id":"b0e8bbea-ba1e-4942-9d1f-cd72cc613c74","lat":42.148037,"lng":-72.59325,"name":"Mission Center New Jerusalem One Way Outreach Pantry","org":"Mission Center New Jerusalem One Way Outreach Pantry","address":"625 Front Street, Chicopee, MA 01013","city":"Chicopee","state":"MA","zip":"01013","phone":"(413) 534-8103","website":"","email":"","description":"Food pantry providing emergency food assistance to individuals and families in need"},{"id":"c7ec6f70-11c3-4d18-852b-4b9a37dfea87","lat":42.19042,"lng":-72.60257,"name":"Our Father's House Dream Center Day","org":"Our Father's House Dream Center Day","address":"938 Chicopee St, Chicopee, MA 01013","city":"Chicopee","state":"MA","zip":"01013","phone":"(413) 437-8071","website":"","email":"","description":"Food pantry providing food assistance to the community, operating monthly on the fourth Saturday."},{"id":"a40a93ba-6991-430c-9c47-7dd311532605","lat":42.17322061523439,"lng":-72.60506107869897,"name":"Valley View Mobile Pantry Location","org":"Lorraine's Soup Kitchen and Pantry Valley View Mobile Pantry","address":"7 Valley View Ct, Chicopee, MA 01020","city":"Chicopee","state":"MA","zip":"01020","phone":"(413) 592-9528","website":"https://www.lorrainessoupkitchen.com/","email":"","description":"Mobile food pantry providing food distribution services. Distribution is on the 4th Monday of each month from 4:00 – 5:30 p.m."},{"id":"01c345a7-f616-4fca-a877-eba378e9097a","lat":42.3084407,"lng":-71.065052,"name":"Dorchester","org":"Ethos Pascuicco Café (Pasciucco Apartments)","address":"330 Bowdoin Street, Dorchester, MA 02122","city":"Dorchester","state":"MA","zip":"02122","phone":"(617) 477-6688","website":"https://www.ethocare.org/services/nutrition/community-cafes/","email":"","description":"For more information or to register to attend a Community Cafe near you, please call 617-477-6688 or email ethosmeals@ethocare.org"},{"id":"626ca40e-08b4-4903-8ccd-55bba7f8814b","lat":42.292544,"lng":-71.0945029,"name":"Dorchester","org":"Ethos Olmstead Green Café","address":"2 Kingbird Road, Dorchester, MA 02124","city":"Dorchester","state":"MA","zip":"02124","phone":"(617) 477-6688","website":"https://www.ethocare.org/services/nutrition/community-cafes/","email":"","description":"For more information or to register to attend a Community Cafe near you, please call 617-477-6688 or email ethosmeals@ethocare.org"},{"id":"be02b21a-ff47-4cae-94ae-96d56db0b915","lat":42.3044999,"lng":-71.05938739999999,"name":"Dorchester","org":"Self-Service DTA Kiosk at DotHouse Health (limited services available)","address":"1353 Dorchester Avenue, Dorchester, MA 02122","city":"Dorchester","state":"MA","zip":"02122","phone":"(877) 382-2363","website":"https://www.mass.gov/locations/self-service-dta-kiosk-at-dothouse-health-limited-services-available","email":"","description":"**Parking**\n* There is parking available onsite.\n\n**Services**\n* There is an official Department of Transitional Assistance Kiosk at this location with access to the DTA Connect mobile application and website. [Learn what you can do through DTA Connect.](https://www.mass.gov/guides/how-to-contact-dta)\n\n***PLEASE NOTE***\nThese locations are not staffed by DTA employees."},{"id":"584b1329-18c3-4d39-bb4c-94387f96c8cd","lat":42.2847198,"lng":-71.0800774,"name":"Dorchester","org":"USCC/ St. Matthew's Church Food Pantry","address":"29 Stanton Street, Dorchester, MA 02124","city":"Dorchester","state":"MA","zip":"02124","phone":"(617) 653-0655","website":"","email":"","description":"Food service organization: USCC/ St. Matthew's Church Food Pantry"},{"id":"3f077414-ebbb-41e4-ab68-2b2b72e51354","lat":42.29211979999999,"lng":-71.0803794,"name":"Dorchester","org":"Perkins Community Center","address":"155 Talbot Avenue, Dorchester, MA 02124","city":"Dorchester","state":"MA","zip":"02124","phone":"(774) 244-7015","website":"https://www.facebook.com/pages/Perkins-Community-Center/136306013111180","email":"","description":"Community center providing food pantry services"},{"id":"3a63d4a5-6246-4fd1-9c7f-ef4a28d1758e","lat":42.3016073,"lng":-71.0766117,"name":"Dorchester","org":"The Guild Food Pantry","address":"260 Washington Street, Dorchester, MA 02121","city":"Dorchester","state":"MA","zip":"02121","phone":"(877) 797-7938","website":"https://www.theguild.works/","email":"","description":"Food pantry services"},{"id":"6521d852-f537-4cb0-862b-e104d1442212","lat":42.285728,"lng":-71.0891005,"name":"Dorchester","org":"Temple Salem Seventh Day Adventist Church","address":"222 Woodrow Avenue, Dorchester, MA 02124","city":"Dorchester","state":"MA","zip":"02124","phone":"(617) 288-8845","website":"https://templesalemsda.org/","email":"","description":"Food pantry. Dry food, rice, beans, vegetables, etc. Please contact me for more information. Haitian creole spoken."},{"id":"9ab142d0-007b-4044-b412-92b758220985","lat":42.2846896,"lng":-71.0708819,"name":"Dorchester","org":"YMCA Boston Mobile Pantry Dorchester","address":"776 Washington Street, Dorchester, MA 02124","city":"Dorchester","state":"MA","zip":"02124","phone":"(617) 436-7750","website":"https://ymcaboston.org/mobilemarket/","email":"","description":"Mobile Market Guidelines\n\nBRING YOUR OWN REUSABLE BAG!\nWe have limited bags available (and they hold more groceries!)\nONLY TWO SHOPPERS AT A TIME!\nPlease wait until you receive a shopping basket to begin shopping.\nLOOK AT THE LABELS!\nThe maximum number you can take of each item is written next to the label.\nExample: APPLES (5) = take up to 5 apples\nBAG YOUR OWN GROCERIES!\nOnce you are done shopping, please go to the table with your basket. We ask that you bag your own groceries and leave the basket on the table when you are done.\nONLY SHOP FOR ONE HOUSEHOLD AT A TIME!\nIf you are shopping for more than one household (i.e. a friend, family, neighbors, etc.), you will need to get back in line and make a new basket for each household."},{"id":"91875cbe-8355-4d3f-b3e5-79cd39bf3127","lat":42.2939664,"lng":-71.0837099,"name":"Dorchester","org":"YMCA Boston Mobile @  Carver Lodge","address":"80 Talbot Avenue, Dorchester, MA 02124","city":"Dorchester","state":"MA","zip":"02124","phone":"(617) 436-9841","website":"https://ymcaboston.org/mobilemarket/","email":"","description":"Mobile pantry service providing food assistance"},{"id":"a46f03d1-9857-4c87-88aa-ebdd2b347540","lat":42.2959935,"lng":-71.0709064,"name":"Dorchester","org":"Dorchester Community Fridge","address":"110 Claybourne Street, Dorchester, MA 02124","city":"Dorchester","state":"MA","zip":"02124","phone":"","website":"https://www.instagram.com/dotcommunityfridge","email":"","description":"Open 24/7! Free, outdoor community fridge/pantry operated by local volunteers."},{"id":"07f0d927-4061-4773-b793-3ef419d32944","lat":42.0788109,"lng":-71.0195073,"name":"Downtown","org":"Self-Service DTA Kiosk at the Brockton Old Colony YMCA (limited services available)","address":"320 Main Street, Downtown, MA 02301","city":"Downtown","state":"MA","zip":"02301","phone":"(877) 382-2363","website":"https://www.mass.gov/locations/self-service-dta-kiosk-at-the-brockton-old-colony-ymca-limited-services-available","email":"","description":"**Parking**\n* There is limited parking including street, metered, and a small parking lot requiring a parking pass.\n\n**Services**\n* There is an official Department of Transitional Assistance Kiosk at this location with access to the DTA Connect mobile application and website. [Learn what you can do through DTA Connect.](https://www.mass.gov/guides/how-to-contact-dta)\n\n\n***NOTE:*** These locations are not staffed by DTA employees."},{"id":"6840b616-e21d-4208-8b1f-a97c7f600635","lat":42.3626422,"lng":-71.05921289999999,"name":"Downtown","org":"Self-service DTA Kiosk at Boston City Hall (limited services available)","address":"1 City Hall Square, Downtown, MA 02201","city":"Downtown","state":"MA","zip":"02201","phone":"(877) 382-2363","website":"https://www.mass.gov/locations/self-service-dta-kiosk-at-boston-city-hall-limited-services-available","email":"","description":"**Parking**\n* There is no parking on-site.\n\n**Services**\n* There is an official Department of Transitional Assistance Kiosk at this location with access to the DTA Connect mobile application and website. [Learn what you can do through DTA Connect.](https://www.mass.gov/guides/how-to-contact-dta)\n\n***PLEASE NOTE:***\nThese locations are not staffed by DTA employees.\n\n**Accessibility**\n* The kiosk is located between the 2nd and 3rd floors (right beside the tax windows). Take the North elevator to floor 3 and then head to the tax windows. You will see the podium just behind a column. \n\nPeople who use wheelchairs can reach the kiosk from the building's first floor entrance from Congress Street near Faneuil Hall or the third floor entrance from City Hall Plaza at Government Center by taking the North elevator up to the 6th floor then taking the South elevator down to the 3rd floor."},{"id":"63d564df-95d2-4775-911b-5f95f55e82e4","lat":42.64502530000001,"lng":-71.3079067,"name":"Downtown","org":"NFI Family Resource Center","address":"27 Prescott Street, Downtown, MA 01852","city":"Downtown","state":"MA","zip":"01852","phone":"(978) 455-0701","website":"https://www.nfima.org/services/community-and-home-based/lowell-family-resources-center/","email":"","description":"978-455-0701 (Call Ahead)"},{"id":"75bc82f9-0ba4-471a-b4d1-4d804fe23a76","lat":42.0845387,"lng":-71.0194113,"name":"Downtown","org":"DTA Brockton Transitional Assistance Office (Walk-in)","address":"60 Main Street, Downtown, MA 02301","city":"Downtown","state":"MA","zip":"02301","phone":"(877) 382-2363","website":"https://www.mass.gov/locations/dta-brockton-transitional-assistance-office","email":"","description":"**OVERVIEW**\n* DTA's local office lobby is open for services, including new self-service options. Visit the services section on this page to learn about all the things you can do at a DTA office and ways to contact the Department.\n\n**TRANSPORTATION**\n* You can reach the vicinity of the DTA office via MBTA subway and bus routes.\n* It is strongly recommended that you check with the MBTA's website to make sure you receive their updated routes. They offer a [Trip Planner](https://www.mbta.com/trip-planner?plan=gsQEZnJvbYTECGxhdGl0dWRlxADECWxvbmdpdHVkZcQAxARuYW1lxADEB3N0b3BfaWTEAMQCdG-ExAhsYXRpdHVkZcQAxAlsb25naXR1ZGXEAMQEbmFtZcQAxAdzdG9wX2lkxAA=), which enables users to get personalized recommendations. \n\n**SERVICES**\n* DTA's local office lobby is open for services, including new self-service options. You can use our phones, copiers, or kiosks to apply for benefits or manage your case. DTA staff and interpreters are available to assist you.\n\n* If you need an EBT card, you can request one be sent to you via mail on the DTA Connect mobile app, DTAConnect.com or using the automated prompts on the DTA Assistance Line (877-382-2363). Most cards are delivered within 3-5 days. You can also visit one of our local offices to receive an EBT card if you need one more quickly. If you cannot visit an office, talk to our staff about other options.\n\n* You can apply for SNAP, TAFDC, and EAEDC online at DTAConnect.com or over the phone on the DTA Assistance Line at 877-382-2363 (press 7) (help in over 100 languages). Learn all you can do to manage your case 24/7 without visiting a DTA office (e.g., submit documents, request letter showing your DTA benefits, etc.) at Mass.gov/ContactDTA."},{"id":"fa946a21-489e-4e36-a7c7-560124605764","lat":42.64652239999999,"lng":-71.3111309,"name":"Downtown","org":"Living Waters HOPE316","address":"10 Kirk Street, Downtown, MA 01852","city":"Downtown","state":"MA","zip":"01852","phone":"(978) 364-0118","website":"https://www.livingwaterslowell.org/services/","email":"","description":"Food pantry and community services organization"},{"id":"30eb2850-9a8b-4c27-af46-4b233eaf1606","lat":42.3572998,"lng":-71.0626972,"name":"Downtown","org":"USCCB/ The Paulist Center+","address":"5 Park Street Place, Downtown, MA 02108","city":"Downtown","state":"MA","zip":"02108","phone":"(617) 948-2428","website":"https://www.paulistcenter.org/get-involved/social-justice/","email":"","description":"Food service organization: USCCB/ The Paulist Center+"},{"id":"1a3616da-0f36-47af-a108-cf2825e95409","lat":42.6703597,"lng":-71.32803419999999,"name":"Dracut","org":"St. Marguerutes","address":"1340 Lakeview Avenue, Dracut, MA 01826","city":"Dracut","state":"MA","zip":"01826","phone":"(978) 957-0322","website":"","email":"","description":"Food pantry organization"},{"id":"8ed8c2af-4656-496d-919a-d4f426682903","lat":42.6819949,"lng":-71.3502827,"name":"Dracut","org":"Dracut Food Pantry","address":"1934 Lakeview Avenue, Dracut, MA 01826","city":"Dracut","state":"MA","zip":"01826","phone":"(978) 957-8600","website":"https://mvfb.org/resources/","email":"","description":"Food pantry service"},{"id":"2e725a17-b5ec-4a66-879b-18eb45dd37c3","lat":42.3076925,"lng":-71.0807559,"name":"Dudley / Brunswick King","org":"Ethos Grove Hall Café","address":"51 Geneva Avenue, Dudley / Brunswick King, MA 02121","city":"Dudley / Brunswick King","state":"MA","zip":"02121","phone":"(617) 477-6688","website":"https://www.ethocare.org/services/nutrition/community-cafes/","email":"","description":"For more information or to register to attend a Community Cafe near you, please call 617-477-6688 or email ethosmeals@ethocare.org"},{"id":"54c7d185-8f07-4eb8-8ef7-7020d0d101cc","lat":42.3860779,"lng":-71.0059509,"name":"East Boston","org":"Ethos East Boston Senior Center","address":"7 Bayswater Street, East Boston, MA 02128","city":"East Boston","state":"MA","zip":"02128","phone":"(617) 477-6688","website":"https://www.ethocare.org/services/nutrition/community-cafes/","email":"","description":"For more information or to register to attend a Community Cafe near you, please call 617-477-6688 or email ethosmeals@ethocare.org"},{"id":"3e126f81-73f7-4240-a800-0ea4b39f403a","lat":42.3694944,"lng":-71.0830269,"name":"East Cambridge","org":"East End House","address":"105 Spring Street, East Cambridge, MA 02141","city":"East Cambridge","state":"MA","zip":"02141","phone":"(617) 876-4444","website":"https://www.ceoccambridge.org/food-pantry","email":"","description":"Food pantry service provider"},{"id":"b10e79ea-d54c-45b5-8c2a-3b08459c72c1","lat":41.7640277,"lng":-71.0156038,"name":"East Freetown","org":"Self-Service DTA Kiosk at Freetown Council on Aging (limited services available)","address":"227 Chace Road, East Freetown, MA 02717","city":"East Freetown","state":"MA","zip":"02717","phone":"(877) 382-2363","website":"https://www.mass.gov/locations/self-service-dta-kiosk-at-freetown-council-on-aging-limited-services-available","email":"","description":"**Parking**\n* There is parking available.\n\n**Services**\n* There is an official Department of Transitional Assistance Kiosk at this location with access to the DTA Connect mobile application and website. [Learn what you can do through DTA Connect.](https://www.mass.gov/guides/how-to-contact-dta)\n\n***PLEASE NOTE:***\nThese locations are not staffed by DTA employees."},{"id":"d42ce233-e889-420f-b877-ac2c54123c0c","lat":42.07682,"lng":-72.522194,"name":"Main Location","org":"Friends of East Longmeadow Council on Aging Pantry","address":"328 North Main Street, East Longmeadow, MA 01028","city":"East Longmeadow","state":"MA","zip":"01028","phone":"(413) 525-5436","website":"https://www.eastlongmeadowma.gov/225/Community-Resources","email":"","description":"Emergency food pantry operated by Friends of East Longmeadow Council on Aging providing food assistance to community members in need."},{"id":"8f59b63e-e9f4-4c97-a807-e1887716f2cb","lat":42.3861773,"lng":-71.0880786,"name":"East Somerville","org":"SHA4CD","address":"59 Cross Street, East Somerville, MA 02145","city":"East Somerville","state":"MA","zip":"02145","phone":"(617) 776-7515","website":"www.sha4cd.org","email":"","description":"Food service organization: SHA4CD"},{"id":"ebd41ebe-a642-4c60-9119-42d770f9d115","lat":42.1439603,"lng":-72.5446173,"name":"East Springfield","org":"DTA Springfield Center Transitional Assistance Office (Walk-in)","address":"243 Cottage Street, East Springfield, MA 01104","city":"East Springfield","state":"MA","zip":"01104","phone":"(413) 858-1000","website":"https://www.mass.gov/locations/dta-springfield-center-transitional-assistance-office","email":"","description":"**OVERVIEW**\n* DTA's local office lobby is open for services, including new self-service options. Visit the services section on this page to learn about all the things you can do at a DTA office and ways to contact the Department.\n\n**TRANSPORTATION**\n* You can reach the vicinity of the DTA office via MBTA subway and bus routes.\n* It is strongly recommended that you check with the MBTA's website to make sure you receive their updated routes. They offer a [Trip Planner](https://www.mbta.com/trip-planner?plan=gsQEZnJvbYTECGxhdGl0dWRlxADECWxvbmdpdHVkZcQAxARuYW1lxADEB3N0b3BfaWTEAMQCdG-ExAhsYXRpdHVkZcQAxAlsb25naXR1ZGXEAMQEbmFtZcQAxAdzdG9wX2lkxAA=), which enables users to get personalized recommendations. \n\n**SERVICES**\n* DTA's local office lobby is open for services, including new self-service options. You can use our phones, copiers, or kiosks to apply for benefits or manage your case. DTA staff and interpreters are available to assist you.\n\n* If you need an EBT card, you can request one be sent to you via mail on the DTA Connect mobile app, DTAConnect.com or using the automated prompts on the DTA Assistance Line (877-382-2363). Most cards are delivered within 3-5 days. You can also visit one of our local offices to receive an EBT card if you need one more quickly. If you cannot visit an office, talk to our staff about other options.\n\n* You can apply for SNAP, TAFDC, and EAEDC online at DTAConnect.com or over the phone on the DTA Assistance Line at 877-382-2363 (press 7) (help in over 100 languages). Learn all you can do to manage your case 24/7 without visiting a DTA office (e.g., submit documents, request letter showing your DTA benefits, etc.) at Mass.gov/ContactDTA."},{"id":"c896baee-7230-4cb4-8a2d-bca066ffd6e6","lat":42.263954,"lng":-72.66238,"name":"Easthampton Community Center Emergency Pantry","org":"Easthampton Community Center Emergency Pantry","address":"12 Clark Street, Easthampton, MA 01027","city":"Easthampton","state":"MA","zip":"01027","phone":"(413) 527-5240","website":"https://easthamptoncommunitycenter.org/","email":"","description":"Emergency food pantry providing weekly pantry bags and daily perishables distribution with outdoor service. Offers gluten-free food options and emergency appointments outside regular hours."},{"id":"488ed7b4-a6bc-42fe-aed6-8801ee49646a","lat":42.269,"lng":-72.672457,"name":"Easthampton Congregational Church Food Cupboard","org":"Easthampton Congregational Church Food Cupboard","address":"112 Main Street, Easthampton, MA 01027","city":"Easthampton","state":"MA","zip":"01027","phone":"(413) 203-9759","website":"https://www.easthamptonucc.org/missions-outreach/food-cupboard-oasis-kitchen/","email":"ecchurchfood@gmail.com","description":"Food pantry operated by Easthampton Congregational Church, open every 2nd Wednesday of the month from 10 a.m. – 12 p.m. with delivery services available."},{"id":"29a02b48-decf-4ebc-b4e6-8dd5208b722c","lat":42.267548,"lng":-72.665375,"name":"Easthampton Mobile Food Bank Location","org":"Easthampton Mobile Food Bank","address":"34 Franklin Street, Easthampton, MA 01027","city":"Easthampton","state":"MA","zip":"01027","phone":"(413) 419-0079","website":"","email":"","description":"Mobile food distribution service operating twice monthly with no eligibility requirements"},{"id":"2b73dcba-a082-45fb-b17d-c29764562a51","lat":41.7018574,"lng":-71.1529559,"name":"Fall River","org":"Self-Service DTA Kiosk at the Family Resource Center (limited services available)","address":"45 Rock Street, Fall River, MA 02720","city":"Fall River","state":"MA","zip":"02720","phone":"(877) 382-2363","website":"https://www.mass.gov/locations/self-service-dta-kiosk-at-the-family-resource-center-limited-services-available","email":"","description":"**Parking**\n* There is parking available onsite.\n\n**Services**\n* There is an official Department of Transitional Assistance Kiosk at this location with access to the DTA Connect mobile application and website. [Learn what you can do through DTA Connect.](https://www.mass.gov/guides/how-to-contact-dta)\n\n\n***NOTE:*** These locations are not staffed by DTA employees."},{"id":"1d7efad0-594d-4c0e-805e-5a586cc114e1","lat":41.7213573,"lng":-71.1454782,"name":"Fall River","org":"DTA Fall River Transitional Assistance Office (Walk-in)","address":"1567 North Main Street, Fall River, MA 02720","city":"Fall River","state":"MA","zip":"02720","phone":"(508) 646-6200","website":"https://www.mass.gov/locations/dta-fall-river-transitional-assistance-office","email":"","description":"**OVERVIEW**\n* DTA's local office lobby is open for services, including new self-service options. Visit the services section on this page to learn about all the things you can do at a DTA office and ways to contact the Department.\n\n**TRANSPORTATION**\n* You can reach the vicinity of the DTA office via MBTA subway and bus routes.\n* It is strongly recommended that you check with the MBTA's website to make sure you receive their updated routes. They offer a [Trip Planner](https://www.mbta.com/trip-planner?plan=gsQEZnJvbYTECGxhdGl0dWRlxADECWxvbmdpdHVkZcQAxARuYW1lxADEB3N0b3BfaWTEAMQCdG-ExAhsYXRpdHVkZcQAxAlsb25naXR1ZGXEAMQEbmFtZcQAxAdzdG9wX2lkxAA=), which enables users to get personalized recommendations. \n\n**SERVICES**\n* DTA's local office lobby is open for services, including new self-service options. You can use our phones, copiers, or kiosks to apply for benefits or manage your case. DTA staff and interpreters are available to assist you.\n\n* If you need an EBT card, you can request one be sent to you via mail on the DTA Connect mobile app, DTAConnect.com or using the automated prompts on the DTA Assistance Line (877-382-2363). Most cards are delivered within 3-5 days. You can also visit one of our local offices to receive an EBT card if you need one more quickly. If you cannot visit an office, talk to our staff about other options.\n\n* You can apply for SNAP, TAFDC, and EAEDC online at DTAConnect.com or over the phone on the DTA Assistance Line at 877-382-2363 (press 7) (help in over 100 languages). Learn all you can do to manage your case 24/7 without visiting a DTA office (e.g., submit documents, request letter showing your DTA benefits, etc.) at Mass.gov/ContactDTA."},{"id":"01334155-5d81-4813-8d0b-4f126c85e04e","lat":42.5862424,"lng":-71.8141275,"name":"Fitchburg","org":"DTA Fitchburg Center Transitional Assistance Office (Walk-in)","address":"49 Nursery Lane, Fitchburg, MA 01420","city":"Fitchburg","state":"MA","zip":"01420","phone":"(978) 665-8700","website":"https://www.mass.gov/locations/dta-fitchburg-center-transitional-assistance-office","email":"","description":"**OVERVIEW**\n* DTA's local office lobby is open for services, including new self-service options. Visit the services section on this page to learn about all the things you can do at a DTA office and ways to contact the Department.\n\n**TRANSPORTATION**\n* You can reach the vicinity of the DTA office via MBTA subway and bus routes.\n* It is strongly recommended that you check with the MBTA's website to make sure you receive their updated routes. They offer a [Trip Planner](https://www.mbta.com/trip-planner?plan=gsQEZnJvbYTECGxhdGl0dWRlxADECWxvbmdpdHVkZcQAxARuYW1lxADEB3N0b3BfaWTEAMQCdG-ExAhsYXRpdHVkZcQAxAlsb25naXR1ZGXEAMQEbmFtZcQAxAdzdG9wX2lkxAA=), which enables users to get personalized recommendations. \n\n**SERVICES**\n* DTA's local office lobby is open for services, including new self-service options. You can use our phones, copiers, or kiosks to apply for benefits or manage your case. DTA staff and interpreters are available to assist you.\n\n* If you need an EBT card, you can request one be sent to you via mail on the DTA Connect mobile app, DTAConnect.com or using the automated prompts on the DTA Assistance Line (877-382-2363). Most cards are delivered within 3-5 days. You can also visit one of our local offices to receive an EBT card if you need one more quickly. If you cannot visit an office, talk to our staff about other options.\n\n* You can apply for SNAP, TAFDC, and EAEDC online at DTAConnect.com or over the phone on the DTA Assistance Line at 877-382-2363 (press 7) (help in over 100 languages). Learn all you can do to manage your case 24/7 without visiting a DTA office (e.g., submit documents, request letter showing your DTA benefits, etc.) at Mass.gov/ContactDTA."},{"id":"0bd1173e-05e8-42a2-8023-d228eb6a95fc","lat":42.2787325,"lng":-71.41085129999999,"name":"Framingham","org":"DTA Framingham Transitional Assistance Office","address":"300 Howard Street, Framingham, MA 01702","city":"Framingham","state":"MA","zip":"01702","phone":"(508) 661-6600","website":"https://www.mass.gov/locations/dta-framingham-transitional-assistance-office","email":"","description":"Families need to complete the 2024-25 school meal & summer EBT application to receive summer benefits ($120 per eligible child)- name spelling, address, etc. all need to be up to date and accurate! Summer EBT Outreach Toolkit\"https://mymdthink.maryland.gov/home/#/sunbucks\nIf you need an EBT card, you can request one be sent to you via mail on the DTA Connect mobile app, DTAConnect.com or using the automated prompts on the DTA Assistance Line (877-382-2363). Most cards are delivered within 3-5 days. You can also visit one of our local offices to receive an EBT card if you need one more quickly. If you cannot visit an office, talk to our staff about other options.\n\nYou can apply for SNAP, TAFDC, and EAEDC online at DTAConnect.com or over the phone on the DTA Assistance Line at 877-382-2363 (press 7) (help in over 100 languages). Learn all you can do to manage your case 24/7 without visiting a DTA office (e.g., submit documents, request letter showing your DTA benefits, etc.) at Mass.gov/ContactDTA."},{"id":"a1d7b35a-7297-4f68-9a91-226db625f7c2","lat":42.2787962,"lng":-71.4102994,"name":"Framingham","org":"DTA Framingham Transitional Assistance Office (Walk-in)","address":"300 Howard Street, Framingham, MA 01702","city":"Framingham","state":"MA","zip":"01702","phone":"(508) 661-6600","website":"https://www.mass.gov/locations/dta-framingham-transitional-assistance-office","email":"","description":"**OVERVIEW**\n* DTA's local office lobby is open for services, including new self-service options. Visit the services section on this page to learn about all the things you can do at a DTA office and ways to contact the Department.\n\n**TRANSPORTATION**\n* You can reach the vicinity of the DTA office via MBTA subway and bus routes.\n* It is strongly recommended that you check with the MBTA's website to make sure you receive their updated routes. They offer a [Trip Planner](https://www.mbta.com/trip-planner?plan=gsQEZnJvbYTECGxhdGl0dWRlxADECWxvbmdpdHVkZcQAxARuYW1lxADEB3N0b3BfaWTEAMQCdG-ExAhsYXRpdHVkZcQAxAlsb25naXR1ZGXEAMQEbmFtZcQAxAdzdG9wX2lkxAA=), which enables users to get personalized recommendations. \n\n**SERVICES**\n* DTA's local office lobby is open for services, including new self-service options. You can use our phones, copiers, or kiosks to apply for benefits or manage your case. DTA staff and interpreters are available to assist you.\n\n* If you need an EBT card, you can request one be sent to you via mail on the DTA Connect mobile app, DTAConnect.com or using the automated prompts on the DTA Assistance Line (877-382-2363). Most cards are delivered within 3-5 days. You can also visit one of our local offices to receive an EBT card if you need one more quickly. If you cannot visit an office, talk to our staff about other options.\n\n* You can apply for SNAP, TAFDC, and EAEDC online at DTAConnect.com or over the phone on the DTA Assistance Line at 877-382-2363 (press 7) (help in over 100 languages). Learn all you can do to manage your case 24/7 without visiting a DTA office (e.g., submit documents, request letter showing your DTA benefits, etc.) at Mass.gov/ContactDTA."},{"id":"1b463415-9f91-4539-8586-c6d1c2396e2d","lat":42.5739644,"lng":-71.9862397,"name":"Gardner","org":"Self-Service DTA Kiosk at the Gardner Family Resource Center (limited services available)","address":"205 School Street, Gardner, MA 01440","city":"Gardner","state":"MA","zip":"01440","phone":"(877) 382-2363","website":"https://www.mass.gov/locations/self-service-dta-kiosk-at-the-gardner-family-resource-center-limited-services-available","email":"","description":"**Parking**\n* There is parking available onsite.\n\n**Services**\n* There is an official Department of Transitional Assistance Kiosk at this location with access to the DTA Connect mobile application and website. [Learn what you can do through DTA Connect.](https://www.mass.gov/guides/how-to-contact-dta)\n\n\n***NOTE:*** These locations are not staffed by DTA employees."},{"id":"24fbd7ed-5fbb-400e-bed7-b47a860eabbe","lat":42.6137617,"lng":-70.65893,"name":"Gloucester","org":"Self-Service DTA Kiosk at the Gloucester Rose Baker Senior Center (limited services available)","address":"6 Manuel F Lewis Street, Gloucester, MA 01930","city":"Gloucester","state":"MA","zip":"01930","phone":"(877) 382-2363","website":"https://www.mass.gov/locations/self-service-dta-kiosk-at-the-gloucester-rose-baker-senior-center-limited-services-available","email":"","description":"**Parking**\n* There is parking available onsite.\n\n**Services**\n* There is an official Department of Transitional Assistance Kiosk at this location with access to the DTA Connect mobile application and website. [Learn what you can do through DTA Connect.](https://www.mass.gov/guides/how-to-contact-dta)\n\n\n***NOTE:*** These locations are not staffed by DTA employees."},{"id":"d93f92e6-0aa7-46ff-90fa-fd384ec5ddad","lat":42.24191,"lng":-72.55223,"name":"Granby Brown Bag Location","org":"Granby Brown Bag","address":"10 West State Street, Granby, MA 01033","city":"Granby","state":"MA","zip":"01033","phone":"(413) 467-3239","website":"","email":"","description":"Food pantry providing pickup services every 3rd Tuesday from 11:00 a.m. – 12:00 p.m."},{"id":"408ccb2c-fead-4ca2-9958-2f5d5e1775af","lat":42.1869762,"lng":-73.3680474,"name":"Great Barrington","org":"Self-Service DTA Kiosk at the Great Barrington Family Resource Center (limited services available)","address":"141 West Avenue, Great Barrington, MA 01230","city":"Great Barrington","state":"MA","zip":"01230","phone":"(877) 382-2363","website":"https://www.mass.gov/locations/self-service-dta-kiosk-at-the-great-barrington-family-resource-center-limited-services-available","email":"","description":"**Parking**\n* There is parking available onsite.\n\n**Services**\n* There is an official Department of Transitional Assistance Kiosk at this location with access to the DTA Connect mobile application and website. [Learn what you can do through DTA Connect.](https://www.mass.gov/guides/how-to-contact-dta)\n\n\n***NOTE:*** These locations are not staffed by DTA employees."},{"id":"495b83fc-05d4-43f3-a95f-153e196ac235","lat":42.6009084,"lng":-72.5949734,"name":"Greenfield","org":"DTA Greenfield Transitional Assistance Office (Walk-in)","address":"298 Federal Street, Greenfield, MA 01301","city":"Greenfield","state":"MA","zip":"01301","phone":"(413) 772-3400","website":"https://www.mass.gov/locations/dta-greenfield-transitional-assistance-office","email":"","description":"**OVERVIEW**\n* DTA's local office lobby is open for services, including new self-service options. Visit the services section on this page to learn about all the things you can do at a DTA office and ways to contact the Department.\n\n**TRANSPORTATION**\n* You can reach the vicinity of the DTA office via MBTA subway and bus routes.\n* It is strongly recommended that you check with the MBTA's website to make sure you receive their updated routes. They offer a [Trip Planner](https://www.mbta.com/trip-planner?plan=gsQEZnJvbYTECGxhdGl0dWRlxADECWxvbmdpdHVkZcQAxARuYW1lxADEB3N0b3BfaWTEAMQCdG-ExAhsYXRpdHVkZcQAxAlsb25naXR1ZGXEAMQEbmFtZcQAxAdzdG9wX2lkxAA=), which enables users to get personalized recommendations. \n\n**SERVICES**\n* DTA's local office lobby is open for services, including new self-service options. You can use our phones, copiers, or kiosks to apply for benefits or manage your case. DTA staff and interpreters are available to assist you.\n\n* If you need an EBT card, you can request one be sent to you via mail on the DTA Connect mobile app, DTAConnect.com or using the automated prompts on the DTA Assistance Line (877-382-2363). Most cards are delivered within 3-5 days. You can also visit one of our local offices to receive an EBT card if you need one more quickly. If you cannot visit an office, talk to our staff about other options.\n\n* You can apply for SNAP, TAFDC, and EAEDC online at DTAConnect.com or over the phone on the DTA Assistance Line at 877-382-2363 (press 7) (help in over 100 languages). Learn all you can do to manage your case 24/7 without visiting a DTA office (e.g., submit documents, request letter showing your DTA benefits, etc.) at Mass.gov/ContactDTA."},{"id":"9c97073e-33a5-40ab-a5c1-31bd678ef2fd","lat":42.34292,"lng":-72.592802,"name":"Hadley","org":"Hadley Brown Bag","address":"46 Middle Street, Hadley, MA 01035","city":"Hadley","state":"MA","zip":"01035","phone":"(413) 586-4023","website":"","email":"","description":"Food pantry providing emergency food assistance through monthly pickup services"},{"id":"938f3d1d-e560-44bf-9dcc-8d14a8625178","lat":42.063942,"lng":-72.446156,"name":"Hampden Senior Center Brown Bag Location","org":"Hampden Senior Center Brown Bag","address":"104 Allen Street, Hampden, MA 01036","city":"Hampden","state":"MA","zip":"01036","phone":"(413) 566-5588","website":"","email":"","description":"Senior center food pantry providing monthly food distribution through brown bag program"},{"id":"03490008-66ff-4229-b80a-78529f9db198","lat":42.37318,"lng":-72.59622,"name":"Hatfield","org":"Hatfield Brown Bag","address":"59 Main Street, Hatfield, MA 01038","city":"Hatfield","state":"MA","zip":"01038","phone":"(413) 247-9003","website":"","email":"","description":"Food pantry providing emergency food assistance to the Hatfield community. Pickup occurs every 1st Tuesday from 11:00 a.m."},{"id":"0c9e397e-11fc-4288-91c4-bccfd1f47fe8","lat":42.37449,"lng":-72.70243,"name":"Haydenville","org":"Williamsburg Brown Bag","address":"141 Main Street, Haydenville, MA 01039","city":"Haydenville","state":"MA","zip":"01039","phone":"(413) 268-8407","website":"","email":"","description":"Food pantry providing emergency food assistance to the local community"},{"id":"d59077e9-6798-4aa4-9855-7eb2610e31a9","lat":42.202675,"lng":-72.64269,"name":"Beaudoin Village/Yoerg Circle Mobile Food Bank Location","org":"Beaudoin Village/Yoerg Circle Mobile Food Bank","address":"40 Leary Drive, Holyoke, MA 01040","city":"Holyoke","state":"MA","zip":"01040","phone":"(413) 419-0079","website":"","email":"","description":"Mobile food bank service providing food assistance with no eligibility requirements. Operates the 1st Monday of each month from 11:00-11:45 a.m."},{"id":"c5ccf1b9-c42d-4bf0-bceb-b4f5319a85b6","lat":42.202028,"lng":-72.616335,"name":"Bethlehem Baptist Community Church Soup Kitchen Location","org":"Bethlehem Baptist Community Church Soup Kitchen","address":"304 Elm Street, Holyoke, MA 01040","city":"Holyoke","state":"MA","zip":"01040","phone":"(413) 533-4590","website":"","email":"","description":"Community soup kitchen providing meal services to those in need, operated by Bethlehem Baptist Community Church in Holyoke, Massachusetts."},{"id":"6b134a33-5339-41b3-98fe-f4600b20a569","lat":42.19563,"lng":-72.63031,"name":"Blessed Sacrament Parish Take and Eat","org":"Blessed Sacrament Parish Take and Eat","address":"1945 Northampton Street, Holyoke, MA 01040","city":"Holyoke","state":"MA","zip":"01040","phone":"(413) 532-0713","website":"","email":"","description":"A meal delivery program for homebound seniors operated by Blessed Sacrament Parish, providing meals on the second Sunday of each month with required registration."},{"id":"63c9cb9d-de65-4817-99e1-ade168f302e7","lat":42.199924,"lng":-72.60693,"name":"Christian Pentecostal Church Holyoke Food Pantry","org":"Christian Pentecostal Church Holyoke Food Pantry","address":"96 Cabot Street, Holyoke, MA 01040","city":"Holyoke","state":"MA","zip":"01040","phone":"(413) 532-6192","website":"","email":"","description":"Food pantry operated by Christian Pentecostal Church in Holyoke, providing food assistance to community members with a limit of 12 visits per year."},{"id":"369d7992-63a5-4e89-b6b4-0eb4b2661762","lat":42.2078857,"lng":-72.604078,"name":"DTA Holyoke Transitional Assistance Office Location","org":"DTA Holyoke Transitional Assistance Office","address":"72-100 Front Street, Holyoke, MA 01040","city":"Holyoke","state":"MA","zip":"01040","phone":"(413) 552-5400","website":"https://www.mass.gov/locations/dta-holyoke-transitional-assistance-office","email":"","description":"Families need to complete the 2024-25 school meal & summer EBT application to receive summer benefits ($120 per eligible child)- name spelling, address, etc. all need to be up to date and accurate! Summer EBT Outreach Toolkit\" https://mymdthink.maryland.gov/home/#/sunbucks\nIf you need an EBT card, you can request one be sent to you via mail on the DTA Connect mobile app, DTAConnect.com or using the automated prompts on the DTA Assistance Line (877-382-2363). Most cards are delivered within 3-5 days. You can also visit one of our local offices to receive an EBT card if you need one more quickly. If you cannot visit an office, talk to our staff about other options.\n\nYou can apply for SNAP, TAFDC, and EAEDC online at DTAConnect.com or over the phone on the DTA Assistance Line at 877-382-2363 (press 7) (help in over 100 languages). Learn all you can do to manage your case 24/7 without visiting a DTA office (e.g., submit documents, request letter showing your DTA benefits, etc.) at Mass.gov/ContactDTA."},{"id":"6afe4040-2da3-4096-bc59-a9912630d483","lat":42.203503,"lng":-72.61792,"name":"Holyoke","org":"Holyoke Brown Bag","address":"291 Pine Street, Holyoke, MA 01040","city":"Holyoke","state":"MA","zip":"01040","phone":"(413) 322-5625","website":"","email":"","description":"Food pantry providing monthly food distribution through brown bag pickup service"},{"id":"b05ab4f9-2c23-4474-baf8-3abb7f0b5a90","lat":42.20122,"lng":-72.60575,"name":"Main Location","org":"Pentecostal Church Ebenezer Assemblies of God Food Pantry","address":"200 Main Street, Holyoke, MA 01040","city":"Holyoke","state":"MA","zip":"01040","phone":"(413) 536-0630","website":"","email":"","description":"Food pantry operated by Pentecostal Church Ebenezer Assemblies of God, providing food assistance to the community on a monthly schedule."},{"id":"34b87824-08af-4bd5-9494-e8e7f7ace624","lat":42.205093,"lng":-72.596393,"name":"One Holyoke CDC Mobile Food Bank Location","org":"One Holyoke CDC Mobile Food Bank","address":"70 North Bridge Street, Holyoke, MA 01040","city":"Holyoke","state":"MA","zip":"01040","phone":"(413) 419-0079","website":"","email":"","description":"Mobile food bank providing food assistance with no eligibility requirements. Operates on a scheduled basis at a fixed location."},{"id":"e13833da-6383-447f-980a-2670a0fa9641","lat":42.206173,"lng":-72.621503,"name":"Pa'lante Transformative Justice Gabinete Main Location","org":"Pa'lante Transformative Justice Gabinete","address":"220 Linden St., Holyoke, MA 01040","city":"Holyoke","state":"MA","zip":"01040","phone":"(413) 200-0624","website":"","email":"","description":"Community organization providing food pantry services and transformative justice programs in Holyoke, Massachusetts."},{"id":"67bb3cbb-2de4-4c91-979d-93a09dc49ab5","lat":42.198082,"lng":-72.606895,"name":"Providence Ministries Kate's Kitchen","org":"Providence Ministries Kate's Kitchen","address":"51 Hamilton Street, Holyoke, MA 01040","city":"Holyoke","state":"MA","zip":"01040","phone":"(413) 533-5909","website":"https://www.provministries.org/portfolio/kates-kitchen/","email":"","description":"Mealsite serves dine-in meals Monday through Friday, and to-go meals on Saturday and Sunday."},{"id":"9671afc8-c047-48ff-81ed-7f3bdab2f979","lat":42.199215,"lng":-72.60586,"name":"Providence Ministries Margaret's Pantry Main Location","org":"Providence Ministries Margaret's Pantry","address":"56 Cabot Street, Holyoke, MA 01040","city":"Holyoke","state":"MA","zip":"01040","phone":"(413) 538-8026","website":"https://www.provministries.org/portfolio/margarets-pantry/","email":"","description":"Food pantry providing emergency food assistance with visits available by appointment Monday through Friday from 8 a.m. – 4 p.m."},{"id":"ae1e6fc9-f6eb-42df-a501-ca8189c5a285","lat":42.209378,"lng":-72.617178,"name":"St. Paul's Episcopal Church Mobile Food Bank Location","org":"St. Paul's Episcopal Church Mobile Food Bank","address":"485 Appleton Street, Holyoke, MA 01040","city":"Holyoke","state":"MA","zip":"01040","phone":"(413) 419-0079","website":"","email":"","description":"Mobile food bank providing food assistance with no eligibility requirements. Operates on the 2nd and 4th Tuesday of each month."},{"id":"1ae5b73e-1921-410c-8d1c-3f55f77b265e","lat":42.207656,"lng":-72.607934,"name":"The Community Builders Lyman Terrace Food Pantry","org":"The Community Builders Lyman Terrace Food Pantry","address":"17 Hampden Street, Holyoke, MA 01040","city":"Holyoke","state":"MA","zip":"01040","phone":"(413) 887-6642","website":"","email":"","description":"Food pantry providing emergency food assistance to community members in need"},{"id":"daa225c6-5ef5-43ef-b8d6-34e424210ef7","lat":42.2045,"lng":-72.60902,"name":"The Salvation Army Holyoke Corps CES Emergency Food Pantry Location","org":"The Salvation Army Holyoke Corps CES Emergency Food Pantry","address":"271 Appleton Street, Holyoke, MA 01040","city":"Holyoke","state":"MA","zip":"01040","phone":"(413) 532-6312","website":"","email":"","description":"Emergency food pantry operated by The Salvation Army providing food assistance to individuals and families in need. Baked goods and vegetables are available on Tuesdays and Thursdays at 11:00 a.m."},{"id":"bc239d77-5965-4da2-9302-ce5064907e51","lat":42.202966,"lng":-72.607741,"name":"United Way of Pioneer Valley Holyoke Community Cupboard","org":"United Way of Pioneer Valley Holyoke Community Cupboard","address":"164 Race St., Holyoke, MA 01040","city":"Holyoke","state":"MA","zip":"01040","phone":"(413) 302-3871","website":"https://www.uwpv.org/holyoke","email":"","description":"Community food pantry operated by United Way of Pioneer Valley providing food assistance to residents. Guests are limited to one visit per month."},{"id":"409f7638-f38f-4d8b-8ef2-e7557ef4c6b5","lat":42.233356,"lng":-72.87963,"name":"Huntington","org":"Huntington Brown Bag","address":"26 Russell Road, Huntington, MA 01050","city":"Huntington","state":"MA","zip":"01050","phone":"(413) 512-5208","website":"","email":"","description":"Food pantry providing emergency food assistance through monthly brown bag distributions"},{"id":"7e31881b-3cba-41ce-ae21-9582a5efadb4","lat":41.6539917,"lng":-70.28702609999999,"name":"Hyannis","org":"Self-Service DTA Kiosk at St Joseph's House-Catholic Social Services (limited services available)","address":"77 Winter Street, Hyannis, MA 02601","city":"Hyannis","state":"MA","zip":"02601","phone":"(877) 382-2363","website":"https://www.mass.gov/locations/self-service-dta-kiosk-at-st-josephs-house-catholic-social-services-limited-services-available","email":"","description":"**Parking**\n* There is parking available onsite.\n\n**Services**\n* There is an official Department of Transitional Assistance Kiosk at this location with access to the DTA Connect mobile application and website. [Learn what you can do through DTA Connect.](https://www.mass.gov/guides/how-to-contact-dta)\n\n***NOTE:*** These locations are not staffed by DTA employees."},{"id":"a6bae305-5ac0-4f13-b84f-89bda1593628","lat":41.65106890000001,"lng":-70.28779329999999,"name":"Hyannis","org":"DTA Hyannis Transitional Assistance Office (Walk-in)","address":"500 Main Street, Hyannis, MA 02601","city":"Hyannis","state":"MA","zip":"02601","phone":"(508) 862-6600","website":"https://www.mass.gov/locations/dta-hyannis-transitional-assistance-office","email":"","description":"**OVERVIEW**\n* DTA's local office lobby is open for services, including new self-service options. Visit the services section on this page to learn about all the things you can do at a DTA office and ways to contact the Department.\n\n**TRANSPORTATION**\n* You can reach the vicinity of the DTA office via MBTA subway and bus routes.\n* It is strongly recommended that you check with the MBTA's website to make sure you receive their updated routes. They offer a [Trip Planner](https://www.mbta.com/trip-planner?plan=gsQEZnJvbYTECGxhdGl0dWRlxADECWxvbmdpdHVkZcQAxARuYW1lxADEB3N0b3BfaWTEAMQCdG-ExAhsYXRpdHVkZcQAxAlsb25naXR1ZGXEAMQEbmFtZcQAxAdzdG9wX2lkxAA=), which enables users to get personalized recommendations. \n\n**SERVICES**\n* DTA's local office lobby is open for services, including new self-service options. You can use our phones, copiers, or kiosks to apply for benefits or manage your case. DTA staff and interpreters are available to assist you.\n\n* If you need an EBT card, you can request one be sent to you via mail on the DTA Connect mobile app, DTAConnect.com or using the automated prompts on the DTA Assistance Line (877-382-2363). Most cards are delivered within 3-5 days. You can also visit one of our local offices to receive an EBT card if you need one more quickly. If you cannot visit an office, talk to our staff about other options.\n\n* You can apply for SNAP, TAFDC, and EAEDC online at DTAConnect.com or over the phone on the DTA Assistance Line at 877-382-2363 (press 7) (help in over 100 languages). Learn all you can do to manage your case 24/7 without visiting a DTA office (e.g., submit documents, request letter showing your DTA benefits, etc.) at Mass.gov/ContactDTA."},{"id":"3be71605-2f46-4670-accb-71622bb5a79c","lat":42.2520153,"lng":-71.12453049999999,"name":"Hyde Park","org":"Ethos Blake Estates Café","address":"1344 Hyde Park Avenue, Hyde Park, MA 02136","city":"Hyde Park","state":"MA","zip":"02136","phone":"(617) 477-6688","website":"https://www.ethocare.org/services/nutrition/community-cafes/","email":"","description":"For more information or to register to attend a Community Cafe near you, please call 617-477-6688 or email ethosmeals@ethocare.org"},{"id":"babb6280-c733-445c-a020-d109efa972b0","lat":42.159275,"lng":-72.498856,"name":"Community Survival Center Food Pantry Location","org":"Community Survival Center Food Pantry","address":"240 Main Street, Indian Orchard, MA 01151","city":"Indian Orchard","state":"MA","zip":"01151","phone":"(413) 543-3930","website":"https://communitysurvivalcenter.org/food-pantry/","email":"","description":"Community-based food pantry providing emergency food assistance with a limit of 6 visits per year per guest."},{"id":"b1ca8721-9c99-42e3-963b-9bbcb679b129","lat":42.159805,"lng":-72.50482,"name":"Indian Orchard Brown Bag Location","org":"Indian Orchard Brown Bag","address":"117 Main Street, Indian Orchard, MA 01151","city":"Indian Orchard","state":"MA","zip":"01151","phone":"(413) 636-8755","website":"","email":"","description":"Food pantry providing food assistance with pickup available every first Friday of the month from 12:00-1:00 PM"},{"id":"92b32832-a7d0-4a7b-82a2-56cfc908c46b","lat":42.147408,"lng":-72.513271,"name":"International Christian Center Food Pantry","org":"International Christian Center Food Pantry","address":"2071 Page Blvd., Indian Orchard, MA 01151","city":"Indian Orchard","state":"MA","zip":"01151","phone":"(413) 246-0797","website":"","email":"","description":"Food pantry providing food assistance to community members. Visits are also available by appointment."},{"id":"25c4d0ea-7dc2-4eff-9ac3-0fe95c49e5a0","lat":42.157394,"lng":-72.49926,"name":"Springfield Housing Authority Mobile Food Bank Location","org":"Springfield Housing Authority Mobile Food Bank","address":"29 Moxon Street, Indian Orchard, MA 01151","city":"Indian Orchard","state":"MA","zip":"01151","phone":"(413) 419-0079","website":"","email":"","description":"Mobile food distribution service operated by Springfield Housing Authority, providing food assistance to the community without eligibility requirements."},{"id":"efb88705-dfae-4ae7-89bc-ebf45622c2a0","lat":42.313728,"lng":-71.11457539999999,"name":"Jamaica Hills","org":"Ethos Crossroads Café (First Baptist Church of JP)","address":"633 Centre Street, Jamaica Hills, MA 02130","city":"Jamaica Hills","state":"MA","zip":"02130","phone":"(617) 477-6688","website":"https://www.ethocare.org/services/nutrition/community-cafes/","email":"","description":"For more information or to register to attend a Community Cafe near you, please call 617-477-6688 or email ethosmeals@ethocare.org"},{"id":"09ed332b-89e5-4842-8217-9d2396badaaa","lat":42.3166553,"lng":-71.11423040000001,"name":"Jamaica Hills","org":"Ethos Rogerson House (LGBTQ)","address":"Beaufort Road, Jamaica Hills, MA 02130","city":"Jamaica Hills","state":"MA","zip":"02130","phone":"(617) 477-6688","website":"https://www.ethocare.org/services/nutrition/community-cafes/","email":"","description":"For more information or to register to attend a Community Cafe near you, please call 617-477-6688 or email ethosmeals@ethocare.org"},{"id":"b61b3513-28e1-410e-ab41-814b93c57bb1","lat":42.3085932,"lng":-71.1079942,"name":"Jamaica Plain","org":"ETHOS Nutrition Department","address":"555 Amory Street, Jamaica Plain, MA 02130","city":"Jamaica Plain","state":"MA","zip":"02130","phone":"(617) 477-6606","website":"https://www.ethocare.org/services/nutrition/meals-on-wheels/","email":"","description":"To be eligible for this service, you must be:\nResiding within the city of Boston\nAt least 60 years of age\nEither temporarily or permanently homebound.\nBased on their individual needs, elders may also receive frozen weekend meals, cold meals, and nutritional supplements."},{"id":"c65a5072-36c4-4f35-ad71-83ac86cc52c7","lat":42.3200852,"lng":-71.0988361,"name":"Jamaica Plain","org":"DTA Jackson Square Transitional Assistance Office (Walk-in)","address":"1785 Columbus Avenue, Jamaica Plain, MA 02119","city":"Jamaica Plain","state":"MA","zip":"02119","phone":"","website":"https://www.mass.gov/locations/dta-jackson-square-transitional-assistance-office","email":"","description":"**OVERVIEW**\n* DTA's local office lobby is open for services, including new self-service options. Visit the services section on this page to learn about all the things you can do at a DTA office and ways to contact the Department.\n* The Jackson Square office will serve the following communities:\n\n\t* Allston - Brighton\n\t* Boston - 02112\n\t* Boston - 02117\n\t* Boston - 02205\n\t* Boston - Financial District\n\t* Brookline\n\t* Fenway\n\t* Jamaica Plain\n\t* Mattapan\n\t* North End\n\t* Readville - Hyde Park\n\t* Roslindale\n\t* Seaport District\n\t* West Roxbury\n\n**TRANSPORTATION**\n* There is street parking available.\n* You can reach the vicinity of the DTA office via MBTA subway and bus routes.\n* It is strongly recommended that you check with the MBTA's website to make sure you receive their updated routes. They offer a [Trip Planner](https://www.mbta.com/trip-planner?plan=gsQEZnJvbYTECGxhdGl0dWRlxADECWxvbmdpdHVkZcQAxARuYW1lxADEB3N0b3BfaWTEAMQCdG-ExAhsYXRpdHVkZcQAxAlsb25naXR1ZGXEAMQEbmFtZcQAxAdzdG9wX2lkxAA=), which enables users to get personalized recommendations. \n\n**SERVICES**\n* DTA's local office lobby is open for services, including new self-service options. You can use our phones, copiers, or kiosks to apply for benefits or manage your case. DTA staff and interpreters are available to assist you.\n\n* If you need an EBT card, you can request one be sent to you via mail on the DTA Connect mobile app, DTAConnect.com or using the automated prompts on the DTA Assistance Line (877-382-2363). Most cards are delivered within 3-5 days. You can also visit one of our local offices to receive an EBT card if you need one more quickly. If you cannot visit an office, talk to our staff about other options.\n\n* You can apply for SNAP, TAFDC, and EAEDC online at DTAConnect.com or over the phone on the DTA Assistance Line at 877-382-2363 (press 7) (help in over 100 languages). Learn all you can do to manage your case 24/7 without visiting a DTA office (e.g., submit documents, request letter showing your DTA benefits, etc.) at Mass.gov/ContactDTA."},{"id":"6fc4eded-ae56-433a-aaeb-b7a7885f2193","lat":42.3064128,"lng":-71.11462180000001,"name":"Jamaica Plain","org":"Brooklyn Food Corps / Brooklyn Rescue","address":"90 South Street, Jamaica Plain, MA 02130","city":"Jamaica Plain","state":"MA","zip":"02130","phone":"(617) 852-5967","website":"https://brmuhc.org/community-food-center/bed-stuy-farm/","email":"","description":"Food service organization: Brooklyn Food Corps / Brooklyn Rescue"},{"id":"857bbb42-6e24-4581-a4ec-dfdf5d4df33c","lat":42.312959,"lng":-71.10330549999999,"name":"Jamaica Plain","org":"SVDP/Our Lady of Lourdes","address":"54 Brookside Avenue, Jamaica Plain, MA 02130","city":"Jamaica Plain","state":"MA","zip":"02130","phone":"(617) 524-0240","website":"","email":"","description":"Food service organization: SVDP/Our Lady of Lourdes"},{"id":"14478950-eb44-4e30-a26f-6d86533033ac","lat":42.3734961,"lng":-71.0331218,"name":"Jeffries Point","org":"East Boston YMCA Mobile pantry","address":"215 Bremen Street, Jeffries Point, MA 02128","city":"Jeffries Point","state":"MA","zip":"02128","phone":"UNKNOWN","website":"Ymcaboston.org/mobilemarket","email":"","description":"Mobile pantry service"},{"id":"c9fccead-a5b2-4496-8d03-3250bee770db","lat":42.703149,"lng":-71.14845799999999,"name":"Lawrence","org":"DTA Lawrence Transitional Assistance Office (Walk-in)","address":"280 Merrimack Street, Lawrence, MA 01843","city":"Lawrence","state":"MA","zip":"01843","phone":"(978) 725-7100","website":"https://www.mass.gov/locations/dta-lawrence-transitional-assistance-office","email":"","description":"**OVERVIEW**\n* DTA's local office lobby is open for services, including new self-service options. Visit the services section on this page to learn about all the things you can do at a DTA office and ways to contact the Department.\n\n**TRANSPORTATION**\n* You can reach the vicinity of the DTA office via MBTA subway and bus routes.\n* It is strongly recommended that you check with the MBTA's website to make sure you receive their updated routes. They offer a [Trip Planner](https://www.mbta.com/trip-planner?plan=gsQEZnJvbYTECGxhdGl0dWRlxADECWxvbmdpdHVkZcQAxARuYW1lxADEB3N0b3BfaWTEAMQCdG-ExAhsYXRpdHVkZcQAxAlsb25naXR1ZGXEAMQEbmFtZcQAxAdzdG9wX2lkxAA=), which enables users to get personalized recommendations. \n\n**SERVICES**\n* DTA's local office lobby is open for services, including new self-service options. You can use our phones, copiers, or kiosks to apply for benefits or manage your case. DTA staff and interpreters are available to assist you.\n\n* If you need an EBT card, you can request one be sent to you via mail on the DTA Connect mobile app, DTAConnect.com or using the automated prompts on the DTA Assistance Line (877-382-2363). Most cards are delivered within 3-5 days. You can also visit one of our local offices to receive an EBT card if you need one more quickly. If you cannot visit an office, talk to our staff about other options.\n\n* You can apply for SNAP, TAFDC, and EAEDC online at DTAConnect.com or over the phone on the DTA Assistance Line at 877-382-2363 (press 7) (help in over 100 languages). Learn all you can do to manage your case 24/7 without visiting a DTA office (e.g., submit documents, request letter showing your DTA benefits, etc.) at Mass.gov/ContactDTA."},{"id":"c37ef542-4721-4e6b-999b-06ef849f3ab0","lat":42.348063,"lng":-72.687782,"name":"Leeds","org":"Project New Hope VA Food Pantry","address":"421 N. Main St., Leeds, MA 01053","city":"Leeds","state":"MA","zip":"01053","phone":"(413) 582-3033","website":"","email":"","description":"Food pantry providing emergency food assistance to individuals and families in need in the Leeds, MA area."},{"id":"6d3b1333-3ea7-4e99-8d89-826c17c83ac9","lat":42.34814,"lng":-72.68795,"name":"Leeds","org":"Soldier On Pantry for Homeless Vets","address":"421 North Main Street, Leeds, MA 01053","city":"Leeds","state":"MA","zip":"01053","phone":"(413) 588-4232","website":"","email":"","description":"Food pantry serving homeless veterans with to-go boxes distributed at the door. Additional hours available for new or working residents."},{"id":"1969e84f-20de-4550-992b-d73ca167e109","lat":42.031906,"lng":-72.57408,"name":"Friends of Longmeadow Older Citizens Association Pantry","org":"Friends of Longmeadow Older Citizens Association Pantry","address":"211 Maple Road, Longmeadow, MA 01106","city":"Longmeadow","state":"MA","zip":"01106","phone":"(413) 565-4150","website":"https://www.longmeadowma.gov/152/Longmeadow-Open-Pantry","email":"","description":"A food pantry serving the Longmeadow community, operated by the Friends of Longmeadow Older Citizens Association. Visits are available by appointment."},{"id":"ae844fe9-0509-4b2e-b04c-2174c270e7c5","lat":42.155764,"lng":-72.469187,"name":"Ludlow Brown Bag Location","org":"Ludlow Brown Bag","address":"228 State Street, Ludlow, MA 01056","city":"Ludlow","state":"MA","zip":"01056","phone":"(413) 583-3564","website":"","email":"","description":"Food pantry providing pickup services every 3rd Tuesday from 1:00 - 3:00 p.m."},{"id":"61bc8b0a-d222-4c9a-97ca-346c9bad824b","lat":42.181614,"lng":-72.505085,"name":"One Call Away Ludlow Veterans Services","org":"One Call Away Ludlow Veterans Services","address":"487 Holyoke St, Ludlow, MA 01056","city":"Ludlow","state":"MA","zip":"01056","phone":"(413) 707-5050","website":"","email":"","description":"Veterans services organization providing food pantry support to veterans and their families in Ludlow, Massachusetts"},{"id":"2b539768-12a6-4d69-81dd-7cfde97d5b8b","lat":42.4660117,"lng":-70.9493366,"name":"Lynn","org":"Washington Street Baptist","address":"256 Washington Street, Lynn, MA 01902","city":"Lynn","state":"MA","zip":"01902","phone":"(781) 595-2550","website":"https://www.lynnwsbc.org/food-pantry","email":"","description":"Food pantry services"},{"id":"fa5c00f3-f3a7-4dfd-a8ed-eacc007dafa0","lat":42.4649529,"lng":-70.9475283,"name":"Lynn","org":"My Brother's Table","address":"98 Willow Street, Lynn, MA 01901","city":"Lynn","state":"MA","zip":"01901","phone":"(781) 595-3224","website":"http://www.mybrotherstable.org/","email":"","description":"Community organization providing services"},{"id":"f905e5f5-e2c3-4fcb-9d87-878365d897a8","lat":42.4629278,"lng":-70.9562567,"name":"Lynn","org":"St. Stephen's Food Pantry","address":"74 South Common Street, Lynn, MA 01902","city":"Lynn","state":"MA","zip":"01902","phone":"(781) 599-4220","website":"","email":"","description":"Must register on the 2nd Friday of the month. Bring an ID and proof of address."},{"id":"0862974c-7a30-48ef-b834-e4258ef41aee","lat":42.4189025,"lng":-71.0762352,"name":"DTA Malden Office","org":"DTA Malden Transitional Assistance Office (Walk-in)","address":"245 Commercial Street, Malden, MA 02148","city":"Malden","state":"MA","zip":"02148","phone":"(781) 388-7300","website":"https://www.mass.gov/locations/dta-malden-transitional-assistance-office","email":"","description":"**OVERVIEW**\n* DTA's local office lobby is open for services, including new self-service options. Visit the services section on this page to learn about all the things you can do at a DTA office and ways to contact the Department.\n\n**TRANSPORTATION**\n* You can reach the vicinity of the DTA office via MBTA subway and bus routes.\n* It is strongly recommended that you check with the MBTA's website to make sure you receive their updated routes. They offer a [Trip Planner](https://www.mbta.com/trip-planner?plan=gsQEZnJvbYTECGxhdGl0dWRlxADECWxvbmdpdHVkZcQAxARuYW1lxADEB3N0b3BfaWTEAMQCdG-ExAhsYXRpdHVkZcQAxAlsb25naXR1ZGXEAMQEbmFtZcQAxAdzdG9wX2lkxAA=), which enables users to get personalized recommendations. \n\n**SERVICES**\n* DTA's local office lobby is open for services, including new self-service options. You can use our phones, copiers, or kiosks to apply for benefits or manage your case. DTA staff and interpreters are available to assist you.\n\n* If you need an EBT card, you can request one be sent to you via mail on the DTA Connect mobile app, DTAConnect.com or using the automated prompts on the DTA Assistance Line (877-382-2363). Most cards are delivered within 3-5 days. You can also visit one of our local offices to receive an EBT card if you need one more quickly. If you cannot visit an office, talk to our staff about other options.\n\n* You can apply for SNAP, TAFDC, and EAEDC online at DTAConnect.com or over the phone on the DTA Assistance Line at 877-382-2363 (press 7) (help in over 100 languages). Learn all you can do to manage your case 24/7 without visiting a DTA office (e.g., submit documents, request letter showing your DTA benefits, etc.) at Mass.gov/ContactDTA."},{"id":"b36603f4-cedd-44eb-b31f-3424c1f65f5d","lat":42.4293707,"lng":-71.06689759999999,"name":"Malden","org":"Philadelphie SDA Church Pantry & Soup Kitchen","address":"575 Main Street, Malden, MA 02148","city":"Malden","state":"MA","zip":"02148","phone":"(781) 397-9143","website":"https://www.phili.org/","email":"","description":"Food pantry and soup kitchen services"},{"id":"5e64c812-e234-4789-90e2-4233c4528df4","lat":42.42021090000001,"lng":-71.0782018,"name":"Malden","org":"GRACE CHURCH OF GOD","address":"12 Thacher Street, Malden, MA 02148","city":"Malden","state":"MA","zip":"02148","phone":"(781) 324-3338","website":"https://www.gracechurchofgodmalden.com/","email":"","description":"GRACE CHURCH OF GOD"},{"id":"7aa0e944-626b-4a86-aa78-29aff02be260","lat":42.2711643,"lng":-71.0768878,"name":"Mattapan","org":"Greater Boston Nazarene Compassion. Ctr.","address":"130 River Street, Mattapan, MA 02126","city":"Mattapan","state":"MA","zip":"02126","phone":"","website":"www.gbncc.org/","email":"","description":"Food service organization: Greater Boston Nazarene Compassion. Ctr."},{"id":"7f65b1d7-b4ac-4a90-a495-3cb33001aa9c","lat":42.27088579999999,"lng":-71.0923505,"name":"Mattapan","org":"NHM/Mattapan Mobile Market","address":"120 Babson Street, Mattapan, MA 02126","city":"Mattapan","state":"MA","zip":"02126","phone":"(617) 916-1883","website":"http://www.ministryoftruthinternational.org/","email":"","description":"Mobile food market serving the Mattapan community"},{"id":"279c63b6-41d5-4503-8334-c86a754bff4b","lat":42.2773732,"lng":-71.09225940000002,"name":"Mattapan","org":"Gladtidings House of Prayer for All Nations","address":"573 Norfolk Street, Mattapan, MA 02126","city":"Mattapan","state":"MA","zip":"02126","phone":"(617) 296-6784","website":"https://www.gtidings.org/","email":"","description":"Food pantry services"},{"id":"236b815d-dc31-4621-91dd-6d94d205d498","lat":42.420625,"lng":-71.115055,"name":"Medford","org":"Unitarian Universalist Church Pantry","address":"147 High Street, Medford, MA 02155","city":"Medford","state":"MA","zip":"02155","phone":"(781) 396-4549","website":"https://uumedford.org/connection/food-pantry/","email":"","description":"Food pantry service provided by Unitarian Universalist Church"},{"id":"87ce0e65-5ff2-49a1-82c9-8c183a2c8988","lat":42.41884750000001,"lng":-71.1052232,"name":"Medford","org":"Hearts of Life","address":"98 George P Hassett Drive, Medford, MA 02155","city":"Medford","state":"MA","zip":"02155","phone":"(617) 625-1020","website":"https://www.heartsoflife.org","email":"","description":"Food service organization: Hearts of Life"},{"id":"6e86bc96-c4a4-48bb-984a-334bb75daf16","lat":42.4566828,"lng":-71.0638996,"name":"Melrose","org":"First Baptist Church/Pantry of Hope","address":"561 Main Street, Melrose, MA 02176","city":"Melrose","state":"MA","zip":"02176","phone":"(781) 665-4470","website":"www.firstbaptistmelrose.org/ministries/pantry-of-hope","email":"","description":"Food service organization: First Baptist Church/Pantry of Hope"},{"id":"2299fb34-8bb5-418e-9345-3c30414d521f","lat":42.68463879999999,"lng":-71.23159679999999,"name":"Methuen","org":"Christian Church Voice of Salvation","address":"15 Lowell Boulevard, Methuen, MA 01844","city":"Methuen","state":"MA","zip":"01844","phone":"(978) 397-5768","website":"https://mvfb.org/resources/","email":"","description":"Christian Church Voice of Salvation"},{"id":"250d5235-8f73-42ea-b8d9-a5e609892f7c","lat":42.1057327,"lng":-72.5853072,"name":"Metro Center","org":"Self-Service DTA Kiosk at Catholic Charities Agency (limited services available)","address":"65 Elliot Street, Metro Center, MA 01105","city":"Metro Center","state":"MA","zip":"01105","phone":"(877) 382-2363","website":"https://www.mass.gov/locations/self-service-dta-kiosk-at-catholic-charities-agency-limited-services-available","email":"","description":"**Parking**\n* There is parking available onsite.\n\n**Services**\n* There is an official Department of Transitional Assistance Kiosk at this location with access to the DTA Connect mobile application and website. [Learn what you can do through DTA Connect.](https://www.mass.gov/guides/how-to-contact-dta)\n\n***PLEASE NOTE:***\nThese locations are not staffed by DTA employees."},{"id":"b248e6fd-e556-41b6-b831-740e5cd20b30","lat":42.3293393,"lng":-71.1104036,"name":"Mission Hill","org":"Ethos Back of the Hill Café","address":"100 South Huntington Avenue, Mission Hill, MA 02130","city":"Mission Hill","state":"MA","zip":"02130","phone":"(617) 477-6688","website":"https://www.ethocare.org/services/nutrition/community-cafes/","email":"","description":"For more information or to register to attend a Community Cafe near you, please call 617-477-6688 or email ethosmeals@ethocare.org"},{"id":"bd745de1-bea7-411f-94ee-2ba2af848283","lat":41.2742787,"lng":-70.1013238,"name":"Nantucket","org":"Self-Service DTA Kiosk at Health Imperatives (limited services available)","address":"20 Vesper Lane, Nantucket, MA 02554","city":"Nantucket","state":"MA","zip":"02554","phone":"","website":"https://www.mass.gov/locations/self-service-dta-kiosk-at-health-imperatives-limited-services-available","email":"","description":"**Parking**\n* There is parking available.\n\n**Services**\n* There is an official Department of Transitional Assistance Kiosk at this location with access to the DTA Connect mobile application and website. [Learn what you can do through DTA Connect.](https://www.mass.gov/guides/how-to-contact-dta)\n\n***PLEASE NOTE:***\nThese locations are not staffed by DTA employees."},{"id":"d2f741bd-e5e1-4b9b-a0a8-efbd5c038f46","lat":41.6528792,"lng":-70.9216285,"name":"New Bedford","org":"DTA New Bedford Transitional Assistance Office (Walk-in)","address":"16 Kilburn Street, New Bedford, MA 02740","city":"New Bedford","state":"MA","zip":"02740","phone":"(508) 961-2000","website":"https://www.mass.gov/locations/dta-new-bedford-transitional-assistance-office","email":"","description":"**OVERVIEW**\n* DTA's local office lobby is open for services, including new self-service options. Visit the services section on this page to learn about all the things you can do at a DTA office and ways to contact the Department.\n\n**TRANSPORTATION**\n* You can reach the vicinity of the DTA office via MBTA subway and bus routes.\n* It is strongly recommended that you check with the MBTA's website to make sure you receive their updated routes. They offer a [Trip Planner](https://www.mbta.com/trip-planner?plan=gsQEZnJvbYTECGxhdGl0dWRlxADECWxvbmdpdHVkZcQAxARuYW1lxADEB3N0b3BfaWTEAMQCdG-ExAhsYXRpdHVkZcQAxAlsb25naXR1ZGXEAMQEbmFtZcQAxAdzdG9wX2lkxAA=), which enables users to get personalized recommendations. \n\n**SERVICES**\n* DTA's local office lobby is open for services, including new self-service options. You can use our phones, copiers, or kiosks to apply for benefits or manage your case. DTA staff and interpreters are available to assist you.\n\n* If you need an EBT card, you can request one be sent to you via mail on the DTA Connect mobile app, DTAConnect.com or using the automated prompts on the DTA Assistance Line (877-382-2363). Most cards are delivered within 3-5 days. You can also visit one of our local offices to receive an EBT card if you need one more quickly. If you cannot visit an office, talk to our staff about other options.\n\n* You can apply for SNAP, TAFDC, and EAEDC online at DTAConnect.com or over the phone on the DTA Assistance Line at 877-382-2363 (press 7) (help in over 100 languages). Learn all you can do to manage your case 24/7 without visiting a DTA office (e.g., submit documents, request letter showing your DTA benefits, etc.) at Mass.gov/ContactDTA."},{"id":"679012ff-c228-43ca-963c-08db9d06a81b","lat":42.69930539999999,"lng":-73.11238589999999,"name":"North Adams","org":"Self-Service DTA Kiosk at Northern Berkshire Community Coalition (limited services available)","address":"61 Main Street, North Adams, MA 01247","city":"North Adams","state":"MA","zip":"01247","phone":"(877) 382-2363","website":"https://www.mass.gov/locations/self-service-dta-kiosk-at-northern-berkshire-community-coalition-limited-services-available","email":"","description":"**Parking**\n* There is parking available onsite.\n\n**Services**\n* There is an official Department of Transitional Assistance Kiosk at this location with access to the DTA Connect mobile application and website. [Learn what you can do through DTA Connect.](https://www.mass.gov/guides/how-to-contact-dta)\n\n\n***NOTE:*** These locations are not staffed by DTA employees."},{"id":"34a31b07-9c26-428b-9e0c-6861e05620d8","lat":42.6996346,"lng":-73.1131857,"name":"North Adams","org":"Self-Service DTA Kiosk at Berkshire Bank Building (Walk-in)","address":"37 Main Street, North Adams, MA 01247","city":"North Adams","state":"MA","zip":"01247","phone":"UNKNOWN","website":"https://www.mass.gov/locations/self-service-dta-kiosk-at-berkshire-bank-building","email":"","description":"**SERVICES**\n* There is an official Department of Transitional Assistance Kiosk at this location with access to the DTA Connect mobile application and website, scanners, copiers and phones. [Learn what you can do through DTA Connect.](https://www.mass.gov/guides/how-to-contact-dta)\n\n***PLEASE NOTE:***\nDTA staff will be available every Tuesday from 8:45am - 5:00pm.\n\n"},{"id":"69e76e5a-508d-4424-a71c-ea053324ab43","lat":42.393444,"lng":-71.13488,"name":"North Cambridge","org":"CEOC Food Pantry North Cambridge","address":"266 A Rindge Avenue, North Cambridge, MA 02140","city":"North Cambridge","state":"MA","zip":"02140","phone":"(617) 868-2900","website":"https://ceoccambridge.org/services/food-pantry/","email":"","description":"Food pantry services provided by CEOC in North Cambridge"},{"id":"a7696454-5922-4b23-adbc-5301f7d09816","lat":42.3653016,"lng":-71.0544931,"name":"North End","org":"Ethos Nazzaro Café (Nazzaro Community Center)","address":"30 North Bennet Street, North End, MA 02113","city":"North End","state":"MA","zip":"02113","phone":"(617) 477-6688","website":"https://www.ethocare.org/services/nutrition/community-cafes/","email":"","description":"For more information or to register to attend a Community Cafe near you, please call 617-477-6688 or email ethosmeals@ethocare.org"},{"id":"82e3df6b-f1d5-476c-9dbc-c0a12b2437dd","lat":42.31907,"lng":-72.63638,"name":"MANNA Soup Kitchen Main Location","org":"MANNA Soup Kitchen","address":"48 Elm Street, Northampton, MA 01060","city":"Northampton","state":"MA","zip":"01060","phone":"970-385-5095","website":"https://mannanorthampton.org/","email":"","description":"Community soup kitchen and food pantry providing meals and emergency food assistance to individuals and families in need in the Northampton area."},{"id":"bdd09b27-1f37-4e08-8159-898e0a1ca046","lat":42.318975,"lng":-72.634221,"name":"Northampton","org":"Tapestry Health Systems Harm Reduction Pantry","address":"16 Center St. Suite 415, Northampton, MA 01060","city":"Northampton","state":"MA","zip":"01060","phone":"(413) 316-4684","website":"","email":"","description":"Food pantry providing weekly food assistance through harm reduction services. Guests are limited to one pantry visit per week."},{"id":"5cdd881c-6ee6-464b-a137-c6f279f92856","lat":42.329132,"lng":-72.64258,"name":"Northampton","org":"Northampton Survival Center Pantry","address":"265 Prospect Street, Northampton, MA 01060","city":"Northampton","state":"MA","zip":"01060","phone":"(413) 586-6564","website":"https://www.northamptonsurvival.org/","email":"","description":"Food pantry providing emergency food assistance with online ordering, curbside pickup, and delivery options available. Call to register for services."},{"id":"3035858e-8a47-4c50-9aca-6f22805f440a","lat":42.313866,"lng":-72.6281,"name":"Northampton Brown Bag","org":"Northampton Brown Bag","address":"67 Conz Street, Northampton, MA 01060","city":"Northampton","state":"MA","zip":"01060","phone":"(413) 587-1228","website":"","email":"","description":"Food pantry providing pickup services every 2nd Thursday from 11:45 a.m. to 12:30 p.m."},{"id":"52fda1ba-9e9d-4da7-aa40-b299c7fd56ad","lat":42.158985,"lng":-72.32506,"name":"Palmer","org":"Palmer Food Share","address":"39 Walnut Street, Palmer, MA 01069","city":"Palmer","state":"MA","zip":"01069","phone":"(413) 283-3614","website":"https://www.facebook.com/PalmerFoodShare/","email":"","description":"Food pantry providing food assistance to community members in Palmer, Massachusetts"},{"id":"fd330ce0-5535-42c1-9a2e-1175cd52ebe6","lat":42.156822,"lng":-72.327324,"name":"Palmer","org":"Palmer Brown Bag","address":"1029 Central Street, Palmer, MA 01069","city":"Palmer","state":"MA","zip":"01069","phone":"(413) 283-2670","website":"","email":"","description":"Food pantry providing emergency food assistance with pickup services every 2nd Friday from 1:00 - 3:00 p.m."},{"id":"04ef7219-d585-4fb2-9008-1bfca26e99c7","lat":42.6544472,"lng":-71.3307566,"name":"Pawtucketville","org":"Dwelling House of Hope","address":"125 Mount Hope Street, Pawtucketville, MA 01854","city":"Pawtucketville","state":"MA","zip":"01854","phone":"(866) 674-9988","website":"https://mvfb.org/resources/","email":"","description":"Call for appointment"},{"id":"e5cb86a5-8a65-4b63-bbd0-1ca67c77faf1","lat":42.45098429999999,"lng":-73.25301809999999,"name":"Pittsfield","org":"DTA Pittsfield Transitional Assistance Office (Walk-in)","address":"160 North Street, Pittsfield, MA 01201","city":"Pittsfield","state":"MA","zip":"01201","phone":"(413) 236-2000","website":"https://www.mass.gov/locations/dta-pittsfield-transitional-assistance-office","email":"","description":"**OVERVIEW**\n* DTA's local office lobby is open for services, including new self-service options. Visit the services section on this page to learn about all the things you can do at a DTA office and ways to contact the Department.\n\n**TRANSPORTATION**\n* You can reach the vicinity of the DTA office via MBTA subway and bus routes.\n* It is strongly recommended that you check with the MBTA's website to make sure you receive their updated routes. They offer a [Trip Planner](https://www.mbta.com/trip-planner?plan=gsQEZnJvbYTECGxhdGl0dWRlxADECWxvbmdpdHVkZcQAxARuYW1lxADEB3N0b3BfaWTEAMQCdG-ExAhsYXRpdHVkZcQAxAlsb25naXR1ZGXEAMQEbmFtZcQAxAdzdG9wX2lkxAA=), which enables users to get personalized recommendations. \n\n**SERVICES**\n* DTA's local office lobby is open for services, including new self-service options. You can use our phones, copiers, or kiosks to apply for benefits or manage your case. DTA staff and interpreters are available to assist you.\n\n* If you need an EBT card, you can request one be sent to you via mail on the DTA Connect mobile app, DTAConnect.com or using the automated prompts on the DTA Assistance Line (877-382-2363). Most cards are delivered within 3-5 days. You can also visit one of our local offices to receive an EBT card if you need one more quickly. If you cannot visit an office, talk to our staff about other options.\n\n* You can apply for SNAP, TAFDC, and EAEDC online at DTAConnect.com or over the phone on the DTA Assistance Line at 877-382-2363 (press 7) (help in over 100 languages). Learn all you can do to manage your case 24/7 without visiting a DTA office (e.g., submit documents, request letter showing your DTA benefits, etc.) at Mass.gov/ContactDTA."},{"id":"d3ce93a8-2ebc-43a3-9f63-84f5f3799880","lat":41.9599771,"lng":-70.6997014,"name":"Plymouth","org":"Self-Service DTA Kiosk at Plymouth MRC Office (limited services available)","address":"38 Industrial Park Road, Plymouth, MA 02360","city":"Plymouth","state":"MA","zip":"02360","phone":"(877) 382-2363","website":"https://www.mass.gov/locations/self-service-dta-kiosk-at-plymouth-mrc-office-limited-services-available","email":"","description":"**Parking**\n* Large parking lot near building.\n\n**Services**\n* There is an official Department of Transitional Assistance Kiosk at this location with access to the DTA Connect mobile application and website. [Learn what you can do through DTA Connect.](https://www.mass.gov/guides/how-to-contact-dta)\n\n\n***NOTE:*** DTA staff will be available every weekday, Monday - Friday, from 8:45 a.m. - 5:00 p.m."},{"id":"5818610c-28f2-4fbd-821c-4276e0abbae3","lat":42.2476221,"lng":-71.00176669999999,"name":"Quincy","org":"DTA Quincy Transitional Assistance Office (Walk-in)","address":"1515 Hancock Street, Quincy, MA 02169","city":"Quincy","state":"MA","zip":"02169","phone":"(617) 249-8200","website":"https://www.mass.gov/locations/dta-quincy-transitional-assistance-office","email":"","description":"**OVERVIEW**\n* DTA's local office lobby is open for services, including new self-service options. Visit the services section on this page to learn about all the things you can do at a DTA office and ways to contact the Department.\n\n**TRANSPORTATION**\n* You can reach the vicinity of the DTA office via MBTA subway and bus routes.\n* It is strongly recommended that you check with the MBTA's website to make sure you receive their updated routes. They offer a [Trip Planner](https://www.mbta.com/trip-planner?plan=gsQEZnJvbYTECGxhdGl0dWRlxADECWxvbmdpdHVkZcQAxARuYW1lxADEB3N0b3BfaWTEAMQCdG-ExAhsYXRpdHVkZcQAxAlsb25naXR1ZGXEAMQEbmFtZcQAxAdzdG9wX2lkxAA=), which enables users to get personalized recommendations. \n\n**SERVICES**\n* DTA's local office lobby is open for services, including new self-service options. You can use our phones, copiers, or kiosks to apply for benefits or manage your case. DTA staff and interpreters are available to assist you.\n\n* If you need an EBT card, you can request one be sent to you via mail on the DTA Connect mobile app, DTAConnect.com or using the automated prompts on the DTA Assistance Line (877-382-2363). Most cards are delivered within 3-5 days. You can also visit one of our local offices to receive an EBT card if you need one more quickly. If you cannot visit an office, talk to our staff about other options.\n\n* You can apply for SNAP, TAFDC, and EAEDC online at DTAConnect.com or over the phone on the DTA Assistance Line at 877-382-2363 (press 7) (help in over 100 languages). Learn all you can do to manage your case 24/7 without visiting a DTA office (e.g., submit documents, request letter showing your DTA benefits, etc.) at Mass.gov/ContactDTA."},{"id":"1e718281-f637-413d-8eec-4e7dd761d785","lat":42.3656418,"lng":-71.11129009999999,"name":"Riverside","org":"Cambridge Community Center","address":"5 Callender Street, Riverside, MA 02139","city":"Riverside","state":"MA","zip":"02139","phone":"(617) 868-2900","website":"https://www.ceoccambridge.org/food-pantry","email":"","description":"Cambridge Community Center"},{"id":"ba65173b-71e5-42e5-9a40-37052594350c","lat":42.3140908,"lng":-71.09945780000001,"name":"Egleston YMCA Mobile pantry Location","org":"Egleston YMCA Mobile pantry","address":"3134 Washington Street, Roxbury, MA 02119","city":"Roxbury","state":"MA","zip":"02119","phone":"UNKNOWN","website":"https://ymcaboston.org/mobilemarket/","email":"","description":"Mobile food pantry service"},{"id":"04bff7b0-c282-4e60-b74c-5b6469237d44","lat":42.3189037,"lng":-71.09103739999999,"name":"Roxbury","org":"Ethos Walnut Café (Walnut House)","address":"237 Walnut Avenue, Roxbury, MA 02119","city":"Roxbury","state":"MA","zip":"02119","phone":"(617) 477-6688","website":"https://www.ethocare.org/services/nutrition/community-cafes/","email":"","description":"For more information or to register to attend a Community Cafe near you, please call 617-477-6688 or email ethosmeals@ethocare.org."},{"id":"efbd58a3-af63-47b6-8dc6-54b02f4c126c","lat":42.3339018,"lng":-71.079782,"name":"Roxbury","org":"Ethos Medeiros Center Café","address":"1960 Washington Street, Roxbury, MA 02118","city":"Roxbury","state":"MA","zip":"02118","phone":"(617) 477-6688","website":"https://www.ethocare.org/services/nutrition/community-cafes/","email":"","description":"For more information or to register to attend a Community Cafe near you, please call 617-477-6688 or email ethosmeals@ethocare.org"},{"id":"6e70446b-5025-4bc0-b22e-ccf465404a48","lat":42.3320061,"lng":-71.0832854,"name":"Roxbury","org":"Ethos Ruggles/Hearth Café","address":"25 Ruggles Street, Roxbury, MA 02119","city":"Roxbury","state":"MA","zip":"02119","phone":"(617) 477-6688","website":"https://www.ethocare.org/services/nutrition/community-cafes/","email":"","description":"For more information or to register to attend a Community Cafe near you, please call 617-477-6688 or email ethosmeals@ethocare.org."},{"id":"33f720b5-e3e1-4245-9581-91bba2405fa6","lat":42.3283843,"lng":-71.06761200000001,"name":"Roxbury","org":"Ethos La Alianza Hispana Inc","address":"1000 Massachusetts Avenue, Roxbury, MA 02118","city":"Roxbury","state":"MA","zip":"02118","phone":"(617) 477-6688","website":"https://www.ethocare.org/services/nutrition/community-cafes/","email":"","description":"For more information or to register to attend a Community Cafe near you, please call 617-477-6688 or email ethosmeals@ethocare.org."},{"id":"569d41c4-e4ba-4609-82e1-b11443d6eb3c","lat":42.3309816,"lng":-71.083045,"name":"Roxbury","org":"DTA Nubian Square Transitional Assistance Office (Walk-in)","address":"2201 Washington Street, Roxbury, MA 02119","city":"Roxbury","state":"MA","zip":"02119","phone":"(617) 989-6000","website":"https://www.mass.gov/locations/dta-nubian-square-transitional-assistance-office","email":"","description":"**OVERVIEW**\n* DTA's local office lobby is open for services, including new self-service options. Visit the services section on this page to learn about all the things you can do at a DTA office and ways to contact the Department.\n\n**NOTE:** The entrance to this office is located in the rear of the building.\n\n**TRANSPORTATION**\n* You can reach the vicinity of the DTA office via MBTA subway and bus routes.\n* It is strongly recommended that you check with the MBTA's website to make sure you receive their updated routes. They offer a [Trip Planner](https://www.mbta.com/trip-planner?plan=gsQEZnJvbYTECGxhdGl0dWRlxADECWxvbmdpdHVkZcQAxARuYW1lxADEB3N0b3BfaWTEAMQCdG-ExAhsYXRpdHVkZcQAxAlsb25naXR1ZGXEAMQEbmFtZcQAxAdzdG9wX2lkxAA=), which enables users to get personalized recommendations. \n\n**SERVICES**\n* DTA's local office lobby is open for services, including new self-service options. You can use our phones, copiers, or kiosks to apply for benefits or manage your case. DTA staff and interpreters are available to assist you.\n\n* If you need an EBT card, you can request one be sent to you via mail on the DTA Connect mobile app, DTAConnect.com or using the automated prompts on the DTA Assistance Line (877-382-2363). Most cards are delivered within 3-5 days. You can also visit one of our local offices to receive an EBT card if you need one more quickly. If you cannot visit an office, talk to our staff about other options.\n\n* You can apply for SNAP, TAFDC, and EAEDC online at DTAConnect.com or over the phone on the DTA Assistance Line at 877-382-2363 (press 7) (help in over 100 languages). Learn all you can do to manage your case 24/7 without visiting a DTA office (e.g., submit documents, request letter showing your DTA benefits, etc.) at Mass.gov/ContactDTA."},{"id":"53c6a603-a76e-40b5-b7e3-f6ae7c672b8f","lat":42.3372111,"lng":-71.0815566,"name":"Roxbury","org":"Camp field Estate","address":"85 Lenox Street, Roxbury, MA 02118","city":"Roxbury","state":"MA","zip":"02118","phone":"(617) 852-5967","website":"https://brmuhc.org/community-food-center/bed-stuy-farm/","email":"","description":"Community food center providing food distribution services"},{"id":"296c850f-555a-4c42-bb0c-b8240c24f10d","lat":42.3137651,"lng":-71.09506549999999,"name":"Roxbury","org":"USCC/St. Mary of the Angels Food Pantry","address":"377 Walnut Avenue, Roxbury, MA 02119","city":"Roxbury","state":"MA","zip":"02119","phone":"(617) 833-1898","website":"http://www.rc.net/boston/stmaryoftheangels/neighborhood.html","email":"","description":"Food pantry services"},{"id":"6a5be644-827d-4bc1-85ca-4ca39117b158","lat":42.3153027,"lng":-71.08371439999999,"name":"Roxbury","org":"Emmanuel Temple Church Food Pantry","address":"471 Warren Street, Roxbury, MA 02121","city":"Roxbury","state":"MA","zip":"02121","phone":"(617) 442-8500","website":"https://etpchurch.org/","email":"","description":"Food pantry service provided by Emmanuel Temple Church"},{"id":"ce40429f-724e-4e1d-b321-7fb36840e310","lat":42.3328735,"lng":-71.0920291,"name":"Roxbury","org":"Whittier Street Health Center","address":"1290 Tremont Street, Roxbury, MA 02120","city":"Roxbury","state":"MA","zip":"02120","phone":"(617) 427-1000","website":"http://www.wshc.org/","email":"","description":"Healthcare services provided by Whittier Street Health Center"},{"id":"0de3d131-925d-4398-befd-28642ca7c14e","lat":42.3301149,"lng":-71.0837237,"name":"Roxbury","org":"Bruce Bolling Building","address":"2300 Washington Street, Roxbury, MA 02119","city":"Roxbury","state":"MA","zip":"02119","phone":"","website":"https://foodrescue.us/event/boston-friday-after/?utm_source=Vital+CXNs&utm_campaign=45c33e8845-EMAIL_CAMPAIGN_2022_12_08_01_17_COPY_01&utm_medium=email&utm_term=0_-c5df5e1ce2-562945151","email":"","description":"Food rescue organization providing community food distribution services"},{"id":"0e04095d-9e96-409a-a9e1-ba7c32813b39","lat":42.31454189999999,"lng":-71.08870689999999,"name":"Roxbury","org":"Pleasant Hill Missionary Baptist Church","address":"155 Humboldt Avenue, Roxbury, MA 02121","city":"Roxbury","state":"MA","zip":"02121","phone":"(617) 427-0905","website":"","email":"","description":"Pleasant Hill Missionary Baptist Church"},{"id":"d49e4863-9527-4d66-9175-d9d5b87c99c7","lat":42.3178621,"lng":-71.0829253,"name":"Roxbury","org":"YMCA Boston Mobile Market Roxbury","address":"285 Martin Luther King Jr Boulevard, Roxbury, MA 02119","city":"Roxbury","state":"MA","zip":"02119","phone":"","website":"https://ymcaboston.org/mobilemarket/","email":"","description":"Mobile Market Guidelines\n\nBRING YOUR OWN REUSABLE BAG!\nWe have limited bags available (and they hold more groceries!)\nONLY TWO SHOPPERS AT A TIME!\nPlease wait until you receive a shopping basket to begin shopping.\nLOOK AT THE LABELS!\nThe maximum number you can take of each item is written next to the label.\nExample: APPLES (5) = take up to 5 apples\nBAG YOUR OWN GROCERIES!\nOnce you are done shopping, please go to the table with your basket. We ask that you bag your own groceries and leave the basket on the table when you are done.\nONLY SHOP FOR ONE HOUSEHOLD AT A TIME!\nIf you are shopping for more than one household (i.e. a friend, family, neighbors, etc.), you will need to get back in line and make a new basket for each household."},{"id":"5265e2ab-15ce-4259-824d-bff1dd19533e","lat":42.189735,"lng":-72.85638,"name":"Russell","org":"Russell Brown Bag","address":"65 Main Street, Russell, MA 01071","city":"Russell","state":"MA","zip":"01071","phone":"(413) 862-6217","website":"","email":"","description":"Food pantry providing emergency food assistance to local residents"},{"id":"9278c9fb-5370-44e2-bd35-3bdf6bbb3912","lat":42.5182347,"lng":-70.8875706,"name":"Salem","org":"DTA North Shore Transitional Assistance Office (Walk-in)","address":"45 Congress Street, Salem, MA 01970","city":"Salem","state":"MA","zip":"01970","phone":"(978) 825-7300","website":"https://www.mass.gov/locations/dta-north-shore-transitional-assistance-office","email":"","description":"**OVERVIEW**\n* DTA's local office lobby is open for services, including new self-service options. Visit the services section on this page to learn about all the things you can do at a DTA office and ways to contact the Department.\n\n**TRANSPORTATION**\n* You can reach the vicinity of the DTA office via MBTA subway and bus routes.\n* It is strongly recommended that you check with the MBTA's website to make sure you receive their updated routes. They offer a [Trip Planner](https://www.mbta.com/trip-planner?plan=gsQEZnJvbYTECGxhdGl0dWRlxADECWxvbmdpdHVkZcQAxARuYW1lxADEB3N0b3BfaWTEAMQCdG-ExAhsYXRpdHVkZcQAxAlsb25naXR1ZGXEAMQEbmFtZcQAxAdzdG9wX2lkxAA=), which enables users to get personalized recommendations. \n\n**SERVICES**\n* DTA's local office lobby is open for services, including new self-service options. You can use our phones, copiers, or kiosks to apply for benefits or manage your case. DTA staff and interpreters are available to assist you.\n\n* If you need an EBT card, you can request one be sent to you via mail on the DTA Connect mobile app, DTAConnect.com or using the automated prompts on the DTA Assistance Line (877-382-2363). Most cards are delivered within 3-5 days. You can also visit one of our local offices to receive an EBT card if you need one more quickly. If you cannot visit an office, talk to our staff about other options.\n\n* You can apply for SNAP, TAFDC, and EAEDC online at DTAConnect.com or over the phone on the DTA Assistance Line at 877-382-2363 (press 7) (help in over 100 languages). Learn all you can do to manage your case 24/7 without visiting a DTA office (e.g., submit documents, request letter showing your DTA benefits, etc.) at Mass.gov/ContactDTA."},{"id":"22d967aa-726e-46e2-b81a-2e8b8187ca4b","lat":42.33257649999999,"lng":-71.069191,"name":"South Boston","org":"Self-Service DTA Kiosk at Boston Public Health Commission/Homeless Services Bureau/Southampton Street Shelter (limited services available)","address":"112 Southampton Street, South Boston, MA 02118","city":"South Boston","state":"MA","zip":"02118","phone":"(877) 382-2363","website":"https://www.mass.gov/locations/self-service-dta-kiosk-at-boston-public-health-commissionhomeless-services-bureausouthampton-street-shelter-limited-services-available","email":"","description":"**Hours**\n* Hours of Operation: Daily 9am to 6pm\n\n**Parking**\n* There is no parking.\n\n**Services**\n* There is an official Department of Transitional Assistance Kiosk at this location with access to the DTA Connect mobile application and website. [Learn what you can do through DTA Connect.](https://www.mass.gov/guides/how-to-contact-dta)\n\n***PLEASE NOTE:***\nThese locations are not staffed by DTA employees."},{"id":"7151c32a-dedd-4d94-8910-1efdcab85698","lat":42.3417125,"lng":-71.0728512,"name":"South End","org":"Ethos Torre Unidad/Unity Tower Café","address":"80 West Dedham Street, South End, MA 02118","city":"South End","state":"MA","zip":"02118","phone":"(617) 477-6688","website":"https://www.ethocare.org/services/nutrition/community-cafes/","email":"","description":"For more information or to register to attend a Community Cafe near you, please call 617-477-6688 or email ethosmeals@ethocare.org."},{"id":"eec89459-2965-414d-b4d5-a4e578ce0249","lat":42.34200329999999,"lng":-71.0819522,"name":"South End","org":"Ethos TDC/Wellington Café","address":"23 Wellington Street, South End, MA 02118","city":"South End","state":"MA","zip":"02118","phone":"(617) 477-6688","website":"https://www.ethocare.org/services/nutrition/community-cafes/","email":"","description":"For more information or to register to attend a Community Cafe near you, please call 617-477-6688 or email ethosmeals@ethocare.org"},{"id":"01993324-5d34-47ec-a38e-42d5684332e1","lat":42.34315900000001,"lng":-71.0644712,"name":"South End","org":"Pine Street Inn/Meals","address":"444 Harrison Avenue, South End, MA 02118","city":"South End","state":"MA","zip":"02118","phone":"(617) 482-4944","website":"http://www.pinestreetinn.org/","email":"","description":"Food service organization providing meals"},{"id":"1559aedc-6266-4150-a40c-9bb755f60776","lat":42.216946,"lng":-72.59784,"name":"Neighbors Helping Neighbors Main Location","org":"Neighbors Helping Neighbors","address":"30 Carew Street, South Hadley, MA 01075","city":"South Hadley","state":"MA","zip":"01075","phone":"(413) 437-7593","website":"https://nhnfoodpantry.org/","email":"","description":"Food assistance organization that operates a food pantry and mobile food bank to serve the community"},{"id":"f7b037e1-be60-4174-a7ea-0946a4984b35","lat":42.24406,"lng":-72.57349,"name":"South Hadley","org":"South Hadley Brown Bag","address":"45 Dayton Street, South Hadley, MA 01075","city":"South Hadley","state":"MA","zip":"01075","phone":"(413) 538-5030","website":"","email":"","description":"Food pantry providing food assistance to the South Hadley community through monthly pickup distributions"},{"id":"a1dcbd07-4f07-4415-b3c8-61b3afc1d8c7","lat":42.3673077,"lng":-71.24216299999999,"name":"South Side","org":"Healthy Waltham Mobile Pantry","address":"5 Cherry Street, South Side, MA 02453","city":"South Side","state":"MA","zip":"02453","phone":"(781) 314-5647","website":"https://healthywaltham.org/food-pantries/","email":"","description":"TO RECEIVE FOOD:\nPlease sign up for an appointment through the Your Market website link here: https://www.your-market.org/\nChoose Healthy Waltham from the list of pantries. Registration is available in multiple languages. Please register if you have not already done so and choose your appointment time. Appointment sign-ups will be released approximately 2 weeks prior to the pantry date. Walk-ins are welcome from 4:30 pm – 5:00 pm."},{"id":"509bff56-7ba4-457a-8a85-68b6a1d4a07a","lat":42.229061,"lng":-72.730004,"name":"Southampton Congregational Church Community Cupboard","org":"Southampton Congregational Church Community Cupboard","address":"212 College Highway, Southampton, MA 01073","city":"Southampton","state":"MA","zip":"01073","phone":"(413) 527-1173","website":"https://www.shcong.org/widercommunity","email":"","description":"Community food pantry operated by Southampton Congregational Church providing food assistance to local residents"},{"id":"69819b5b-9a22-40cb-892f-3547dc9f604c","lat":42.071328,"lng":-72.0205064,"name":"Southbridge","org":"DTA Southbridge Transitional Assistance Office (Walk-in)","address":"80 Optical Drive, Southbridge, MA 01550","city":"Southbridge","state":"MA","zip":"01550","phone":"(508) 765-2400","website":"https://www.mass.gov/locations/dta-southbridge-transitional-assistance-office","email":"","description":"**OVERVIEW**\n* DTA's local office lobby is open for services, including new self-service options. Visit the services section on this page to learn about all the things you can do at a DTA office and ways to contact the Department.\n\n**TRANSPORTATION**\n* You can reach the vicinity of the DTA office via MBTA subway and bus routes.\n* It is strongly recommended that you check with the MBTA's website to make sure you receive their updated routes. They offer a [Trip Planner](https://www.mbta.com/trip-planner?plan=gsQEZnJvbYTECGxhdGl0dWRlxADECWxvbmdpdHVkZcQAxARuYW1lxADEB3N0b3BfaWTEAMQCdG-ExAhsYXRpdHVkZcQAxAlsb25naXR1ZGXEAMQEbmFtZcQAxAdzdG9wX2lkxAA=), which enables users to get personalized recommendations. \n\n**SERVICES**\n* DTA's local office lobby is open for services, including new self-service options. You can use our phones, copiers, or kiosks to apply for benefits or manage your case. DTA staff and interpreters are available to assist you.\n\n* If you need an EBT card, you can request one be sent to you via mail on the DTA Connect mobile app, DTAConnect.com or using the automated prompts on the DTA Assistance Line (877-382-2363). Most cards are delivered within 3-5 days. You can also visit one of our local offices to receive an EBT card if you need one more quickly. If you cannot visit an office, talk to our staff about other options.\n\n* You can apply for SNAP, TAFDC, and EAEDC online at DTAConnect.com or over the phone on the DTA Assistance Line at 877-382-2363 (press 7) (help in over 100 languages). Learn all you can do to manage your case 24/7 without visiting a DTA office (e.g., submit documents, request letter showing your DTA benefits, etc.) at Mass.gov/ContactDTA."},{"id":"1ef9e6a5-98ef-4ef8-bbbf-a2ad68b051bc","lat":42.2686537,"lng":-71.095663,"name":"Southern Mattapan","org":"Mattapan Farmer's Market","address":"888 Cummins Highway, Southern Mattapan, MA 02126","city":"Southern Mattapan","state":"MA","zip":"02126","phone":"","website":"https://www.vitalcxns.org/nfac","email":"","description":"Starts: August 23 Ends: September 27"},{"id":"009a0412-a624-44f7-ac90-0136b9cb5ee2","lat":42.027615,"lng":-72.78536,"name":"Southwick","org":"Our Community Food Pantry","address":"222 College Highway, Southwick, MA 01077","city":"Southwick","state":"MA","zip":"01077","phone":"(413) 569-9876","website":"https://www.ourcommunityfoodpantry.org/","email":"","description":"Community food pantry providing food assistance to individuals and families in need in the Southwick area."},{"id":"b77e6405-f829-4f4e-a9a0-0e34d296c6bc","lat":42.117564,"lng":-72.56038,"name":"All Nation Church of God Food Pantry","org":"All Nation Church of God Food Pantry","address":"70 Leete St, Springfield, MA 01108","city":"Springfield","state":"MA","zip":"01108","phone":"(413) 736-9775","website":"","email":"","description":"Food pantry operated by All Nation Church of God providing food assistance to the community"},{"id":"88e0d5ef-f10a-4d40-bc44-69074a6918f6","lat":42.117198,"lng":-72.617045,"name":"Baystate Medical Center Brightwood Pantry","org":"Baystate Medical Center Brightwood Pantry","address":"380 Plainfield St., Springfield, MA 01107","city":"Springfield","state":"MA","zip":"01107","phone":"(413) 794-4458","website":"","email":"","description":"Food pantry providing emergency food assistance through regular distributions and by appointment"},{"id":"15adb452-5e32-436f-990a-227ad12de3bb","lat":42.113983,"lng":-72.58478,"name":"Behavioral Health Network The Living Room","org":"Behavioral Health Network The Living Room","address":"21 Warwick St Entrance L, Springfield, MA 01104","city":"Springfield","state":"MA","zip":"01104","phone":"(413) 310-3312","website":"","email":"","description":"A meal site facility where guests can prepare their own meals on-site, operated by Behavioral Health Network with crisis supervision available after hours."},{"id":"13399159-3cd1-482f-bee0-10c3317c1e08","lat":42.091472,"lng":-72.577832,"name":"Casa De Oracion Emmanuel Food Pantry Location","org":"Casa De Oracion Emmanuel Food Pantry","address":"111 D Mill St., Springfield, MA 01104","city":"Springfield","state":"MA","zip":"01104","phone":"(413) 486-0550","website":"https://iglesiacoe.com/coe-food-pantry","email":"","description":"Food pantry operated by Casa De Oracion Emmanuel, providing food assistance to community members in Springfield, MA."},{"id":"07c575e2-bf7e-4a05-a2f7-1e1c19b00fa4","lat":42.10810788725272,"lng":-72.57345818317503,"name":"Dunbar Center","org":"Martin Luther King, Jr. Family Services Mobile Food Bank","address":"33 Oak Street, Springfield, MA 01109","city":"Springfield","state":"MA","zip":"01109","phone":"(413) 419-0079","website":"","email":"","description":"Mobile food bank providing food assistance to the community with distributions occurring the 2nd & 4th Thursday of each month. No eligibility requirements."},{"id":"277e9f48-e4d4-4948-b2f0-99e4f774f541","lat":42.108273,"lng":-72.57398,"name":"Dunbar Center","org":"Dunbar Center Mobile Food Bank","address":"33 Oak Street, Springfield, MA 01109","city":"Springfield","state":"MA","zip":"01109","phone":"(413) 419-0079","website":"","email":"","description":"Mobile food bank providing free food assistance to community members with no eligibility requirements."},{"id":"b203a06a-fca6-4023-937f-f46f97ca8bca","lat":42.114229,"lng":-72.554388,"name":"Ebenezer Missionary Baptist Church Food Pantry Location","org":"Ebenezer Missionary Baptist Church Food Pantry","address":"44 Dearborn St., Springfield, MA 01109","city":"Springfield","state":"MA","zip":"01109","phone":"(413) 781-3177","website":"","email":"","description":"A food pantry operated by Ebenezer Missionary Baptist Church, providing food assistance to community members on the 1st and 3rd Thursday of each month."},{"id":"48f1c79c-3929-4e7d-bc31-da70c340d86b","lat":42.088483,"lng":-72.580976,"name":"First Pioneer Valley Dream Center Food Pantry","org":"First Pioneer Valley Dream Center Food Pantry","address":"133 Main St., Springfield, MA 01105","city":"Springfield","state":"MA","zip":"01105","phone":"(413) 636-6316","website":"https://firstpvdreamcenter.org/weekly-food-pantry","email":"","description":"A food pantry providing emergency food assistance to individuals and families in need"},{"id":"7d1328c1-98ea-4589-b647-78702295c7ce","lat":42.10774,"lng":-72.57124,"name":"Freedom House of God Community Lifeline Pantry","org":"Freedom House of God Community Lifeline Pantry","address":"563 Union Street, Springfield, MA 01109","city":"Springfield","state":"MA","zip":"01109","phone":"(413) 351-0664","website":"","email":"","description":"Community food pantry providing food assistance services"},{"id":"f74f55db-c959-4954-a528-be9b4da9045d","lat":42.13876,"lng":-72.523519,"name":"Gethsemane Church of Jesus Christ Food Pantry Location","org":"Gethsemane Church of Jesus Christ Food Pantry","address":"47 Harvey Street, Springfield, MA 01119","city":"Springfield","state":"MA","zip":"01119","phone":"(413) 783-8255","website":"https://gethsemanecjc.com/community/","email":"","description":"Food pantry operated by Gethsemane Church of Jesus Christ that distributes pre-packed bags on the 3rd Saturday of every month from 10:00 a.m. – 12:00 p.m."},{"id":"fbca3b87-062b-4242-aaf3-30ef6899f24a","lat":42.114909,"lng":-72.607078,"name":"Gray House Emergency Services Pantry","org":"Gray House Emergency Services Pantry","address":"22 Sheldon Street, Springfield, MA 01107","city":"Springfield","state":"MA","zip":"01107","phone":"(413) 734-6696","website":"https://grayhouse.org/food-pantry/","email":"","description":"Food pantry providing emergency food assistance through curbside pickup distribution. Serves general population on Thursdays and select Fridays, with dedicated hours for veterans and seniors."},{"id":"36954b7d-7e90-446f-ae37-98324e1ae75a","lat":42.114945,"lng":-72.586475,"name":"Home City Housing Mobile Food Bank","org":"Home City Housing Mobile Food Bank","address":"7 Halsey Street, Springfield, MA 01104","city":"Springfield","state":"MA","zip":"01104","phone":"(413) 419-0079","website":"","email":"","description":"Mobile food bank providing emergency food assistance to community members through regular distribution events."},{"id":"5878cc8c-544a-4b74-b9b5-70402c5bb478","lat":42.110467,"lng":-72.596251,"name":"Independent Housing Seniority House Food Pantry","org":"Independent Housing Seniority House Food Pantry","address":"307 Chestnut St., Springfield, MA 01104","city":"Springfield","state":"MA","zip":"01104","phone":"(413) 317-7691","website":"","email":"","description":"Food pantry providing food assistance to community members, operating twice monthly"},{"id":"ef426a81-5295-4728-9160-e7f30bef01e0","lat":42.109751,"lng":-72.489709,"name":"Macedonia Church of God in Christ Food Pantry","org":"Macedonia Church of God in Christ Food Pantry","address":"215 Tinkham Rd., Springfield, MA 01129","city":"Springfield","state":"MA","zip":"01129","phone":"(413) 596-3587","website":"","email":"","description":"A food pantry operated by Macedonia Church of God in Christ providing food assistance to the community"},{"id":"4ac2b062-b3d5-4caf-a563-2f973e061671","lat":42.112305,"lng":-72.614256,"name":"Main Location","org":"South Middlesex Opportunity Council Open Pantry Emergency Food Pantry","address":"2460 Main St., Springfield, MA 01107","city":"Springfield","state":"MA","zip":"01107","phone":"(413) 737-5353","website":"https://smoc.org/service/open-pantry-community-services/","email":"","description":"Emergency food pantry providing food assistance to community members in need"},{"id":"d2306c5a-d50f-41a3-b36e-9ba17aa07266","lat":42.112299,"lng":-72.560698,"name":"Martin Luther King Jr. Family Services Food Pantry","org":"Martin Luther King Jr. Family Services Food Pantry","address":"3 Rutland Street, Springfield, MA 01109","city":"Springfield","state":"MA","zip":"01109","phone":"(413) 746-3655","website":"https://www.mlkjrfamilyservices.org/families/","email":"","description":"Community food pantry providing food assistance to families in need. Operates on a seasonal schedule with distributions on alternating Saturdays during summer months and weekly Thursday distributions during the regular season."},{"id":"92b762e0-cd9b-4f56-ba5a-418085396b0c","lat":42.111797,"lng":-72.57592,"name":"Mission Church of The Living God Reaping the Harvest","org":"Mission Church of The Living God Reaping the Harvest","address":"20 Bowdoin Terrace, Springfield, MA 01109","city":"Springfield","state":"MA","zip":"01109","phone":"(413) 858-8111","website":"","email":"","description":"A faith-based organization providing food pantry services to the Springfield community through the Food Bank of Western Massachusetts network."},{"id":"64c180fc-8f2f-459c-b098-084855e5fe1e","lat":42.118846,"lng":-72.606293,"name":"North End Mobile Food Bank Location","org":"North End Mobile Food Bank","address":"40 Waverly Street, Springfield, MA 01107","city":"Springfield","state":"MA","zip":"01107","phone":"(413) 419-0079","website":"","email":"","description":"Mobile food distribution service serving the North End area of Springfield, MA. Provides food assistance with no eligibility requirements."},{"id":"ef347861-98ce-4ee0-aa2e-30c925c92ae9","lat":42.117214,"lng":-72.614316,"name":"Pioneer Valley Workers Center People's Pantry/Dispensa del Pueblo","org":"Pioneer Valley Workers Center People's Pantry/Dispensa del Pueblo","address":"380 Plainfield St, Springfield, MA 01107","city":"Springfield","state":"MA","zip":"01107","phone":"(413) 570-3060","website":"https://pvworkerscenter.org/mutual-aid-copy/","email":"","description":"Community food pantry operated by Pioneer Valley Workers Center providing food assistance to local residents. Pantry is open on the 4th Sunday of each month from 5:00 – 6:30 p.m."},{"id":"bbe3a318-2bc2-46c8-8f0b-b9ea5f114c2f","lat":42.086682,"lng":-72.508615,"name":"S.M.A.R.T. Food Pantry Location","org":"Spring Meadow Association of Responsible Tenants (S.M.A.R.T.) Food Pantry","address":"30 Canon Circle, Springfield, MA 01118","city":"Springfield","state":"MA","zip":"01118","phone":"(413) 426-9718","website":"","email":"","description":"Community food pantry serving Springfield residents through the Spring Meadow Association of Responsible Tenants, providing food assistance to those in need."},{"id":"db56efc3-0b8e-4e5f-8bc1-313fd07fc6d6","lat":42.110522,"lng":-72.565086,"name":"Shiloh Seventh-day Adventist Church Food Pantry","org":"Shiloh Seventh-day Adventist Church Food Pantry","address":"797 State Street, Springfield, MA 01109","city":"Springfield","state":"MA","zip":"01109","phone":"(413) 746-3103","website":"https://shilohsdachurch.org/","email":"","description":"Food pantry operated by Shiloh Seventh-day Adventist Church providing food assistance to community members. Open on the 2nd and 4th weeks of each month with specific scheduled days and times."},{"id":"479c824b-7b00-458a-8e3e-16d1dd5815f6","lat":42.110538,"lng":-72.567652,"name":"Shiloh Seventh-day Adventist Church Soup Kitchen","org":"Shiloh Seventh-day Adventist Church Soup Kitchen","address":"797 State St., Springfield, MA 01109","city":"Springfield","state":"MA","zip":"01109","phone":"(413) 734-0103","website":"https://shilohsdachurch.org/","email":"","description":"A church-based soup kitchen that provides meal services to the community on the 2nd and 4th Sundays of each month."},{"id":"86ff5495-6412-4d34-af16-89a5975de37d","lat":42.10173,"lng":-72.56576,"name":"Spring of Hope Church Of God In Christ Food Pantry","org":"Spring of Hope Church Of God In Christ Food Pantry","address":"35 Alden Street, Springfield, MA 01109","city":"Springfield","state":"MA","zip":"01109","phone":"(413) 733-1032","website":"","email":"","description":"Emergency food pantry providing food assistance by appointment only. Operated by Spring of Hope Church Of God In Christ in Springfield, MA."},{"id":"1cd0e723-929e-4170-9a78-7ae5442c6e9c","lat":42.116226,"lng":-72.598366,"name":"Springfield","org":"Holy Redeemer Cathedral Food Pantry","address":"44 Prospect Street, Springfield, MA 01107","city":"Springfield","state":"MA","zip":"01107","phone":"(413) 218-2347","website":"","email":"","description":"Food pantry providing food assistance to community members in Springfield, Massachusetts"},{"id":"aa390796-2821-4dd3-9485-0a546964a717","lat":42.110683,"lng":-72.58467,"name":"Springfield","org":"Clinical & Support Options Friends of the Homeless","address":"755 Worthington Street, Springfield, MA 01105","city":"Springfield","state":"MA","zip":"01105","phone":"(413) 732-3069","website":"","email":"","description":"Food pantry providing food assistance services to those in need"},{"id":"85df9fd9-9c88-4753-ac30-f08b10de66d2","lat":42.10821,"lng":-72.5686,"name":"Springfield","org":"St. John's Congregational Church Friend's Place Meals","address":"643 Union Street, Springfield, MA 01109","city":"Springfield","state":"MA","zip":"01109","phone":"(413) 734-2283","website":"","email":"","description":"Meal site that serves meals to-go for community members in need"},{"id":"8c035a42-fc64-426d-9216-485dff3d2202","lat":42.104478,"lng":-72.580291,"name":"Springfield","org":"Christina's House Food Pantry","address":"367 Union St., Springfield, MA 01105","city":"Springfield","state":"MA","zip":"01105","phone":"(413) 317-7855","website":"","email":"","description":"Food pantry providing food distribution services to the community on a monthly basis."},{"id":"361eb130-4480-480d-8b14-e911dc63ad02","lat":42.102976,"lng":-72.570032,"name":"Springfield","org":"McKnight Community Development Born Free Foods","address":"235 Hancock St., Springfield, MA 01109","city":"Springfield","state":"MA","zip":"01109","phone":"(413) 237-2669","website":"","email":"","description":"Food pantry providing food assistance to the community. Visits are also available by appointment."},{"id":"f453b6c6-5a44-49b0-a13b-83da387841fa","lat":42.103406,"lng":-72.585641,"name":"Springfield","org":"South Middlesex Opportunity Council Open Pantry Loaves & Fishes Kitchen","address":"35 Chestnut St., Springfield, MA 01103","city":"Springfield","state":"MA","zip":"01103","phone":"(413) 731-5668","website":"https://smoc.org/service/open-pantry-community-services/","email":"","description":"Food pantry providing emergency food assistance to individuals and families in need"},{"id":"9653238c-9cc8-492b-aa65-70719d918fdf","lat":42.10258,"lng":-72.58626,"name":"Springfield","org":"South Middlesex Opportunity Council Open Pantry Loaves & Fishes Kitchen","address":"45 Maple St., Springfield, MA 01103","city":"Springfield","state":"MA","zip":"01103","phone":"(413) 731-5668","website":"https://smoc.org/service/open-pantry-community-services/","email":"","description":"Food pantry providing emergency food assistance to individuals and families in need"},{"id":"14ffd2ef-96de-474f-957d-780b2c2cc2d3","lat":42.100224,"lng":-72.58303,"name":"Springfield","org":"Springfield South End/Dakin Mobile Food Bank","address":"171 Union Street, Springfield, MA 01105","city":"Springfield","state":"MA","zip":"01105","phone":"(413) 419-0079","website":"","email":"","description":"Mobile food bank service providing food assistance to the Springfield South End community with no eligibility requirements"},{"id":"012fdda0-9446-4802-b4d6-413cee35c9dd","lat":42.092942,"lng":-72.506984,"name":"Springfield","org":"Allen Street Mobile Food Bank","address":"1602 Allen Street, Springfield, MA 01118","city":"Springfield","state":"MA","zip":"01118","phone":"(413) 419-0079","website":"","email":"","description":"Mobile food bank service providing food assistance to the community on the 2nd Wednesday of each month from 10:00 - 11:00 a.m. No eligibility requirements."},{"id":"7694b146-a65a-4b2d-adeb-197e158f968e","lat":42.112191,"lng":-72.59774,"name":"Springfield Baystate Place Brown Bag Location","org":"Springfield Baystate Place Brown Bag","address":"414 Chestnut Street, Springfield, MA 01104","city":"Springfield","state":"MA","zip":"01104","phone":"(413) 896-3679","website":"","email":"","description":"Food pantry providing brown bag food distribution services to the Springfield community"},{"id":"76064853-c554-42b5-8f06-524390f925b0","lat":42.116383,"lng":-72.614235,"name":"Springfield Brightwood Mobile Food Bank Location","org":"Springfield Brightwood Mobile Food Bank","address":"82 Division Street, Springfield, MA 01107","city":"Springfield","state":"MA","zip":"01107","phone":"(413) 419-0079","website":"","email":"","description":"Mobile food distribution service providing free groceries to community members on a regular schedule"},{"id":"914091cb-96dc-4590-8296-e88fb559a483","lat":42.111377,"lng":-72.613095,"name":"Springfield Edgewater Brown Bag","org":"Springfield Edgewater Brown Bag","address":"101 Lowell Street, Springfield, MA 01109","city":"Springfield","state":"MA","zip":"01109","phone":"(413) 654-7793","website":"","email":"","description":"Food pantry providing food assistance through monthly brown bag pickup distribution"},{"id":"907a7e25-2358-466e-908a-398c7b200460","lat":42.083999,"lng":-72.557427,"name":"Springfield Forest Park Brown Bag","org":"Springfield Forest Park Brown Bag","address":"25 Barney Lane, Springfield, MA 01108","city":"Springfield","state":"MA","zip":"01108","phone":"(413) 785-5019","website":"","email":"","description":"Food pantry providing food distribution services with pickup every 2nd Friday from 2:00-4:00 p.m."},{"id":"539362c1-3793-4bc5-b137-0d00dfc5552d","lat":42.126007,"lng":-72.550565,"name":"Springfield Jordan Senior Center Brown Bag","org":"Springfield Jordan Senior Center Brown Bag","address":"1476 Roosevelt Avenue, Springfield, MA 01109","city":"Springfield","state":"MA","zip":"01109","phone":"(413) 787-6785","website":"","email":"","description":"Senior center food pantry providing brown bag food distribution services to seniors in Springfield, MA"},{"id":"4d1f3b70-1ba7-420b-ba9a-66bf784d997b","lat":42.111515,"lng":-72.59247,"name":"Springfield Seniority House Brown Bag Location","org":"Springfield Seniority House Brown Bag","address":"307 Chestnut Street, Springfield, MA 01104","city":"Springfield","state":"MA","zip":"01104","phone":"(413)317-7691","website":"","email":"","description":"Food pantry providing brown bag food distribution services to seniors in Springfield, Massachusetts"},{"id":"d472dcde-311f-478a-b62c-3069ef5f5be3","lat":42.108227,"lng":-72.56779,"name":"St. John's Congregational Church Friend's Place Food Pantry","org":"St. John's Congregational Church Friend's Place Food Pantry","address":"643 Union Street, Springfield, MA 01109","city":"Springfield","state":"MA","zip":"01109","phone":"(413) 734-2283","website":"","email":"","description":"Food pantry operated by St. John's Congregational Church providing food assistance to community members. Guests are limited to one visit per week with special senior-only distribution on Mondays."},{"id":"1d8ea621-1698-48db-8ab7-c53ded247733","lat":42.086193,"lng":-72.571464,"name":"Straitway To Heaven Food for the Souls Pantry - Main Location","org":"Straitway To Heaven Food for the Souls Pantry","address":"4 Garfield Street, Springfield, MA 01118","city":"Springfield","state":"MA","zip":"01118","phone":"(413) 785-1626","website":"https://www.straitwaytoheaven.org/about-1","email":"","description":"Food pantry serving the Springfield, MA community, open on the 2nd and 4th Saturday of each month from 12:00-2:00 p.m."},{"id":"7b0c31ca-6747-4c8a-bed5-589295fad59b","lat":42.109271,"lng":-72.571604,"name":"Tabernaculo Christiano Misionero Food Pantry","org":"Tabernaculo Christiano Misionero Food Pantry","address":"32 Hancock St., Springfield, MA 01109","city":"Springfield","state":"MA","zip":"01109","phone":"(413) 342-0898","website":"","email":"","description":"A food pantry providing emergency food assistance to individuals and families in the Springfield, MA area"},{"id":"610b2e6b-0eb7-4c3a-8c45-f527e27b7bcc","lat":42.109417,"lng":-72.583855,"name":"The Salvation Army Springfield Corps Family Services Pantry","org":"The Salvation Army Springfield Corps Family Services Pantry","address":"170 Pearl Street, Springfield, MA 01105","city":"Springfield","state":"MA","zip":"01105","phone":"(413) 733-1518","website":"","email":"","description":"Food pantry providing food assistance to individuals and families in need. Guests are limited to 1 visit every 30-day period. Perishables are available daily."},{"id":"9c2a6c01-6120-46f1-9217-e7f95eb8f301","lat":42.10481,"lng":-72.572395,"name":"Third Baptist Church Mobile Food Bank Location","org":"Third Baptist Church Mobile Food Bank","address":"149 Walnut Street, Springfield, MA 01105","city":"Springfield","state":"MA","zip":"01105","phone":"(413) 419-0079","website":"","email":"","description":"Mobile food bank operated by Third Baptist Church, providing food assistance on the second Friday of each month with no eligibility requirements."},{"id":"a7b5c355-03e8-4feb-b5dd-710b52bf7579","lat":42.08521,"lng":-72.56287,"name":"Trinity United Methodist Church Mobile Food Bank Location","org":"Trinity United Methodist Church Mobile Food Bank","address":"361 Sumner Avenue, Springfield, MA 01108","city":"Springfield","state":"MA","zip":"01108","phone":"(413) 271-7508","website":"","email":"","description":"Mobile food bank operated by Trinity United Methodist Church providing food assistance to the community without eligibility requirements."},{"id":"ec115180-94d6-4a67-a846-ff3d78c5d28e","lat":42.103058,"lng":-72.592601,"name":"United Way of Pioneer Valley Springfield Cupboard","org":"United Way of Pioneer Valley Springfield Cupboard","address":"1441 Main Street, Suite 147, Springfield, MA 01103","city":"Springfield","state":"MA","zip":"01103","phone":"(413) 737-2691","website":"https://www.uwpv.org/food-security","email":"","description":"Food pantry operated by United Way of Pioneer Valley providing food assistance to the community"},{"id":"d63404a7-58cd-47f4-a452-f6334b694f0a","lat":42.108332,"lng":-72.594083,"name":"Western Mass Training Consortium Wildflower Alliance Bowen Center Pantry","org":"Western Mass Training Consortium Wildflower Alliance Bowen Center Pantry","address":"147 Magazine St., Springfield, MA 01103","city":"Springfield","state":"MA","zip":"01103","phone":"(413) 378-5652","website":"","email":"","description":"Food pantry serving the Springfield, MA community with emergency food assistance"},{"id":"9308ed8f-e5f9-4002-bc38-e3d3f359845e","lat":42.4752986,"lng":-71.0998106,"name":"Stoneham","org":"Adventist Community Services Food Pantry","address":"9 Gerry Street, Stoneham, MA 02180","city":"Stoneham","state":"MA","zip":"02180","phone":"(781) 438-1374","website":"","email":"","description":"Food pantry services provided by Adventist Community Services"},{"id":"d7e4c5f2-b33e-4cf9-a9e5-a85a3d5c42c5","lat":42.4809819,"lng":-71.09922139999999,"name":"Stoneham","org":"FIRST CONGREGATIONAL CHURCH","address":"1 Church Street, Stoneham, MA 02180","city":"Stoneham","state":"MA","zip":"02180","phone":"(781) 438-0097","website":"https://www.northofmain.org/","email":"","description":"First Congregational Church operating NoMa Community Center providing community meals and soup kitchen services in Binghamton, NY."},{"id":"652f8c4f-6c06-4206-af81-c78d4f5af99f","lat":41.8995616,"lng":-71.0888533,"name":"Taunton","org":"DTA Taunton Transitional Assistance Office (Walk-in)","address":"21 Spring Street, Taunton, MA 02780","city":"Taunton","state":"MA","zip":"02780","phone":"(508) 884-5300","website":"https://www.mass.gov/locations/dta-taunton-transitional-assistance-office","email":"","description":"**OVERVIEW**\n* DTA's local office lobby is open for services, including new self-service options. Visit the services section on this page to learn about all the things you can do at a DTA office and ways to contact the Department.\n\n**TRANSPORTATION**\n* You can reach the vicinity of the DTA office via MBTA subway and bus routes.\n* It is strongly recommended that you check with the MBTA's website to make sure you receive their updated routes. They offer a [Trip Planner](https://www.mbta.com/trip-planner?plan=gsQEZnJvbYTECGxhdGl0dWRlxADECWxvbmdpdHVkZcQAxARuYW1lxADEB3N0b3BfaWTEAMQCdG-ExAhsYXRpdHVkZcQAxAlsb25naXR1ZGXEAMQEbmFtZcQAxAdzdG9wX2lkxAA=), which enables users to get personalized recommendations. \n\n**SERVICES**\n* DTA's local office lobby is open for services, including new self-service options. You can use our phones, copiers, or kiosks to apply for benefits or manage your case. DTA staff and interpreters are available to assist you.\n\n* If you need an EBT card, you can request one be sent to you via mail on the DTA Connect mobile app, DTAConnect.com or using the automated prompts on the DTA Assistance Line (877-382-2363). Most cards are delivered within 3-5 days. You can also visit one of our local offices to receive an EBT card if you need one more quickly. If you cannot visit an office, talk to our staff about other options.\n\n* You can apply for SNAP, TAFDC, and EAEDC online at DTAConnect.com or over the phone on the DTA Assistance Line at 877-382-2363 (press 7) (help in over 100 languages). Learn all you can do to manage your case 24/7 without visiting a DTA office (e.g., submit documents, request letter showing your DTA benefits, etc.) at Mass.gov/ContactDTA."},{"id":"2d1542b0-9eb7-4220-bb47-0f78716b7611","lat":42.4011104,"lng":-71.125408,"name":"Teele Square","org":"Self-Service DTA Kiosk at Somerville Council on Aging (limited services available)","address":"167 Holland Street, Teele Square, MA 02144","city":"Teele Square","state":"MA","zip":"02144","phone":"(877) 382-2363","website":"https://www.mass.gov/locations/self-service-dta-kiosk-at-somerville-council-on-aging-limited-services-available","email":"","description":"**Parking**\n* There is parking available onsite.\n\n**Services**\n* There is an official Department of Transitional Assistance Kiosk at this location with access to the DTA Connect mobile application and website. [Learn what you can do through DTA Connect.](https://www.mass.gov/guides/how-to-contact-dta)\n\n\n***NOTE:*** These locations are not staffed by DTA employees."},{"id":"3ba5cc49-c575-402f-aadf-51ae47614ef9","lat":42.5953982,"lng":-71.2464095,"name":"Tewksbury","org":"Tewksbury Community Food Pantry","address":"999 Whipple Road, Tewksbury, MA 01876","city":"Tewksbury","state":"MA","zip":"01876","phone":"(978) 858-2273","website":"tewksburypantry.org","email":"","description":"Community food pantry serving Tewksbury area"},{"id":"13a5d7ce-1901-4753-815a-b8dc595ffb47","lat":42.6464983,"lng":-71.3157011,"name":"The Acre","org":"CBA Food Pantry","address":"450 Merrimack Street, The Acre, MA 01854","city":"The Acre","state":"MA","zip":"01854","phone":"(978) 483-9082","website":"","email":"","description":"978-483-9082 (& By Appt.)"},{"id":"b6d07f3f-a33c-4601-88e9-73a18a328c24","lat":42.6497915,"lng":-71.32263739999999,"name":"The Acre","org":"House of Hope","address":"812 Merrimack Street, The Acre, MA 01854","city":"The Acre","state":"MA","zip":"01854","phone":"(978) 458-2870","website":"https://houseofhopelowell.org/","email":"","description":"Food service organization: House of Hope"},{"id":"1827d799-cdd8-4108-9513-428f0a085d4b","lat":42.6435256,"lng":-71.3194317,"name":"The Acre","org":"Lowell Senior Center","address":"276 Broadway Street, The Acre, MA 01854","city":"The Acre","state":"MA","zip":"01854","phone":"(978) 674-4131","website":"","email":"","description":"(Age 60+ Only)"},{"id":"3cebb570-d919-47fc-b298-b639f51f2bb4","lat":42.6853021,"lng":-71.3976275,"name":"Tyngsborough","org":"SVDP St. Mary Magdalen","address":"95 Lakeview Avenue, Tyngsborough, MA 01879","city":"Tyngsborough","state":"MA","zip":"01879","phone":"(978) 844-2365","website":"https://www.rodmc.org/st-vincent-de-paul-society","email":"","description":"St. Vincent de Paul Society location providing community services"},{"id":"70109844-cf3e-43b6-a821-fd50623d2dcb","lat":41.44799400000001,"lng":-70.6075918,"name":"Vineyard Haven","org":"Self-Service DTA Kiosk at Island Wide Collaborative (limited services available)","address":"111 Edgartown Road, Vineyard Haven, MA 02568","city":"Vineyard Haven","state":"MA","zip":"02568","phone":"(877) 382-2363","website":"https://www.mass.gov/locations/self-service-dta-kiosk-at-island-wide-collaborative-limited-services-available","email":"","description":"**Parking**\n* There is parking available onsite.\n\n**Services**\n* There is an official Department of Transitional Assistance Kiosk at this location with access to the DTA Connect mobile application and website. [Learn what you can do through DTA Connect.](https://www.mass.gov/guides/how-to-contact-dta)\n\n***PLEASE NOTE:***\nThese locations are not staffed by DTA employees."},{"id":"60422187-7ced-464f-bff0-4d0544036df0","lat":42.3690042,"lng":-71.2493011,"name":"Waltham","org":"Self-Service DTA Kiosk at Newton Wellesley Hospital - Waltham Family Medicine (limited services available)","address":"9 Hope Avenue, Waltham, MA 02453","city":"Waltham","state":"MA","zip":"02453","phone":"(877) 382-2363","website":"https://www.mass.gov/locations/self-service-dta-kiosk-at-newton-wellesley-hospital-waltham-family-medicine-limited-services-available","email":"","description":"**Parking**\n* Parking is available.\n\n**Services**\n* There is an official Department of Transitional Assistance Kiosk at this location with access to the DTA Connect mobile application and website. [Learn what you can do through DTA Connect.](https://www.mass.gov/guides/how-to-contact-dta)\n\n***PLEASE NOTE:***\nThese locations are not staffed by DTA employees."},{"id":"611f9518-96d8-4e23-8aac-c2619290c243","lat":42.3687748,"lng":-71.1759967,"name":"Watertown","org":"Church of the Good Shepherd","address":"9 Russell Avenue, Watertown, MA 02472","city":"Watertown","state":"MA","zip":"02472","phone":"(617) 924-9420","website":"https://goodshepherdwatertown.org/","email":"","description":"Church of the Good Shepherd"},{"id":"117632b7-3d65-444e-baf0-1d9820da3857","lat":42.3741754,"lng":-71.1525317,"name":"Watertown","org":"USCC/St. Patrick's Food Pantry-Watertown","address":"770 Mount Auburn Street, Watertown, MA 02472","city":"Watertown","state":"MA","zip":"02472","phone":"(617) 926-9680","website":"","email":"","description":"Food pantry services"},{"id":"05f436da-f004-4f11-889e-c2e196685083","lat":42.2763933,"lng":-71.09091049999999,"name":"Wellington Hill","org":"Ethos BCYF- Mildred","address":"5 Mildred Avenue, Wellington Hill, MA 02126","city":"Wellington Hill","state":"MA","zip":"02126","phone":"(617) 477-6688","website":"https://www.ethocare.org/services/nutrition/community-cafes/","email":"","description":"For more information or to register to attend a Community Cafe near you, please call 617-477-6688 or email ethosmeals@ethocare.org"},{"id":"2096ab50-9dc8-4e60-9459-2f0203c2a2ac","lat":42.36565969999999,"lng":-71.0657015,"name":"West End","org":"Brooklyn Food Corps / Brooklyn Rescue( Housing complex)","address":"65 Martha Road, West End, MA 02114","city":"West End","state":"MA","zip":"02114","phone":"(617) 852-5967","website":"https://brmuhc.org/community-food-center/bed-stuy-farm/","email":"","description":"Community food center providing food assistance services"},{"id":"7787a8e8-abb8-48ae-9b55-00af5494a14c","lat":42.3615305,"lng":-71.0650217,"name":"West End","org":"ABCD/ West End Senior Center","address":"151 Cambridge Street, West End, MA 02114","city":"West End","state":"MA","zip":"02114","phone":"(617) 670-1161","website":"","email":"","description":"Food service organization: ABCD/ West End Senior Center"},{"id":"6135471e-4d9e-40ee-ad7d-2a7442a146b7","lat":42.4204404,"lng":-71.1351806,"name":"West Medford","org":"SVDP/St. Raphael's Food Pantry","address":"38 Boston Avenue, West Medford, MA 02155","city":"West Medford","state":"MA","zip":"02155","phone":"(781) 488-5444","website":"www.saintraphaelparish.org/community-service/food-pantry/","email":"","description":"Residents of Medford"},{"id":"91739ed8-6a94-418a-a082-4682da2b1720","lat":42.286958,"lng":-71.1492613,"name":"West Roxbury","org":"Ethos Roche Café (Roche Community Center)","address":"1716 Centre Street, West Roxbury, MA 02132","city":"West Roxbury","state":"MA","zip":"02132","phone":"(617) 477-6688","website":"https://www.ethocare.org/services/nutrition/community-cafes/","email":"","description":"For more information or to register to attend a Community Cafe near you, please call 617-477-6688 or email ethosmeals@ethocare.org."},{"id":"ce3cd6a0-a2fe-4357-9814-f097932065e9","lat":42.27365990000001,"lng":-71.1692666,"name":"West Roxbury","org":"Ethos AgeWell Café (West Roxbury Elks)","address":"1 Morrell Street, West Roxbury, MA 02132","city":"West Roxbury","state":"MA","zip":"02132","phone":"(617) 477-6688","website":"https://www.ethocare.org/services/nutrition/community-cafes/","email":"","description":"For more information or to register to attend a Community Cafe near you, please call 617-477-6688 or email ethosmeals@ethocare.org."},{"id":"ba5bba26-1c7d-4ec9-814d-e402ccc03bf7","lat":42.100301,"lng":-72.608324,"name":"Parish Cupboard Pantry Main Location","org":"Parish Cupboard Pantry","address":"738 Main Street, West Springfield, MA 01089","city":"West Springfield","state":"MA","zip":"01089","phone":"(413) 734-7969","website":"https://theparishcupboard.org/","email":"","description":"Food pantry serving West Springfield and Agawam residents with to-go bags. Guests are limited to one visit per month."},{"id":"8ab2045b-76c4-42ba-9c0b-320bc098d2fa","lat":42.10044,"lng":-72.61268,"name":"Victory Temple Food Pantry Location","org":"Victory Temple Food Pantry","address":"521 Union Street, West Springfield, MA 01089","city":"West Springfield","state":"MA","zip":"01089","phone":"(413) 827-8088","website":"","email":"","description":"Food pantry providing emergency food assistance with scheduled distribution times and appointment availability"},{"id":"f89f639b-d2fd-4164-a6e3-70ab6c2163b9","lat":42.161043,"lng":-72.635846,"name":"West Springfield Brown Bag","org":"West Springfield Brown Bag","address":"2112 Riverdale Street, Suite 1, West Springfield, MA 01089","city":"West Springfield","state":"MA","zip":"01089","phone":"(413) 827-4230","website":"","email":"","description":"Community food pantry offering free food assistance through scheduled monthly pickup services in West Springfield, MA."},{"id":"f87fb099-f945-47eb-90f6-3a90e66222f2","lat":42.106258,"lng":-72.622258,"name":"West Springfield Senior Center Brown Bag","org":"West Springfield Senior Center Brown Bag","address":"128 Park Street, West Springfield, MA 01089","city":"West Springfield","state":"MA","zip":"01089","phone":"(413) 495-1802","website":"","email":"","description":"Senior center food distribution program providing brown bag food assistance to eligible seniors."},{"id":"3add65de-2cc2-4980-9044-c8f7cea9d111","lat":42.124138,"lng":-72.74159,"name":"Greater Westfield Food Pantry","org":"Greater Westfield Food Pantry","address":"101 Meadow Street, Westfield, MA 01085","city":"Westfield","state":"MA","zip":"01085","phone":"(413) 572-0802","website":"https://www.westfieldfoodpantry.org/","email":"","description":"Food pantry providing emergency food assistance to individuals and families in need in the Westfield area"},{"id":"4666e681-51e7-42fc-b0b6-a7e39e9374dd","lat":42.17715,"lng":-72.692785,"name":"Main Location","org":"Project New Hope Sully's Pantry","address":"1029 North Road, Suite 9, Westfield, MA 01085","city":"Westfield","state":"MA","zip":"01085","phone":"(413) 485-7988","website":"https://www.projectnewhopema.org/veterans-support-programs/sullys-pantry/","email":"","description":"Food pantry operated by Project New Hope providing food assistance services to the community."},{"id":"14cd1f19-ae95-4800-a7f0-9c27be1faef8","lat":42.1258595,"lng":-72.7480812,"name":"St. Vincent de Paul Society Westfield Food Pantry","org":"St. Vincent de Paul Society Westfield Food Pantry","address":"86 Mechanic Street, Westfield, MA 01085","city":"Westfield","state":"MA","zip":"01085","phone":"(413) 568-5619","website":"","email":"","description":"Food pantry operated by St. Vincent de Paul Society that distributes pre-packed bags of food to community members in need."},{"id":"8b1708df-3785-4bfb-b41f-0b4b749a66cb","lat":42.121608,"lng":-72.752757,"name":"Washington House Westfield Brown Bag","org":"Washington House Westfield Brown Bag","address":"16 Washington Street, Westfield, MA 01085","city":"Westfield","state":"MA","zip":"01085","phone":"(413) 586-2000","website":"","email":"","description":"Food pantry providing pickup services every 2nd Tuesday from 11:00 a.m. - 12:00 p.m."},{"id":"b7ea6bde-1f4e-4cf1-bc63-2389cde108a4","lat":42.117296,"lng":-72.747565,"name":"Westfield Mobile Food Bank Location","org":"Westfield Mobile Food Bank","address":"60 Broad Street, Westfield, MA 01085","city":"Westfield","state":"MA","zip":"01085","phone":"(413) 419-0079","website":"","email":"","description":"Mobile food distribution program operated by the Food Bank of Western Massachusetts, providing food assistance with no eligibility requirements."},{"id":"e6adad65-6502-4727-b8a4-64b62caba3f9","lat":42.1169,"lng":-72.738071,"name":"Westfield Noble Brown Bag","org":"Westfield Noble Brown Bag","address":"45 Noble Street, Westfield, MA 01085","city":"Westfield","state":"MA","zip":"01085","phone":"(413) 562-6435","website":"","email":"","description":"Food pantry providing pickup services every 2nd Tuesday from 1:45-2:15 p.m."},{"id":"164f27ee-dad5-45e8-8ea1-23786d1195e0","lat":42.5788454,"lng":-71.48400649999999,"name":"Westford","org":"Westford Food Pantry","address":"20 Pleasant Street, Westford, MA 01886","city":"Westford","state":"MA","zip":"01886","phone":"(978) 692-5523","website":"https://westfordpantry.org/need-food-or-support%3F","email":"","description":"2025 Closings: July 2 and 4, November 26 and 28, December 24, 26 and 31\nThe Westford Food Pantry currently supports individuals and families living in the following communities:  Westford, Chelmsford/North Chelmsford, Lowell, Billerica/North Billerica, Dracut, Groton, Littleton, and Tyngsborough.\nWestford residents may receive a full order of food once per week.\nResidents of other listed towns may receive a full order twice per month (every other week).\nProof of residency is required at registration. Acceptable documents include a driver's license, utility bill, or any form of identification that shows your current address."},{"id":"6c8d386f-bed7-4ea7-a7bd-7361c50b338c","lat":42.13875,"lng":-72.46925,"name":"Evangel Assembly of God Food Pantry","org":"Evangel Assembly of God Food Pantry","address":"348 Stony Hill Road, Wilbraham, MA 01095","city":"Wilbraham","state":"MA","zip":"01095","phone":"(413) 599-1729","website":"","email":"","description":"Faith-based food pantry providing emergency food assistance to individuals and families in need. Guests are limited to 1 visit per month, with services available by appointment in addition to regular hours."},{"id":"1db0502c-c4f6-40a6-a1e9-e4df5cc66dfd","lat":42.151999,"lng":-72.441926,"name":"Wilbraham Brown Bag Location","org":"Wilbraham Brown Bag","address":"240 Springfield street, Wilbraham, MA 01050","city":"Wilbraham","state":"MA","zip":"01050","phone":"(413) 596-8379","website":"","email":"","description":"Food pantry providing food assistance with pickup every 3rd Friday from 1:00 - 2:00 p.m."},{"id":"6bda8890-f9bf-4f11-9319-b815053d1e67","lat":42.4793269,"lng":-71.1494579,"name":"Woburn","org":"Anchor Baptist Church Pantry","address":"29A Montvale Avenue, Woburn, MA 01801","city":"Woburn","state":"MA","zip":"01801","phone":"(781) 932-0765","website":"www.anchorbaptistwourn.com","email":"","description":"Food pantry services provided by Anchor Baptist Church"},{"id":"aca43ef0-59f5-4a50-a80a-3b4a223916cd","lat":42.4758667,"lng":-71.15113029999999,"name":"Woburn","org":"SVDP St. Charles Woburn","address":"8 Summer Street, Woburn, MA 01801","city":"Woburn","state":"MA","zip":"01801","phone":"(781) 933-0300","website":"https://svdpwoburn.org/need-help/svdp-food-pantry/","email":"","description":"We are on the lower level of the St. Charles Borromeo Church Parish Center"},{"id":"53ee0a8c-4e93-41d8-a0e8-3dbf2a4c0b9f","lat":42.246201,"lng":-71.820244,"name":"Worcester","org":"Yes We Care","address":"55 Illinois St, Worcester, MA 1610","city":"Worcester","state":"MA","zip":"1610","phone":"(774) 437-8728","website":"yeswecarema.org","email":"","description":"Food service organization: Yes We Care"}]}