{"metadata":{"generated":"2025-08-04T09:35:48.623648+00:00","total_locations":47,"states_covered":21,"coverage":"21 US states/territories","source":"HAARRRvest - Pantry Pirate Radio Database","database_path":"pantry_pirate_radio.sqlite","format_version":"1.0","filtered_by":"state = MD"},"locations":[{"id":"b3b82025-6de6-482b-8653-e75cbcd67e61","lat":39.313581,"lng":-77.46938569999999,"name":"Adamstown","org":"Carroll Manor Elementary School Summer Meals","address":"5624 Adamstown Road, Adamstown, MD 21710","city":"Adamstown","state":"MD","zip":"21710","phone":"(443) 809-7855","website":"https://www.bcps.org/foodandnutrition","email":"","description":"From 23rd June Till 15th August"},{"id":"3b82a002-333e-4f0c-8039-99dced5ff58f","lat":39.034,"lng":-76.905,"name":"Beltsville","org":"Emmanuel UMC","address":"11416 Cedar Lane, Beltsville, MD 20705","city":"Beltsville","state":"MD","zip":"20705","phone":"(301) 937-7114","website":"","email":"pastorking@eumcbeltsville.com","description":"Food pantry operated by Emmanuel UMC in Beltsville, MD"},{"id":"e0ec63ea-7be9-422c-a62a-8b8fec7f9e9e","lat":38.6973,"lng":-76.8292,"name":"Brandywine","org":"Prince Georges Social Services - Gwynn Park High School","address":"13800 Brandywine Road, Brandywine, MD 20613","city":"Brandywine","state":"MD","zip":"20613","phone":"(301) 526-4081","website":"","email":"jcdiggs.md@comcast.net","description":"Food assistance services provided through Prince Georges Social Services at Gwynn Park High School location"},{"id":"9fea2866-2bd2-4549-8c47-a94c71cac195","lat":39.2802922,"lng":-76.57297129999999,"name":"Canton","org":"Canton Free Little Pantry","address":"1030 South Ellwood Avenue, Canton, MD 21224","city":"Canton","state":"MD","zip":"21224","phone":"","website":"https://www.facebook.com/groups/642135508518868/","email":"","description":"Behind the Canton Library\nEastbound O'Donnell St & Decker Street\nNonperishables only"},{"id":"d22b6dbe-8409-4d65-a709-67e932265340","lat":38.9075,"lng":-76.9047,"name":"Capitol Heights","org":"Craig Memorial Community Church","address":"5305 Farmingdale Road, Capitol Heights, MD 20743","city":"Capitol Heights","state":"MD","zip":"20743","phone":"(301) 772-3812","website":"","email":"idastew@yahoo.com","description":"Community church providing food assistance services"},{"id":"a1a8c94a-cf54-4a74-a6b8-4f8a032d6beb","lat":38.88666500000001,"lng":-76.8644036,"name":"Capitol Heights","org":"GW Foundation (Warehouse #2)","address":"216 West Hampton Avenue, Capitol Heights, MD 20743","city":"Capitol Heights","state":"MD","zip":"20743","phone":"(240) 461-5248","website":"https://www.facebook.com/p/GW-Foundation-61561175583802/","email":"","description":"To make your appointments Text name, time of arrival and warehouse # where you want your appointment @(240) 461-5248\n\n* By regular message, WhatsApp and Signal only\n\n**No calls**\n\nIt is very difficult for us to answer calls and so many messages at once, thank you for your patience, we will confirm as soon as possible\n\n**NOTE:** PRODUCTS MAY VARY DURING THE DAY"},{"id":"07c4d42d-5c9b-4ff6-8d93-9773b0cc7b73","lat":38.8800597,"lng":-76.8527747,"name":"Capitol Heights","org":"GW Foundation (Warehouse #1)","address":"615 Hampton Park Boulevard, Capitol Heights, MD 20743","city":"Capitol Heights","state":"MD","zip":"20743","phone":"(240) 461-5248","website":"https://www.facebook.com/p/GW-Foundation-61561175583802/","email":"","description":"To make your appointments Text name, time of arrival and warehouse # where you want your appointment @(240) 461-5248\n\n* By regular message, WhatsApp and Signal only\n\n**No calls**\n\nIt is very difficult for us to answer calls and so many messages at once, thank you for your patience, we will confirm as soon as possible\n\n**NOTE:** PRODUCTS MAY VARY DURING THE DAY"},{"id":"28260a32-6331-440b-804a-f7674465aeff","lat":39.3256096,"lng":-76.5889614,"name":"Coldstream Homestead Montebello","org":"Greater Faith Hope Tabernacle","address":"1900 East 30th Street, Coldstream Homestead Montebello, MD 21218","city":"Coldstream Homestead Montebello","state":"MD","zip":"21218","phone":"(410) 366-3920","website":"","email":"","description":"Entrance at 30th street"},{"id":"ff5e5080-07e6-44d5-aaec-07ac3dabea47","lat":39.32557459999999,"lng":-76.58971989999999,"name":"Coldstream Homestead Montebello","org":"The Barnes Memorial Church, Inc","address":"3000 Hillen Road, Coldstream Homestead Montebello, MD 21218","city":"Coldstream Homestead Montebello","state":"MD","zip":"21218","phone":"(443) 602-7339","website":"https://www.facebook.com/BarnesMemorialChurch/","email":"","description":"Community organization providing services in Coldstream Homestead Montebello"},{"id":"6df099cd-4d79-4087-a2d3-d1bb84c0dfa6","lat":39.2248195,"lng":-76.59187899999999,"name":"Curtis Bay","org":"Filbert Street Garden","address":"1321 Filbert Street, Curtis Bay, MD 21226","city":"Curtis Bay","state":"MD","zip":"21226","phone":"(443) 594-2050","website":"https://www.facebook.com/FilbertStreetGarden","email":"","description":"Open 24/7! Free, outdoor community fridge/pantry operated by local volunteers."},{"id":"f5c6f742-9333-4f22-a52d-a56a8c3289a1","lat":39.3168273,"lng":-76.5983254,"name":"East Baltimore Midway","org":"Mission Life Church","address":"2409 Aisquith Street, East Baltimore Midway, MD 21218","city":"East Baltimore Midway","state":"MD","zip":"21218","phone":"(410) 469-9486","website":"https://www.mlifechurch.com/","email":"","description":"Food service organization: Mission Life Church"},{"id":"a44f9677-2cb3-4528-865d-3213c6c08976","lat":39.2993781,"lng":-76.6657601,"name":"Franklintown Road","org":"B More Loyal, Inc. Community Fridge & Freezer","address":"2900 Mosher Street, Franklintown Road, MD 21216","city":"Franklintown Road","state":"MD","zip":"21216","phone":"","website":"https://www.facebook.com/groups/642135508518868/","email":"","description":"Open 24/7! Free, outdoor community fridge/pantry operated by local volunteers."},{"id":"b59bc487-f002-40e5-8ba1-3f6ea10f7a03","lat":39.1273493,"lng":-77.1856839,"name":"Gaithersburg","org":"Epworth United Methodist Church","address":"9008 Rosemont Drive, Gaithersburg, MD 20877","city":"Gaithersburg","state":"MD","zip":"20877","phone":"UNKNOWN","website":"https://www.lordstablesoupkitchen.org/","email":"","description":"Guests are served a Bagged Lunch May through Sep: Monday – Friday, 1:30 – 2:30p.m.\n  Guests are served Hot Meals Oct through Apr: Monday – Friday, 3:30 – 4:30p.m."},{"id":"1ace8ecd-2cc8-40b0-aa28-c788bf76f00a","lat":39.1438983,"lng":-77.1877217,"name":"Gaithersburg","org":"Gaithersburg Middle School Parking Lot","address":"2 Teachers Way, Gaithersburg, MD 20877","city":"Gaithersburg","state":"MD","zip":"20877","phone":"(301) 424-1130","website":"https://www.mannafood.org/about/contact-manna/manna-food-distribution-sites/","email":"","description":"Call in advance for services\nOur truck will set up in the upper parking lot by the cafeteria on the side of the building.\nManna works in cooperation with certain qualifying community residences to provide food distribution.  Contact your resident manager to learn how to schedule a pick up."},{"id":"bcaa3bb4-6746-4cdc-806a-a2181639869a","lat":39.171,"lng":-77.255,"name":"Germantown","org":"HC - Germantown","address":"19801 Observation Drive, Germantown, MD 20876","city":"Germantown","state":"MD","zip":"20876","phone":"(301) 754-8735","website":"","email":"wylied@holycrosshealth.org","description":"Food assistance organization in Germantown, MD"},{"id":"fa885a2d-300f-49c2-986e-350580967f1c","lat":39.31058650000001,"lng":-76.6130582,"name":"Greenmount West","org":"Bmore Community Fridge","address":"209 McAllister Street, Greenmount West, MD 21202","city":"Greenmount West","state":"MD","zip":"21202","phone":"","website":"https://www.instagram.com/p/DH1q3wKy75x/?img_index=2","email":"","description":"The site isn't easy to find. Technically GPS lists it at 200 Eareckson Place. It is tucked next to blue light junction on hunter St, but faces Eareckson Place.)"},{"id":"48f8607f-7fdb-495e-821c-2af2407eca6c","lat":39.33253339999999,"lng":-76.6606932,"name":"Greenspring","org":"Plantation Park Heights Urban Farm Fridge","address":"3811 Park Heights Avenue, Greenspring, MD 21215","city":"Greenspring","state":"MD","zip":"21215","phone":"","website":"https://www.facebook.com/groups/642135508518868/","email":"","description":"Fridge is located in the farm\nThis fridge is stocked solely BY the farm. Neighbors are invited to take what they need, but unlike other BCFN sites, they do NOT accept outside donations. So, please don't leave anything on-site!"},{"id":"9261d3ba-784a-4a8b-b236-7ae181dd6c24","lat":39.3530448,"lng":-76.5646948,"name":"Harford - Echodale - Perring Parkway","org":"Gibbons Community Fridge","address":"2803 Gibbons Avenue, Harford - Echodale - Perring Parkway, MD 21214","city":"Harford - Echodale - Perring Parkway","state":"MD","zip":"21214","phone":"","website":"https://www.instagram.com/gibbonscommunityfridge/","email":"","description":"Open 24/7! Free, outdoor community fridge/pantry operated by local volunteers."},{"id":"f2033a38-a603-48c0-a41e-de9fba90e4fa","lat":39.35588179999999,"lng":-76.55884759999999,"name":"Harford - Echodale - Perring Parkway","org":"Sharon Seventh-day Adventist Church","address":"5814 Harford Road, Harford - Echodale - Perring Parkway, MD 21214","city":"Harford - Echodale - Perring Parkway","state":"MD","zip":"21214","phone":"(410) 444-8145","website":"","email":"","description":"next to the enoch Library on Harford road"},{"id":"7256120e-9339-4b2b-829b-cafb6981ca77","lat":38.975,"lng":-76.965,"name":"Hyattsville","org":"Shiloh Church Of God 7 Day","address":"5701 Eastern Ave, Hyattsville, MD 20781","city":"Hyattsville","state":"MD","zip":"20781","phone":"(202) 907-6072","website":"","email":"grantclaudette@ymail.com","description":"Food pantry operated by Shiloh Church Of God 7 Day"},{"id":"92e56320-c163-49cd-8fe2-a43eb199e782","lat":38.953,"lng":-76.942,"name":"Hyattsville","org":"Turner AME Church","address":"7201 16th Place, Hyattsville, MD 20783","city":"Hyattsville","state":"MD","zip":"20783","phone":"(301) 408-0750","website":"","email":"civy@turner-ame.org","description":"Food pantry operated by Turner AME Church"},{"id":"9aafd2ba-0aca-4829-a172-6e116e1fb8f4","lat":39.4565185,"lng":-76.4188925,"name":"Kingsville","org":"Kingsville Elementary School Summer Meals","address":"7300 Sunshine Avenue, Kingsville, MD 21087","city":"Kingsville","state":"MD","zip":"21087","phone":"(443) 809-7855","website":"https://www.bcps.org/foodandnutrition","email":"","description":"From 23rd June Till 15th August"},{"id":"d68a9f8d-e54a-4341-a242-3f9d31da28a4","lat":38.998819,"lng":-76.860992,"name":"Lanham","org":"Trinity Assembly of God","address":"7800 Good Luck Rd, Lanham, MD 20706","city":"Lanham","state":"MD","zip":"20706","phone":"(301) 841-6533","website":"","email":"info@themeljohnson.org","description":"Food assistance organization"},{"id":"daf42406-a68f-4665-a1b9-5838285f8e69","lat":38.9637,"lng":-76.8794,"name":"Lanham","org":"Destiny Driven","address":"5900 Princess Garden Parkway, Lanham, MD 20706","city":"Lanham","state":"MD","zip":"20706","phone":"(301) 455-5970","website":"","email":"destinydriveninternationalceo@gmail.com","description":"Food pantry organization providing food assistance services"},{"id":"014c9372-cc76-4dc2-898f-f34d0c6a4d5d","lat":39.3522654,"lng":-76.569255,"name":"Lauraville","org":"Heart House Community Fridge","address":"5207 Catalpha Road, Lauraville, MD 21214","city":"Lauraville","state":"MD","zip":"21214","phone":"","website":"https://www.facebook.com/profile.php?id=61576221493009","email":"","description":"Open 24/7! Free, outdoor community fridge/pantry operated by local volunteers."},{"id":"274a8fbb-09cc-450e-bb01-a6df8acb469d","lat":39.1099,"lng":-76.8459,"name":"Laurel","org":"Faith Village of Greater Laurel, Inc.","address":"13714 Briarwood Drive, Laurel, MD 20708","city":"Laurel","state":"MD","zip":"20708","phone":"(202) 321-8468","website":"","email":"moodsultd@yahoo.com","description":"Food assistance organization providing TEFAP services"},{"id":"13ac77ee-97a0-4c71-8506-c468c047c653","lat":38.95,"lng":-76.82,"name":"Mitchellville","org":"Hope Presbyterian Church","address":"1100 Enterprise Road, Mitchellville, MD 20721","city":"Mitchellville","state":"MD","zip":"20721","phone":"(301) 249-7774","website":"","email":"nichi1994@yahoo.com","description":"Food assistance services provided by Hope Presbyterian Church"},{"id":"dc9bab6e-562f-43d4-929f-294c831bf0df","lat":39.2950859,"lng":-76.66122589999999,"name":"Mosher","org":"LaBurt-Mosher Community Fridge","address":"607 Ashburton Street, Mosher, MD 21216","city":"Mosher","state":"MD","zip":"21216","phone":"(443) 570-9931","website":"https://www.instagram.com/laburtmosher_community_fridge/","email":"","description":"Open 24/7! Free, outdoor community fridge/pantry operated by local volunteers."},{"id":"1211bba4-24fc-423d-8f23-ee89ef4904ee","lat":39.1506,"lng":-77.0669,"name":"Olney","org":"Iglesia Evangelica Cristo Promesa Fiel","address":"17017 Georgia Avenue, Olney, MD 20832","city":"Olney","state":"MD","zip":"20832","phone":"(240) 461-5059","website":"","email":"info@cristopromesafiel.org","description":"Food pantry service provided by Iglesia Evangelica Cristo Promesa Fiel"},{"id":"9f5c75f7-fb04-44d4-8d9f-d4339b9c1ede","lat":39.6222824,"lng":-76.6571987,"name":"Parkton","org":"Hereford High School Summer Meal Program","address":"17301 York Road, Parkton, MD 21120","city":"Parkton","state":"MD","zip":"21120","phone":"(443) 809-7855","website":"https://www.bcps.org/foodandnutrition/","email":"","description":"From June 23rd till August 15th"},{"id":"83cc6138-0e78-4010-9b33-9d57664b1ae0","lat":39.2938842,"lng":-76.57608379999999,"name":"Patterson Park Neighborhood","org":"Linwood Community Fridge","address":"123 North Linwood Avenue, Patterson Park Neighborhood, MD 21224","city":"Patterson Park Neighborhood","state":"MD","zip":"21224","phone":"","website":"https://www.instagram.com/linwoodcommunityfridge/","email":"","description":"Open 24/7! Free, outdoor community fridge/pantry operated by local volunteers."},{"id":"bb2cc65e-d2a0-412f-8280-a5e6d33e755e","lat":39.1054,"lng":-77.2008,"name":"Rockville","org":"The Universities at Shady Grove","address":"9630 Gudelsky Drive, Rockville, MD 20850","city":"Rockville","state":"MD","zip":"20850","phone":"(301) 738-6000","website":"","email":"szelaya3@umd.edu","description":"Food assistance organization operating in Rockville, MD"},{"id":"f988c51a-5d09-4f64-a746-61dc27400881","lat":39.0817,"lng":-77.1336,"name":"Rockville","org":"The Universities at Shady Grove","address":"9630 Gudelsky Drive, Rockville, MD 20850","city":"Rockville","state":"MD","zip":"20850","phone":"(301) 738-6000","website":"","email":"szelaya3@umd.edu","description":"Food assistance organization operating in Rockville, MD"},{"id":"6cec7f85-d93f-4e7d-9abc-2790c4650c63","lat":39.060861,"lng":-76.967894,"name":"Silver Spring","org":"Allen Chapel AME Church Outreach Ministry","address":"2518 Fairland Road, Silver Spring, MD 20904","city":"Silver Spring","state":"MD","zip":"20904","phone":"(301) 404-2688","website":"","email":"dotboddie@yahoo.com","description":"Food pantry providing TEFAP services"},{"id":"d291d912-33a9-4e22-acca-c29881bd9afa","lat":39.0458,"lng":-77.0164,"name":"Silver Spring","org":"Chrisma Charities","address":"12805 Georgia Avenue, Silver Spring, MD 20906","city":"Silver Spring","state":"MD","zip":"20906","phone":"(202) 427-2816","website":"","email":"info@chrismacharities.org","description":"Food assistance organization providing TEFAP services"},{"id":"7cd9e807-b1b6-4f06-9752-15a369c2412f","lat":39.0463,"lng":-77.0297,"name":"Silver Spring","org":"Clifton Park Baptist Church","address":"8818 Piney Branch Rd, Silver Spring, MD 20903","city":"Silver Spring","state":"MD","zip":"20903","phone":"(301) 434-2456","website":"","email":"carolynpettus@verizon.net","description":"Food pantry services provided by Clifton Park Baptist Church"},{"id":"63379992-fc7c-4b1e-bcc5-8ec832ea2a46","lat":39.035,"lng":-77.015,"name":"Silver Spring","org":"First Alliance Church","address":"14500 New Hampshire Ave, Silver Spring, MD 20904","city":"Silver Spring","state":"MD","zip":"20904","phone":"(301) 785-8571","website":"","email":"Office@1stalliancechurch.com","description":"Food pantry services provided by First Alliance Church"},{"id":"2331f411-1f92-4d82-a434-52219890e81f","lat":39.0186,"lng":-77.0336,"name":"Silver Spring","org":"Kings and Priests International Ministries","address":"520 Randolph Road, Silver Spring, MD 20904","city":"Silver Spring","state":"MD","zip":"20904","phone":"(301) 467-6646","website":"","email":"kpciministries@gmail.com","description":"Food pantry providing TEFAP services"},{"id":"9f2900ca-86ab-4f25-a896-c86c6367853a","lat":39.039167,"lng":-77.046111,"name":"Silver Spring","org":"Silver Spring Christian Reformed Church","address":"1501 Arcola Ave, Silver Spring, MD 20902","city":"Silver Spring","state":"MD","zip":"20902","phone":"(301) 284-8401","website":"","email":"foodpantry@sscrc.org","description":"Food pantry services provided by Silver Spring Christian Reformed Church"},{"id":"dc1df475-fa25-40ad-916a-441de45eee73","lat":39.0014,"lng":-77.0269,"name":"Silver Spring","org":"Tommy's Pantry","address":"630 Silver Spring Ave., Silver Spring, MD 20910","city":"Silver Spring","state":"MD","zip":"20910","phone":"(202) 262-4537","website":"","email":"tommyspantry@gmail.com","description":"Food pantry serving the Silver Spring community"},{"id":"a33cf8b7-fad8-4494-b265-0f991f3b30ed","lat":39.0458,"lng":-77.0183,"name":"Silver Spring","org":"Washington Spanish SDA Church","address":"12604 New Hampshire Avenue, Silver Spring, MD 20904","city":"Silver Spring","state":"MD","zip":"20904","phone":"(240) 638-7086","website":"","email":"fatimaservices@hotmail.com","description":"Food assistance organization operated by Washington Spanish SDA Church"},{"id":"2cc04d39-967b-480e-b4e2-7755ec3c6a6e","lat":38.987654,"lng":-77.012345,"name":"TAKOMA PARK","org":"Educare Support Services","address":"7517 New Hampshire Avenue, TAKOMA PARK, MD 20912","city":"TAKOMA PARK","state":"MD","zip":"20912","phone":"(240) 450-2092","website":"","email":"info@educaremd.org","description":"Food assistance services provided by Educare Support Services"},{"id":"a552e12f-33fa-42c1-a056-e4a1d1809c94","lat":39.2872717,"lng":-76.590741,"name":"Upper Fells Point","org":"Barbie Mansion Community Fridge","address":"315 South Durham Street, Upper Fells Point, MD 21231","city":"Upper Fells Point","state":"MD","zip":"21231","phone":"","website":"https://www.instagram.com/barbiemansion_foodpantry/","email":"","description":"Community food pantry and fridge service"},{"id":"4b1fd07a-5d62-4833-ad7f-0cc2827a68bd","lat":38.84,"lng":-76.76,"name":"Upper Marlboro","org":"The Sanctuary","address":"5300 Crain Highway, Upper Marlboro, MD 20772","city":"Upper Marlboro","state":"MD","zip":"20772","phone":"(301) 752-0778","website":"","email":"mscharander@gmail.com","description":"Food pantry service provider"},{"id":"ee4e572f-4baa-452a-b40a-52915e7791a9","lat":38.8355,"lng":-76.7646,"name":"Upper Marlboro","org":"Great Commission Change of Life Ministries","address":"7937 Penn Randall Place Unit A, Upper Marlboro, MD 20772","city":"Upper Marlboro","state":"MD","zip":"20772","phone":"(301) 541-9968","website":"","email":"keith.iola@verizon.net","description":"Food pantry services provided by Great Commission Change of Life Ministries"},{"id":"d69d2ffe-36be-4dbe-8af6-e412f3dc7b6d","lat":39.3045847,"lng":-76.6363298,"name":"Upton","org":"The Journey to feeding Baltimore","address":"1822 Pennsylvania Avenue, Upton, MD 21217","city":"Upton","state":"MD","zip":"21217","phone":"","website":"https://www.facebook.com/groups/642135508518868/","email":"","description":"Open 24/7! Free, outdoor community fridge/pantry operated by local volunteers."},{"id":"6a43b6d4-3b48-4e8f-9e2d-0b7474a6d5a3","lat":39.3518744,"lng":-76.6107286,"name":"York-Homeland","org":"Bmore Community Fridge Network","address":"454 Notre Dame Lane, York-Homeland, MD 21212","city":"York-Homeland","state":"MD","zip":"21212","phone":"","website":"https://www.facebook.com/groups/642135508518868/","email":"","description":"(Behind the Loyola Bldg)"}]}