{"metadata":{"generated":"2025-08-06T00:30:34.031285+00:00","total_locations":112,"states_covered":42,"coverage":"42 US states/territories","source":"HAARRRvest - Pantry Pirate Radio Database","database_path":"pantry_pirate_radio.sqlite","format_version":"1.0","filtered_by":"state = MD"},"locations":[{"id":"b3b82025-6de6-482b-8653-e75cbcd67e61","lat":39.313581,"lng":-77.46938569999999,"name":"Adamstown","org":"Carroll Manor Elementary School Summer Meals","address":"5624 Adamstown Road, Adamstown, MD 21710","city":"Adamstown","state":"MD","zip":"21710","phone":"(443) 809-7855","website":"https://www.bcps.org/foodandnutrition","email":"","description":"From 23rd June Till 15th August"},{"id":"4b34faef-56ab-4b43-8aae-0068d186cd4f","lat":38.998414,"lng":-76.58817410000002,"name":"Annapolis","org":"First Christian Community Church","address":"1800 Hall Brown Road, Annapolis, MD 21401","city":"Annapolis","state":"MD","zip":"21401","phone":"(410) 224-5788","website":"https://www.thefccca.org/","email":"","description":"First Christian Community Church"},{"id":"1633597e-dc3d-42d9-bdde-35bb81a75c22","lat":38.9659378,"lng":-76.48983539999999,"name":"Annapolis","org":"Eastport United Methodist Church","address":"926 Bay Ridge Avenue, Annapolis, MD 21403","city":"Annapolis","state":"MD","zip":"21403","phone":"(410) 263-5490","website":"https://www.eastportumc.org/","email":"","description":"Eastport United Methodist Church"},{"id":"6a2cb3fd-a67b-4e1b-82ca-ebf618097452","lat":38.9970422,"lng":-76.5552283,"name":"Annapolis","org":"Annapolis Seventh Day Adventist Church","address":"1996 Generals Highway, Annapolis, MD 21401","city":"Annapolis","state":"MD","zip":"21401","phone":"(410) 266-8887","website":"https://www.annapolis-sda.org/","email":"","description":"Community organization providing services"},{"id":"326ed21c-1b85-43fd-8e89-988a8c13333e","lat":38.9691674,"lng":-76.5304173,"name":"Annapolis","org":"Bywater Community","address":"1903 Copeland Street, Annapolis, MD 21401","city":"Annapolis","state":"MD","zip":"21401","phone":"(410) 553-4505","website":"https://www.facebook.com/profile.php?id=100066705630064","email":"","description":"Community organization providing food assistance services"},{"id":"4452c3df-9f12-41ca-bd21-d0bd7bf614c6","lat":39.2222427,"lng":-76.6177627,"name":"Baltimore","org":"Brooklyn Park Elementary","address":"200 14th Avenue, Baltimore, MD 21225","city":"Baltimore","state":"MD","zip":"21225","phone":"(410) 553-4505","website":"https://www.facebook.com/profile.php?id=100066705630064","email":"","description":"Food distribution service"},{"id":"102a9ae1-3188-4ab2-b33d-f71138df0360","lat":39.2435617,"lng":-76.64832679999999,"name":"Baltimore","org":"mRelief SNAP Screener - Baltimore","address":", Baltimore, MD UNKNOWN","city":"Baltimore","state":"MD","zip":"UNKNOWN","phone":"","website":"https://apply.mrelief.com/screener","email":"","description":"Families need to complete the 2024-25 school meal & summer EBT application to receive summer benefits ($120 per eligible child)- name spelling, address, etc. all need to be up to date and accurate! Summer EBT Outreach Toolkit\" https://mymdthink.maryland.gov/home/#/sunbucks\nGo to https://apply.mrelief.com/screener or text \"Food\" to 74544 to check eligibility."},{"id":"377d2d7c-be0a-4a11-9b6e-096c7ca13779","lat":39.5942292,"lng":-76.3227288,"name":"Bel Air","org":"Lutheran Mission Society Hickory Compassion Center","address":"2500 Conowingo Road, Bel Air, MD 21015","city":"Bel Air","state":"MD","zip":"21015","phone":"(410) 974-9296","website":"https://www.compassionplace.org/centers","email":"","description":"Food distributed upon request during Center hours"},{"id":"3b82a002-333e-4f0c-8039-99dced5ff58f","lat":39.034,"lng":-76.905,"name":"Beltsville","org":"Emmanuel UMC","address":"11416 Cedar Lane, Beltsville, MD 20705","city":"Beltsville","state":"MD","zip":"20705","phone":"(301) 937-7114","website":"","email":"pastorking@eumcbeltsville.com","description":"Food pantry operated by Emmanuel UMC in Beltsville, MD"},{"id":"d2901eb9-165e-4bb8-856c-a22237e4e2ff","lat":39.3059909,"lng":-76.62800399999999,"name":"Bolton Hill","org":"Baltimore Unity Hall","address":"1505 Eutaw Place, Bolton Hill, MD 21217","city":"Bolton Hill","state":"MD","zip":"21217","phone":"","website":"https://www.baltimoreunityhall.org/","email":"","description":"Baltimore Unity Hall"},{"id":"e0ec63ea-7be9-422c-a62a-8b8fec7f9e9e","lat":38.6973,"lng":-76.8292,"name":"Brandywine","org":"Prince Georges Social Services - Gwynn Park High School","address":"13800 Brandywine Road, Brandywine, MD 20613","city":"Brandywine","state":"MD","zip":"20613","phone":"(301) 526-4081","website":"","email":"jcdiggs.md@comcast.net","description":"Food assistance services provided through Prince Georges Social Services at Gwynn Park High School location"},{"id":"f8529c8f-4173-499c-a151-4c8d74a5eed8","lat":39.2863418,"lng":-76.56670980000001,"name":"Brewers Hill","org":"Pratt Free Market @ Enoch Pratt Library","address":"3601 Eastern Avenue, Brewers Hill, MD 21224","city":"Brewers Hill","state":"MD","zip":"21224","phone":"(443) 984-5853","website":"https://www.prattlibrary.org/about-us/diversity-equity-inclusion/dei-projects/pratt-free-market","email":"","description":"The Pratt Free Market operates on a numbered ticket system to ensure a fair and organized shopping experience for all visitors.\nWednesday\tTicket distribution 8 am — sellout\nFriday (except fourth Friday—see below*)\tTicket distribution 10 am — sellout\nOn the 4th Friday of every month, the Pratt Free Market will also serve as a Pantry on the Go! location in partnership with the Maryland Food Bank, giving away free produce in a farmers' market-style setup outside the library. Available beginning at 10 am, while supplies last. Tickets are not required for Pantry on the Go! distribution."},{"id":"690cd011-4167-440d-bbbe-30162d2d9c3b","lat":39.22170819999999,"lng":-76.6131557,"name":"Brooklyn","org":"RCDC - H20 4 Life","address":"5317 Ritchie Highway, Brooklyn, MD 21225","city":"Brooklyn","state":"MD","zip":"21225","phone":"(410) 636-3114","website":"","email":"","description":"Food pantry service"},{"id":"aca7f13c-bf86-4309-adfa-70674ce0c71c","lat":39.2296069,"lng":-76.62176199999999,"name":"Brooklyn","org":"Belle Grove Elementary","address":"4502 Belle Grove Road, Brooklyn, MD 21225","city":"Brooklyn","state":"MD","zip":"21225","phone":"(410) 553-4505","website":"https://www.facebook.com/profile.php?id=100066705630064","email":"","description":"Food pantry service"},{"id":"468fa223-0fa6-43c4-9fbf-b77f00fdd2d8","lat":39.2258699,"lng":-76.6117695,"name":"Brooklyn","org":"Brooklyn Community United Methodist Church","address":"110 Townsend Avenue, Brooklyn, MD 21225","city":"Brooklyn","state":"MD","zip":"21225","phone":"(410) 789-3688","website":"","email":"","description":"Brooklyn Community United Methodist Church"},{"id":"9c6d13ea-8d6d-4f09-a903-483f6013ee72","lat":39.2253982,"lng":-76.5985963,"name":"Brooklyn Homes","org":"Bay Brook Elementary School","address":"4301 10th Street, Brooklyn Homes, MD 21225","city":"Brooklyn Homes","state":"MD","zip":"21225","phone":"(410) 553-4505","website":"https://www.facebook.com/profile.php?id=100066705630064","email":"","description":"Bay Brook Elementary School"},{"id":"9602dcbd-e81e-4bfe-94be-78f84b9750a7","lat":39.229912,"lng":-76.59828619999999,"name":"Brooklyn Homes","org":"We Our Us Movement","address":"4100 10th Street, Brooklyn Homes, MD 21225","city":"Brooklyn Homes","state":"MD","zip":"21225","phone":"","website":"https://weourusmovement.org/","email":"","description":"Community organization providing food assistance services"},{"id":"0c23718b-2bf0-4ba3-bd6a-432aae11ef5a","lat":39.0959319,"lng":-76.9486435,"name":"Burtonsville","org":"Kingdom Cares / Benjamin Banneker Middle School","address":"14800 Perrywood Drive, Burtonsville, MD 20866","city":"Burtonsville","state":"MD","zip":"20866","phone":"(301) 679-1100","website":"https://kgcdc.org/east-county-hub/","email":"","description":"Food pantry providing grab and go groceries"},{"id":"9fea2866-2bd2-4549-8c47-a94c71cac195","lat":39.2802922,"lng":-76.57297129999999,"name":"Canton","org":"Canton Free Little Pantry","address":"1030 South Ellwood Avenue, Canton, MD 21224","city":"Canton","state":"MD","zip":"21224","phone":"","website":"https://www.facebook.com/groups/642135508518868/","email":"","description":"Behind the Canton Library\nEastbound O'Donnell St & Decker Street\nNonperishables only"},{"id":"d22b6dbe-8409-4d65-a709-67e932265340","lat":38.9075,"lng":-76.9047,"name":"Capitol Heights","org":"Craig Memorial Community Church","address":"5305 Farmingdale Road, Capitol Heights, MD 20743","city":"Capitol Heights","state":"MD","zip":"20743","phone":"(301) 772-3812","website":"","email":"idastew@yahoo.com","description":"Community church providing food assistance services"},{"id":"a1a8c94a-cf54-4a74-a6b8-4f8a032d6beb","lat":38.88666500000001,"lng":-76.8644036,"name":"Capitol Heights","org":"GW Foundation (Warehouse #2)","address":"216 West Hampton Avenue, Capitol Heights, MD 20743","city":"Capitol Heights","state":"MD","zip":"20743","phone":"(240) 461-5248","website":"https://www.facebook.com/p/GW-Foundation-61561175583802/","email":"","description":"To make your appointments Text name, time of arrival and warehouse # where you want your appointment @(240) 461-5248\n\n* By regular message, WhatsApp and Signal only\n\n**No calls**\n\nIt is very difficult for us to answer calls and so many messages at once, thank you for your patience, we will confirm as soon as possible\n\n**NOTE:** PRODUCTS MAY VARY DURING THE DAY"},{"id":"e7541dcf-9329-407d-aa09-278b27d9e6f0","lat":38.9049925,"lng":-76.9191161,"name":"Capitol Heights","org":"Community Ministry of PG County (Meridian Hill Baptist)","address":"5354 Sheriff Road, Capitol Heights, MD 20743","city":"Capitol Heights","state":"MD","zip":"20743","phone":"(301) 499-2319","website":"https://cmpgc.com/","email":"","description":"Community ministry organization"},{"id":"07c4d42d-5c9b-4ff6-8d93-9773b0cc7b73","lat":38.8800597,"lng":-76.8527747,"name":"Capitol Heights","org":"GW Foundation (Warehouse #1)","address":"615 Hampton Park Boulevard, Capitol Heights, MD 20743","city":"Capitol Heights","state":"MD","zip":"20743","phone":"(240) 461-5248","website":"https://www.facebook.com/p/GW-Foundation-61561175583802/","email":"","description":"To make your appointments Text name, time of arrival and warehouse # where you want your appointment @(240) 461-5248\n\n* By regular message, WhatsApp and Signal only\n\n**No calls**\n\nIt is very difficult for us to answer calls and so many messages at once, thank you for your patience, we will confirm as soon as possible\n\n**NOTE:** PRODUCTS MAY VARY DURING THE DAY"},{"id":"ddb3e0f8-41fd-47a2-9c12-2fa588efbb46","lat":39.3261116,"lng":-76.68364389999999,"name":"Central Forest Park","org":"Liberty Rec & Tech Center","address":"3901 Maine Avenue, Central Forest Park, MD 21207","city":"Central Forest Park","state":"MD","zip":"21207","phone":"(443) 642-5353","website":"","email":"","description":"Liberty Rec & Tech Center"},{"id":"9f784089-5328-41ea-a1ef-b1813716b1f6","lat":39.31144,"lng":-76.616843,"name":"Charles North","org":"So What Else @ The Good Trouble Church at the Y Not Lot","address":"4 West North Avenue, Charles North, MD 21201","city":"Charles North","state":"MD","zip":"21201","phone":"(240) 705-4345","website":"https://www.sowhatelse.org/food-rescue-bank/baltimore-food-giveaways/","email":"","description":"Food rescue and distribution organization"},{"id":"9bb1fa95-a66d-4078-8e9a-08443a77426f","lat":39.5529757,"lng":-76.2381228,"name":"Churchville","org":"Smith's Chapel United Methodist Church","address":"3109 Churchville Road, Churchville, MD 21028","city":"Churchville","state":"MD","zip":"21028","phone":"(410) 734-7113","website":"https://www.smithschapelumc.org/","email":"","description":"Food service organization: Smith's Chapel United Methodist Church"},{"id":"a9128413-3f81-40b7-aa38-9a317f9bab3f","lat":39.5708997,"lng":-76.2195668,"name":"Churchville","org":"Helping Hands Ministries","address":"3237 Level Road, Churchville, MD 21028","city":"Churchville","state":"MD","zip":"21028","phone":"(410) 734-4214","website":"https://hhministries.net/","email":"","description":"Food service organization: Helping Hands Ministries"},{"id":"28260a32-6331-440b-804a-f7674465aeff","lat":39.3256096,"lng":-76.5889614,"name":"Coldstream Homestead Montebello","org":"Greater Faith Hope Tabernacle","address":"1900 East 30th Street, Coldstream Homestead Montebello, MD 21218","city":"Coldstream Homestead Montebello","state":"MD","zip":"21218","phone":"(410) 366-3920","website":"","email":"","description":"Entrance at 30th street"},{"id":"ff5e5080-07e6-44d5-aaec-07ac3dabea47","lat":39.32557459999999,"lng":-76.58971989999999,"name":"Coldstream Homestead Montebello","org":"The Barnes Memorial Church, Inc","address":"3000 Hillen Road, Coldstream Homestead Montebello, MD 21218","city":"Coldstream Homestead Montebello","state":"MD","zip":"21218","phone":"(443) 602-7339","website":"https://www.facebook.com/BarnesMemorialChurch/","email":"","description":"Community organization providing services in Coldstream Homestead Montebello"},{"id":"6df099cd-4d79-4087-a2d3-d1bb84c0dfa6","lat":39.2248195,"lng":-76.59187899999999,"name":"Curtis Bay","org":"Filbert Street Garden","address":"1321 Filbert Street, Curtis Bay, MD 21226","city":"Curtis Bay","state":"MD","zip":"21226","phone":"(443) 594-2050","website":"https://www.facebook.com/FilbertStreetGarden","email":"","description":"Open 24/7! Free, outdoor community fridge/pantry operated by local volunteers."},{"id":"9b7d261b-0ec0-46e0-9b7b-caf3ed741da7","lat":39.2925041,"lng":-76.61005310000002,"name":"Downtown","org":"So What Else @ Jones Falls Giveaway","address":"400 East Saratoga Street, Downtown, MD 21202","city":"Downtown","state":"MD","zip":"21202","phone":"(410) 429-0657","website":"https://www.sowhatelse.org/food-rescue-bank/baltimore-food-giveaways/","email":"","description":"Food giveaway service providing emergency food assistance"},{"id":"3d957c02-f46a-45ca-acbc-61f1f05e0330","lat":39.2855202,"lng":-76.61852259999999,"name":"Downtown West","org":"The Baltimore Convention Center","address":"1 West Pratt Street, Downtown West, MD 21201","city":"Downtown West","state":"MD","zip":"21201","phone":"","website":"https://goodwillches.org/thanksgiving/","email":"","description":"Food service organization: The Baltimore Convention Center"},{"id":"f5c6f742-9333-4f22-a52d-a56a8c3289a1","lat":39.3168273,"lng":-76.5983254,"name":"East Baltimore Midway","org":"Mission Life Church","address":"2409 Aisquith Street, East Baltimore Midway, MD 21218","city":"East Baltimore Midway","state":"MD","zip":"21218","phone":"(410) 469-9486","website":"https://www.mlifechurch.com/","email":"","description":"Food service organization: Mission Life Church"},{"id":"356537d7-64d0-4df2-a5d9-f90ed2f37dd8","lat":39.30146999999999,"lng":-76.445839,"name":"Essex","org":"Community Assistance Network @ Creative Kids","address":"958 Ashbridge Drive, Essex, MD 21221","city":"Essex","state":"MD","zip":"21221","phone":"(410) 285-4674","website":"https://www.canconnects.org/food-pantry","email":"","description":"Zip Codes serve: 21220, 21221, 21222, 21224, 21219, 21052\nWe strongly advise you to call 410-285-4674 or visit our Facebook page https://www.facebook.com/CANCONNECTS/(Community Assistance Network) for up-to-date information regarding inclement weather delays or closings before traveling to the Community Choice Pantry."},{"id":"848c17fd-f667-40c9-8727-2c267d2d6949","lat":39.3037202,"lng":-76.4845488,"name":"Essex","org":"Community Assistance Network @ Essex Gateway Center","address":"25 Eastern Boulevard, Essex, MD 21221","city":"Essex","state":"MD","zip":"21221","phone":"(410) 285-4674","website":"https://www.canconnects.org/food-pantry","email":"","description":"Please enter from Marie Ave\nZip Codes serve: 21220, 21221, 21222, 21224, 21219, 21052\nWe strongly advise you to call 410-285-4674 or visit our Facebook page https://www.facebook.com/CANCONNECTS/(Community Assistance Network) for up-to-date information regarding inclement weather delays or closings before traveling to the Community Choice Pantry."},{"id":"ba7cfbd0-89a2-4b0b-b2a2-187247cdda54","lat":39.3060883,"lng":-76.4804939,"name":"Essex","org":"AfriThrive Baltimore County","address":"303 Eastern Boulevard, Essex, MD 21221","city":"Essex","state":"MD","zip":"21221","phone":"(240) 706-1517","website":"https://www.afrithrive.org/healthy-food-initiative","email":"","description":"Food pantry service providing healthy food initiative"},{"id":"a44f9677-2cb3-4528-865d-3213c6c08976","lat":39.2993781,"lng":-76.6657601,"name":"Franklintown Road","org":"B More Loyal, Inc. Community Fridge & Freezer","address":"2900 Mosher Street, Franklintown Road, MD 21216","city":"Franklintown Road","state":"MD","zip":"21216","phone":"","website":"https://www.facebook.com/groups/642135508518868/","email":"","description":"Open 24/7! Free, outdoor community fridge/pantry operated by local volunteers."},{"id":"b59bc487-f002-40e5-8ba1-3f6ea10f7a03","lat":39.1273493,"lng":-77.1856839,"name":"Gaithersburg","org":"Epworth United Methodist Church","address":"9008 Rosemont Drive, Gaithersburg, MD 20877","city":"Gaithersburg","state":"MD","zip":"20877","phone":"UNKNOWN","website":"https://www.lordstablesoupkitchen.org/","email":"","description":"Guests are served a Bagged Lunch May through Sep: Monday – Friday, 1:30 – 2:30p.m.\n  Guests are served Hot Meals Oct through Apr: Monday – Friday, 3:30 – 4:30p.m."},{"id":"1ace8ecd-2cc8-40b0-aa28-c788bf76f00a","lat":39.1438983,"lng":-77.1877217,"name":"Gaithersburg","org":"Gaithersburg Middle School Parking Lot","address":"2 Teachers Way, Gaithersburg, MD 20877","city":"Gaithersburg","state":"MD","zip":"20877","phone":"(301) 424-1130","website":"https://www.mannafood.org/about/contact-manna/manna-food-distribution-sites/","email":"","description":"Call in advance for services\nOur truck will set up in the upper parking lot by the cafeteria on the side of the building.\nManna works in cooperation with certain qualifying community residences to provide food distribution.  Contact your resident manager to learn how to schedule a pick up."},{"id":"9c54c6df-fba0-4092-9ff0-58a4b5b1990e","lat":39.1903263,"lng":-77.1912134,"name":"Gaithersburg","org":"Covenant United Methodist Church","address":"20301 Pleasant Ridge Drive, Gaithersburg, MD 20886","city":"Gaithersburg","state":"MD","zip":"20886","phone":"","website":"https://www.facebook.com/LFPMV/","email":"","description":"Open 24/7! Free, outdoor community fridge/pantry operated by local volunteers."},{"id":"c33c9396-e0aa-4ff1-a084-17a9f7da3419","lat":39.155946,"lng":-77.19693699999999,"name":"Gaithersburg","org":"So What Else @ South Lake Elementary Parking Lot.","address":"18201 Contour Road, Gaithersburg, MD 20877","city":"Gaithersburg","state":"MD","zip":"20877","phone":"(240) 705-4345","website":"","email":"","description":"* Drive-thru food pantry"},{"id":"25c10de7-7d47-4e51-b7d4-4fe44deffda8","lat":39.1408639,"lng":-77.2070122,"name":"Gaithersburg","org":"So What Else @ Pathways Church","address":"200 West Diamond Avenue, Gaithersburg, MD 20877","city":"Gaithersburg","state":"MD","zip":"20877","phone":"(240) 705-4345","website":"https://www.pathwaysbc.org/connect/community-events/neighbor-helping-neighbor/","email":"","description":"Community food assistance program"},{"id":"e6473c60-d121-408e-8559-4f7a7a9558b7","lat":39.1955712,"lng":-77.1862081,"name":"Gaithersburg","org":"St. John Neumann Catholic Church","address":"9001 Warfield Road, Gaithersburg, MD 20882","city":"Gaithersburg","state":"MD","zip":"20882","phone":"(301) 977-5492","website":"https://sjncatholic.org/food-pantry","email":"","description":"Neman House Garage (Across the street from \nSt. John Neumann Church)"},{"id":"bcaa3bb4-6746-4cdc-806a-a2181639869a","lat":39.171,"lng":-77.255,"name":"Germantown","org":"HC - Germantown","address":"19801 Observation Drive, Germantown, MD 20876","city":"Germantown","state":"MD","zip":"20876","phone":"(301) 754-8735","website":"","email":"wylied@holycrosshealth.org","description":"Food assistance organization in Germantown, MD"},{"id":"809a3883-b72e-4ab5-8573-76d240593806","lat":39.1941677,"lng":-77.24076649999999,"name":"Germantown","org":"The Upcounty Hub @ Neelsville Middle School","address":"11700 Neelsville Church Road, Germantown, MD 20876","city":"Germantown","state":"MD","zip":"20876","phone":"(240) 912-1077","website":"https://www.theupcountyhub.org/distribution-calendar","email":"","description":"Food distribution service"},{"id":"65b98e49-ad9e-4358-ab14-5e9598bdc7fd","lat":39.2102434,"lng":-77.2453199,"name":"Germantown","org":"The Upcounty Hub @ Ridge Road Recreational Park","address":"21155 Frederick Road, Germantown, MD 20876","city":"Germantown","state":"MD","zip":"20876","phone":"(240) 912-1077","website":"https://www.theupcountyhub.org/distribution-calendar","email":"","description":"Food distribution service"},{"id":"ce179477-6488-43d3-ae64-d192466035ac","lat":39.19304169999999,"lng":-76.63741619999999,"name":"Glen Burnie","org":"North County High School","address":"10 East 1st Avenue, Glen Burnie, MD 21061","city":"Glen Burnie","state":"MD","zip":"21061","phone":"(410) 553-4505","website":"https://www.facebook.com/profile.php?id=100066705630064","email":"","description":"Food service organization: North County High School"},{"id":"9352175b-6a8b-4177-8c88-ae93466a2f37","lat":39.161444,"lng":-76.6747675,"name":"Glen Burnie","org":"New Kingdom Faith","address":"500 McCormick Drive, Glen Burnie, MD 21061","city":"Glen Burnie","state":"MD","zip":"21061","phone":"(410) 553-4566","website":"https://www.facebook.com/profile.php?id=100066705630064","email":"","description":"Food pantry service provider"},{"id":"72cf4183-7fc7-4053-a09e-a5d846820db5","lat":39.190283,"lng":-76.63518619999999,"name":"Glen Burnie","org":"Hilltop Elementary School","address":"415 Melrose Avenue, Glen Burnie, MD 21061","city":"Glen Burnie","state":"MD","zip":"21061","phone":"(410) 553-4505","website":"https://www.facebook.com/profile.php?id=100066705630064","email":"","description":"Food pantry service at Hilltop Elementary School"},{"id":"139249b5-6b6f-4522-ab63-b36c1289674b","lat":39.1613891,"lng":-76.6263189,"name":"Glen Burnie","org":"Glen Burnie United Methodist Church","address":"5 2nd Avenue Southeast, Glen Burnie, MD 21061","city":"Glen Burnie","state":"MD","zip":"21061","phone":"(410) 761-4381","website":"http://gbumchurch.org/events-calender/","email":"","description":"Food service organization: Glen Burnie United Methodist Church"},{"id":"dff22382-9fd7-4300-878d-69faf01c2441","lat":39.3416613,"lng":-76.5926872,"name":"Greater Northwood Covenant Association","org":"All Saints Evangelical Lutheran","address":"4215 Loch Raven Boulevard, Greater Northwood Covenant Association, MD 21218","city":"Greater Northwood Covenant Association","state":"MD","zip":"21218","phone":"(410) 889-8458","website":"https://www.allsaintslochraven.org/","email":"","description":"All Saints Evangelical Lutheran organization"},{"id":"fa885a2d-300f-49c2-986e-350580967f1c","lat":39.31058650000001,"lng":-76.6130582,"name":"Greenmount West","org":"Bmore Community Fridge","address":"209 McAllister Street, Greenmount West, MD 21202","city":"Greenmount West","state":"MD","zip":"21202","phone":"","website":"https://www.instagram.com/p/DH1q3wKy75x/?img_index=2","email":"","description":"The site isn't easy to find. Technically GPS lists it at 200 Eareckson Place. It is tucked next to blue light junction on hunter St, but faces Eareckson Place.)"},{"id":"48f8607f-7fdb-495e-821c-2af2407eca6c","lat":39.33253339999999,"lng":-76.6606932,"name":"Greenspring","org":"Plantation Park Heights Urban Farm Fridge","address":"3811 Park Heights Avenue, Greenspring, MD 21215","city":"Greenspring","state":"MD","zip":"21215","phone":"","website":"https://www.facebook.com/groups/642135508518868/","email":"","description":"Fridge is located in the farm\nThis fridge is stocked solely BY the farm. Neighbors are invited to take what they need, but unlike other BCFN sites, they do NOT accept outside donations. So, please don't leave anything on-site!"},{"id":"9261d3ba-784a-4a8b-b236-7ae181dd6c24","lat":39.3530448,"lng":-76.5646948,"name":"Harford - Echodale - Perring Parkway","org":"Gibbons Community Fridge","address":"2803 Gibbons Avenue, Harford - Echodale - Perring Parkway, MD 21214","city":"Harford - Echodale - Perring Parkway","state":"MD","zip":"21214","phone":"","website":"https://www.instagram.com/gibbonscommunityfridge/","email":"","description":"Open 24/7! Free, outdoor community fridge/pantry operated by local volunteers."},{"id":"f2033a38-a603-48c0-a41e-de9fba90e4fa","lat":39.35588179999999,"lng":-76.55884759999999,"name":"Harford - Echodale - Perring Parkway","org":"Sharon Seventh-day Adventist Church","address":"5814 Harford Road, Harford - Echodale - Perring Parkway, MD 21214","city":"Harford - Echodale - Perring Parkway","state":"MD","zip":"21214","phone":"(410) 444-8145","website":"","email":"","description":"next to the enoch Library on Harford road"},{"id":"7256120e-9339-4b2b-829b-cafb6981ca77","lat":38.975,"lng":-76.965,"name":"Hyattsville","org":"Shiloh Church Of God 7 Day","address":"5701 Eastern Ave, Hyattsville, MD 20781","city":"Hyattsville","state":"MD","zip":"20781","phone":"(202) 907-6072","website":"","email":"grantclaudette@ymail.com","description":"Food pantry operated by Shiloh Church Of God 7 Day"},{"id":"92e56320-c163-49cd-8fe2-a43eb199e782","lat":38.953,"lng":-76.942,"name":"Hyattsville","org":"Turner AME Church","address":"7201 16th Place, Hyattsville, MD 20783","city":"Hyattsville","state":"MD","zip":"20783","phone":"(301) 408-0750","website":"","email":"civy@turner-ame.org","description":"Food pantry operated by Turner AME Church"},{"id":"da929ce4-ca4d-4fbe-93db-b8cc408c65f6","lat":38.9658331,"lng":-76.9506567,"name":"Hyattsville","org":"Lutheran Mission Society Hyattsville Compassion Center","address":"3799 East-West Highway, Hyattsville, MD 20782","city":"Hyattsville","state":"MD","zip":"20782","phone":"(301) 277-2302","website":"https://www.compassionplace.org/centers","email":"","description":"Food pantry service"},{"id":"9aafd2ba-0aca-4829-a172-6e116e1fb8f4","lat":39.4565185,"lng":-76.4188925,"name":"Kingsville","org":"Kingsville Elementary School Summer Meals","address":"7300 Sunshine Avenue, Kingsville, MD 21087","city":"Kingsville","state":"MD","zip":"21087","phone":"(443) 809-7855","website":"https://www.bcps.org/foodandnutrition","email":"","description":"From 23rd June Till 15th August"},{"id":"598b47d5-67c6-46c0-9bf5-97a62e8cb3ae","lat":39.3441334,"lng":-76.6819696,"name":"Langston Hughes","org":"So What Else @ Dreamworks CDC","address":"3903 West Belvedere Avenue, Langston Hughes, MD 21215","city":"Langston Hughes","state":"MD","zip":"21215","phone":"(410) 429-0657","website":"https://www.sowhatelse.org/food-rescue-bank/baltimore-food-giveaways/","email":"","description":"Food rescue and distribution organization"},{"id":"d68a9f8d-e54a-4341-a242-3f9d31da28a4","lat":38.998819,"lng":-76.860992,"name":"Lanham","org":"Trinity Assembly of God","address":"7800 Good Luck Rd, Lanham, MD 20706","city":"Lanham","state":"MD","zip":"20706","phone":"(301) 841-6533","website":"","email":"info@themeljohnson.org","description":"Food assistance organization"},{"id":"daf42406-a68f-4665-a1b9-5838285f8e69","lat":38.9637,"lng":-76.8794,"name":"Lanham","org":"Destiny Driven","address":"5900 Princess Garden Parkway, Lanham, MD 20706","city":"Lanham","state":"MD","zip":"20706","phone":"(301) 455-5970","website":"","email":"destinydriveninternationalceo@gmail.com","description":"Food pantry organization providing food assistance services"},{"id":"79a01374-9845-4fef-bf09-2b968d993180","lat":38.94909579999999,"lng":-76.8554297,"name":"Lanham","org":"AfriThrive Prince George's County","address":"5120 Whitfield Chapel Road, Lanham, MD 20706","city":"Lanham","state":"MD","zip":"20706","phone":"(240) 706-1517","website":"https://www.afrithrive.org/healthy-food-initiative","email":"","description":"Food assistance organization"},{"id":"82d427be-6634-4747-9c38-b02a4c42f9a0","lat":39.24609699999999,"lng":-76.652862,"name":"Lansdowne - Baltimore Highlands","org":"Lansdowne High School","address":"3800 Hollins Ferry Road, Lansdowne - Baltimore Highlands, MD 21227","city":"Lansdowne - Baltimore Highlands","state":"MD","zip":"21227","phone":"(443) 809-1415","website":"","email":"","description":"Food pantry service"},{"id":"71b67091-e391-4e78-bb0a-4e29cfecc292","lat":39.236179,"lng":-76.6559159,"name":"Lansdowne - Baltimore Highlands","org":"Riverview Elementary","address":"3298 Kessler Road, Lansdowne - Baltimore Highlands, MD 21227","city":"Lansdowne - Baltimore Highlands","state":"MD","zip":"21227","phone":"(443) 809-1428","website":"","email":"","description":"Food pantry services"},{"id":"661cea6e-b008-400a-b2d9-d5dc7c3c6366","lat":39.237056,"lng":-76.6420785,"name":"Lansdowne - Baltimore Highlands","org":"Baltimore Highlands Elementary","address":"4200 Annapolis Road, Lansdowne - Baltimore Highlands, MD 21227","city":"Lansdowne - Baltimore Highlands","state":"MD","zip":"21227","phone":"(443) 809-0919","website":"https://baltimorehighlandses.bcps.org/staff_directory/support_staff_","email":"","description":"Food service organization: Baltimore Highlands Elementary"},{"id":"014c9372-cc76-4dc2-898f-f34d0c6a4d5d","lat":39.3522654,"lng":-76.569255,"name":"Lauraville","org":"Heart House Community Fridge","address":"5207 Catalpha Road, Lauraville, MD 21214","city":"Lauraville","state":"MD","zip":"21214","phone":"","website":"https://www.facebook.com/profile.php?id=61576221493009","email":"","description":"Open 24/7! Free, outdoor community fridge/pantry operated by local volunteers."},{"id":"274a8fbb-09cc-450e-bb01-a6df8acb469d","lat":39.1099,"lng":-76.8459,"name":"Laurel","org":"Faith Village of Greater Laurel, Inc.","address":"13714 Briarwood Drive, Laurel, MD 20708","city":"Laurel","state":"MD","zip":"20708","phone":"(202) 321-8468","website":"","email":"moodsultd@yahoo.com","description":"Food assistance organization providing TEFAP services"},{"id":"a70e4280-ae9c-4160-99d5-9ca90d4b4074","lat":39.0958376,"lng":-76.8175806,"name":"Laurel","org":"Maryland City Elementary","address":"3359 Crumpton South, Laurel, MD 20724","city":"Laurel","state":"MD","zip":"20724","phone":"(410) 553-4505","website":"https://www.facebook.com/profile.php?id=100066705630064","email":"","description":"Maryland City Elementary"},{"id":"c0d6a294-9208-4aff-947b-dad97c3fb976","lat":39.0934604,"lng":-76.84157990000001,"name":"Laurel","org":"FISH of Laurel Inc @ Laurel Multiservice Center","address":"204 Fort Meade Road, Laurel, MD 20707","city":"Laurel","state":"MD","zip":"20707","phone":"(301) 776-9296","website":"https://www.facebook.com/profile.php?id=100064802973776","email":"","description":"Food assistance services provided by FISH of Laurel Inc"},{"id":"934ea33a-3edd-442b-843e-305e3e2544a0","lat":39.071849,"lng":-76.8320592,"name":"Laurel","org":"MARYLAND CITY PARK","address":"565 Brock Bridge Road, Laurel, MD 20724","city":"Laurel","state":"MD","zip":"20724","phone":"UNKNOWN","website":"https://www.marylandfreefood.com/","email":"","description":"Food assistance program"},{"id":"7b185641-fe31-4c2e-ac02-b4854df286c1","lat":39.355783,"lng":-76.6095672,"name":"Mid-Govans","org":"Shepherd's Heart Missionary","address":"5405 York Road, Mid-Govans, MD 21212","city":"Mid-Govans","state":"MD","zip":"21212","phone":"(410) 323-4544","website":"https://www.shepherdsheartmissionary.org/","email":"","description":"Food pantry services"},{"id":"13ac77ee-97a0-4c71-8506-c468c047c653","lat":38.95,"lng":-76.82,"name":"Mitchellville","org":"Hope Presbyterian Church","address":"1100 Enterprise Road, Mitchellville, MD 20721","city":"Mitchellville","state":"MD","zip":"20721","phone":"(301) 249-7774","website":"","email":"nichi1994@yahoo.com","description":"Food assistance services provided by Hope Presbyterian Church"},{"id":"dc9bab6e-562f-43d4-929f-294c831bf0df","lat":39.2950859,"lng":-76.66122589999999,"name":"Mosher","org":"LaBurt-Mosher Community Fridge","address":"607 Ashburton Street, Mosher, MD 21216","city":"Mosher","state":"MD","zip":"21216","phone":"(443) 570-9931","website":"https://www.instagram.com/laburtmosher_community_fridge/","email":"","description":"Open 24/7! Free, outdoor community fridge/pantry operated by local volunteers."},{"id":"aa649bee-319c-4a3d-be27-5bb131617da0","lat":38.9348594,"lng":-76.9625812,"name":"Mount Rainier","org":"Alafia Baptist Church","address":"3623 Eastern Avenue Northeast, Mount Rainier, MD 20712","city":"Mount Rainier","state":"MD","zip":"20712","phone":"(301) 985-3090","website":"https://alafiabaptistchurchusa.org/","email":"e.adigun@verizon.net","description":"Community organization providing services"},{"id":"bb001034-86cb-44ed-a750-e4796f7444e1","lat":39.3768445,"lng":-76.5064081,"name":"Nottingham","org":"The Pantry–a ministry of Community Christian Church","address":"8032 Belair Road, Nottingham, MD 21236","city":"Nottingham","state":"MD","zip":"21236","phone":"(410) 882-1497","website":"https://communitycc.net/pantry/","email":"","description":"The Pantry is a generosity initiative whose purpose is to help families in the community who are having a difficult time by providing groceries and other needed items. The Pantry is stocked with perishable and non-perishable groceries, including milk and meat, as well as personal and household items. All Pantry services are provided by appointment only. We service clients in Northeast Baltimore County.\n\nIf you would like to receive help from The Pantry **[click here] https://communitycc.ccbchurch.com/goto/forms/683/responses/new or call (410) 882-1497 to leave a message.  All personal information is kept completely confidential.**"},{"id":"1211bba4-24fc-423d-8f23-ee89ef4904ee","lat":39.1506,"lng":-77.0669,"name":"Olney","org":"Iglesia Evangelica Cristo Promesa Fiel","address":"17017 Georgia Avenue, Olney, MD 20832","city":"Olney","state":"MD","zip":"20832","phone":"(240) 461-5059","website":"","email":"info@cristopromesafiel.org","description":"Food pantry service provided by Iglesia Evangelica Cristo Promesa Fiel"},{"id":"9f5c75f7-fb04-44d4-8d9f-d4339b9c1ede","lat":39.6222824,"lng":-76.6571987,"name":"Parkton","org":"Hereford High School Summer Meal Program","address":"17301 York Road, Parkton, MD 21120","city":"Parkton","state":"MD","zip":"21120","phone":"(443) 809-7855","website":"https://www.bcps.org/foodandnutrition/","email":"","description":"From June 23rd till August 15th"},{"id":"c7fc1ca1-421f-4f27-aaa6-3baf9ff2d007","lat":39.138257,"lng":-76.57273219999999,"name":"Pasadena","org":"Freetown Village","address":"7820 Darrell Henry Court, Pasadena, MD 21122","city":"Pasadena","state":"MD","zip":"21122","phone":"(410) 553-4505","website":"https://www.facebook.com/profile.php?id=100066705630064","email":"","description":"Community organization providing food assistance services"},{"id":"83cc6138-0e78-4010-9b33-9d57664b1ae0","lat":39.2938842,"lng":-76.57608379999999,"name":"Patterson Park Neighborhood","org":"Linwood Community Fridge","address":"123 North Linwood Avenue, Patterson Park Neighborhood, MD 21224","city":"Patterson Park Neighborhood","state":"MD","zip":"21224","phone":"","website":"https://www.instagram.com/linwoodcommunityfridge/","email":"","description":"Open 24/7! Free, outdoor community fridge/pantry operated by local volunteers."},{"id":"345c5e26-0dbf-4b4e-b628-ac0c1915992b","lat":39.31658039999999,"lng":-76.6322483,"name":"Reservoir Hill","org":"So What Else @ Lakeview Towers Apartments","address":"727 Druid Park Lake Drive, Reservoir Hill, MD 21217","city":"Reservoir Hill","state":"MD","zip":"21217","phone":"(410) 429-0657","website":"https://www.sowhatelse.org/food-rescue-bank/baltimore-food-giveaways/","email":"","description":"Food rescue and distribution services"},{"id":"f202c5a0-7dcf-4043-b926-f748fb1d0006","lat":38.9570608,"lng":-76.91638619999999,"name":"Riverdale","org":"St. Bernard of Clairvaux","address":"5700 Saint Bernard Drive, Riverdale, MD 20737","city":"Riverdale","state":"MD","zip":"20737","phone":"(301) 277-1000","website":"https://adw.org/parishes/st-bernard-of-clairvaux/","email":"","description":"Call +1 (301) 277-1000 by Tuesday to confirm schedule and make an appointment since there's no fix distribution day/time."},{"id":"bb2cc65e-d2a0-412f-8280-a5e6d33e755e","lat":39.1054,"lng":-77.2008,"name":"Rockville","org":"The Universities at Shady Grove","address":"9630 Gudelsky Drive, Rockville, MD 20850","city":"Rockville","state":"MD","zip":"20850","phone":"(301) 738-6000","website":"","email":"szelaya3@umd.edu","description":"Food assistance organization operating in Rockville, MD"},{"id":"f988c51a-5d09-4f64-a746-61dc27400881","lat":39.0817,"lng":-77.1336,"name":"Rockville","org":"The Universities at Shady Grove","address":"9630 Gudelsky Drive, Rockville, MD 20850","city":"Rockville","state":"MD","zip":"20850","phone":"(301) 738-6000","website":"","email":"szelaya3@umd.edu","description":"Food assistance organization operating in Rockville, MD"},{"id":"94bc1034-7a30-472c-b2cf-5574e693367c","lat":38.37048,"lng":-75.59084,"name":"Salisbury","org":"Salisbury Urban Ministries, God's Kitchen","address":"635 East Church Street, Salisbury, MD 21804","city":"Salisbury","state":"MD","zip":"21804","phone":"(410) 749-1563","website":"","email":"","description":"SOUP KITCHEN: Offers a free meal to anyone in need on Saturdays from 11AM to 12:30PM at Grace United Methodist Church."},{"id":"c5cb2d4a-940a-4ce5-82f0-f1769e88166e","lat":39.3065772,"lng":-76.64370939999999,"name":"Sandtown-Winchester","org":"Sandtown Winchester Senior Center","address":"1601 Baker Street, Sandtown-Winchester, MD 21217","city":"Sandtown-Winchester","state":"MD","zip":"21217","phone":"(410) 523-0061","website":"","email":"","description":"Senior center providing food assistance services"},{"id":"d6e0b7bf-c4c9-4770-bc3e-dd2b3b3d9aa9","lat":39.3012097,"lng":-76.6433642,"name":"Sandtown-Winchester","org":"St. Luke UMC","address":"1100 North Gilmor Street, Sandtown-Winchester, MD 21217","city":"Sandtown-Winchester","state":"MD","zip":"21217","phone":"(443) 762-6716","website":"https://stlukeumcbaltimore.org/contact-us","email":"","description":"St. Luke UMC"},{"id":"757faa31-a2c9-4b11-8e1d-47a2e3ee3c54","lat":39.1175119,"lng":-76.7080264,"name":"Severn","org":"Pioneer City","address":"8377 Pioneer Drive, Severn, MD 21144","city":"Severn","state":"MD","zip":"21144","phone":"(410) 553-4505","website":"https://www.facebook.com/profile.php?id=100066705630064","email":"","description":"Corner of Pioneer Dr. and Indian Dr. Severn"},{"id":"6cec7f85-d93f-4e7d-9abc-2790c4650c63","lat":39.060861,"lng":-76.967894,"name":"Silver Spring","org":"Allen Chapel AME Church Outreach Ministry","address":"2518 Fairland Road, Silver Spring, MD 20904","city":"Silver Spring","state":"MD","zip":"20904","phone":"(301) 404-2688","website":"","email":"dotboddie@yahoo.com","description":"Food pantry providing TEFAP services"},{"id":"d291d912-33a9-4e22-acca-c29881bd9afa","lat":39.0458,"lng":-77.0164,"name":"Silver Spring","org":"Chrisma Charities","address":"12805 Georgia Avenue, Silver Spring, MD 20906","city":"Silver Spring","state":"MD","zip":"20906","phone":"(202) 427-2816","website":"","email":"info@chrismacharities.org","description":"Food assistance organization providing TEFAP services"},{"id":"7cd9e807-b1b6-4f06-9752-15a369c2412f","lat":39.0463,"lng":-77.0297,"name":"Silver Spring","org":"Clifton Park Baptist Church","address":"8818 Piney Branch Rd, Silver Spring, MD 20903","city":"Silver Spring","state":"MD","zip":"20903","phone":"(301) 434-2456","website":"","email":"carolynpettus@verizon.net","description":"Food pantry services provided by Clifton Park Baptist Church"},{"id":"63379992-fc7c-4b1e-bcc5-8ec832ea2a46","lat":39.035,"lng":-77.015,"name":"Silver Spring","org":"First Alliance Church","address":"14500 New Hampshire Ave, Silver Spring, MD 20904","city":"Silver Spring","state":"MD","zip":"20904","phone":"(301) 785-8571","website":"","email":"Office@1stalliancechurch.com","description":"Food pantry services provided by First Alliance Church"},{"id":"2331f411-1f92-4d82-a434-52219890e81f","lat":39.0186,"lng":-77.0336,"name":"Silver Spring","org":"Kings and Priests International Ministries","address":"520 Randolph Road, Silver Spring, MD 20904","city":"Silver Spring","state":"MD","zip":"20904","phone":"(301) 467-6646","website":"","email":"kpciministries@gmail.com","description":"Food pantry providing TEFAP services"},{"id":"9f2900ca-86ab-4f25-a896-c86c6367853a","lat":39.039167,"lng":-77.046111,"name":"Silver Spring","org":"Silver Spring Christian Reformed Church","address":"1501 Arcola Ave, Silver Spring, MD 20902","city":"Silver Spring","state":"MD","zip":"20902","phone":"(301) 284-8401","website":"","email":"foodpantry@sscrc.org","description":"Food pantry services provided by Silver Spring Christian Reformed Church"},{"id":"dc1df475-fa25-40ad-916a-441de45eee73","lat":39.0014,"lng":-77.0269,"name":"Silver Spring","org":"Tommy's Pantry","address":"630 Silver Spring Ave., Silver Spring, MD 20910","city":"Silver Spring","state":"MD","zip":"20910","phone":"(202) 262-4537","website":"","email":"tommyspantry@gmail.com","description":"Food pantry serving the Silver Spring community"},{"id":"a33cf8b7-fad8-4494-b265-0f991f3b30ed","lat":39.0458,"lng":-77.0183,"name":"Silver Spring","org":"Washington Spanish SDA Church","address":"12604 New Hampshire Avenue, Silver Spring, MD 20904","city":"Silver Spring","state":"MD","zip":"20904","phone":"(240) 638-7086","website":"","email":"fatimaservices@hotmail.com","description":"Food assistance organization operated by Washington Spanish SDA Church"},{"id":"accb44f7-16f9-435b-8d93-ef4646ff1ce8","lat":39.0404159,"lng":-76.9944265,"name":"Silver Spring","org":"Kingdom Cares / Enclaves Apartments","address":"11225 Oak Leaf Drive, Silver Spring, MD 20901","city":"Silver Spring","state":"MD","zip":"20901","phone":"(301) 679-1100","website":"https://kgcdc.org/east-county-hub/#","email":"","description":"Food service organization: Kingdom Cares / Enclaves Apartments"},{"id":"cf165971-aab3-485c-97b2-d94343809168","lat":39.090289,"lng":-77.065056,"name":"Silver Spring","org":"AfriThrive Montgomery County","address":"3132 Bel Pre Road, Silver Spring, MD 20906","city":"Silver Spring","state":"MD","zip":"20906","phone":"(240) 706-1517","website":"https://www.afrithrive.org/healthy-food-initiative","email":"","description":"Community organization providing healthy food initiatives"},{"id":"1a7c92a3-b5ce-4a59-85c8-0ac87ee887d3","lat":39.1340714,"lng":-76.63519699999999,"name":"South Gate","org":"Glen View Gardens Apartments","address":"7987 Nolpark Court, South Gate, MD 21061","city":"South Gate","state":"MD","zip":"21061","phone":"(410) 553-4505","website":"https://www.facebook.com/profile.php?id=100066705630064","email":"","description":"Glen View Gardens Apartments"},{"id":"4221b930-44f5-441a-ad4f-5555b8a7a43c","lat":39.130762,"lng":-76.6236622,"name":"South Gate","org":"Quail Hollows","address":"7930 Silver Leaf Court, South Gate, MD 21061","city":"South Gate","state":"MD","zip":"21061","phone":"(410) 553-4505","website":"https://www.facebook.com/profile.php?id=100066705630064","email":"","description":"Food service organization: Quail Hollows"},{"id":"2cc04d39-967b-480e-b4e2-7755ec3c6a6e","lat":38.987654,"lng":-77.012345,"name":"TAKOMA PARK","org":"Educare Support Services","address":"7517 New Hampshire Avenue, TAKOMA PARK, MD 20912","city":"TAKOMA PARK","state":"MD","zip":"20912","phone":"(240) 450-2092","website":"","email":"info@educaremd.org","description":"Food assistance services provided by Educare Support Services"},{"id":"8817858f-0ede-4748-ab9b-48cc85302836","lat":39.4535375,"lng":-76.6379771,"name":"Timonium","org":"Baltimore Hunger Project","address":"9596 Deereco Road, Timonium, MD 21093","city":"Timonium","state":"MD","zip":"21093","phone":"(410) 989-1247","website":"https://www.baltimorehungerproject.org/whats-in-a-bag/","email":"","description":"Baltimore Hunger Project"},{"id":"a552e12f-33fa-42c1-a056-e4a1d1809c94","lat":39.2872717,"lng":-76.590741,"name":"Upper Fells Point","org":"Barbie Mansion Community Fridge","address":"315 South Durham Street, Upper Fells Point, MD 21231","city":"Upper Fells Point","state":"MD","zip":"21231","phone":"","website":"https://www.instagram.com/barbiemansion_foodpantry/","email":"","description":"Community food pantry and fridge service"},{"id":"4b1fd07a-5d62-4833-ad7f-0cc2827a68bd","lat":38.84,"lng":-76.76,"name":"Upper Marlboro","org":"The Sanctuary","address":"5300 Crain Highway, Upper Marlboro, MD 20772","city":"Upper Marlboro","state":"MD","zip":"20772","phone":"(301) 752-0778","website":"","email":"mscharander@gmail.com","description":"Food pantry service provider"},{"id":"ee4e572f-4baa-452a-b40a-52915e7791a9","lat":38.8355,"lng":-76.7646,"name":"Upper Marlboro","org":"Great Commission Change of Life Ministries","address":"7937 Penn Randall Place Unit A, Upper Marlboro, MD 20772","city":"Upper Marlboro","state":"MD","zip":"20772","phone":"(301) 541-9968","website":"","email":"keith.iola@verizon.net","description":"Food pantry services provided by Great Commission Change of Life Ministries"},{"id":"69f2a79f-2275-42a7-880e-00bcc661a1b7","lat":38.8514477,"lng":-76.8468798,"name":"Upper Marlboro","org":"Loaves & Fishes Community Food Pantry @ Ridley Ministries","address":"9235 D'Arcy Road, Upper Marlboro, MD 20774","city":"Upper Marlboro","state":"MD","zip":"20774","phone":"(301) 350-4298","website":"http://www.ridgleyministries.org","email":"","description":"Community food pantry operated by Ridley Ministries"},{"id":"d69d2ffe-36be-4dbe-8af6-e412f3dc7b6d","lat":39.3045847,"lng":-76.6363298,"name":"Upton","org":"The Journey to feeding Baltimore","address":"1822 Pennsylvania Avenue, Upton, MD 21217","city":"Upton","state":"MD","zip":"21217","phone":"","website":"https://www.facebook.com/groups/642135508518868/","email":"","description":"Open 24/7! Free, outdoor community fridge/pantry operated by local volunteers."},{"id":"2b1b2891-f144-4e29-bc0d-5a2b44aa82ce","lat":39.2991233,"lng":-76.6296732,"name":"Upton","org":"Pennsylvania Avenue A.M.E. Zion Church","address":"1128 Pennsylvania Avenue, Upton, MD 21201","city":"Upton","state":"MD","zip":"21201","phone":"(410) 728-7416","website":"https://www.pennaveamezion.church/","email":"","description":"Pennsylvania Avenue A.M.E. Zion Church"},{"id":"9c9f37c0-f628-4414-b5ec-d4a6bed9de9e","lat":39.2913882,"lng":-76.5926449,"name":"Washington Hill","org":"The Mix Church","address":"1725 East Baltimore Street, Washington Hill, MD 21231","city":"Washington Hill","state":"MD","zip":"21231","phone":"(410) 732-1414","website":"https://themixchurch.com/events/thanksgiving-giveaway/","email":"","description":"Community church providing food assistance services"},{"id":"82249db5-8f9c-4a38-a4f4-f34e2dfe3acb","lat":39.3384338,"lng":-76.7620903,"name":"Windsor Mill","org":"Maryland Free Food Summer Program","address":"3030 Rolling Road, Windsor Mill, MD 21244","city":"Windsor Mill","state":"MD","zip":"21244","phone":"(443) 524-3200","website":"https://www.marylandfreefood.com/","email":"","description":"Parent and Guardian pickup only"},{"id":"b96d6cad-5245-422d-9ab1-9fcf87011103","lat":39.3587644,"lng":-76.7920819,"name":"Windsor Mill","org":"SFSP Maryland / March Life Tribute Center","address":"5616 Old Court Road, Windsor Mill, MD 21244","city":"Windsor Mill","state":"MD","zip":"21244","phone":"(410) 655-0110","website":"https://www.sfspmaryland.com/","email":"","description":"Families now have more flexible ways to get kids the food and nutrition they need during summer with the SUN Meals To-Go program. Now you can pick up FREE summer meals and snacks for your kids. Free meal boxes in Maryland are open to any child aged 1-18 - no application needed."},{"id":"6a43b6d4-3b48-4e8f-9e2d-0b7474a6d5a3","lat":39.3518744,"lng":-76.6107286,"name":"York-Homeland","org":"Bmore Community Fridge Network","address":"454 Notre Dame Lane, York-Homeland, MD 21212","city":"York-Homeland","state":"MD","zip":"21212","phone":"","website":"https://www.facebook.com/groups/642135508518868/","email":"","description":"(Behind the Loyola Bldg)"}]}