{"metadata":{"generated":"2025-08-06T23:16:27.249427+00:00","total_locations":226,"states_covered":44,"coverage":"44 US states/territories","source":"HAARRRvest - Pantry Pirate Radio Database","database_path":"pantry_pirate_radio.sqlite","format_version":"1.0","filtered_by":"state = MD"},"locations":[{"id":"3e31a232-2f25-4c8a-b39b-05f8669888bd","lat":38.6729,"lng":-77.0365,"name":"Accokeek","org":"River Jordan, Inc.","address":"15809 Livingston Road, Accokeek, MD 20607","city":"Accokeek","state":"MD","zip":"20607","phone":"(301) 873-8704","website":"","email":"riverjordanproject@comcast.net","description":"Food pantry organization serving the Accokeek community in Prince George's County, Maryland"},{"id":"b3b82025-6de6-482b-8653-e75cbcd67e61","lat":39.313581,"lng":-77.46938569999999,"name":"Adamstown","org":"Carroll Manor Elementary School Summer Meals","address":"5624 Adamstown Road, Adamstown, MD 21710","city":"Adamstown","state":"MD","zip":"21710","phone":"(443) 809-7855","website":"https://www.bcps.org/foodandnutrition","email":"","description":"From 23rd June Till 15th August"},{"id":"e75712c9-b1b7-4cfd-95e1-0cf8269e9c62","lat":39.0458,"lng":-76.9558,"name":"Adelphi","org":"St. Michael and All Angels","address":"8501 New Hampshire Ave, Adelphi, MD 20783","city":"Adelphi","state":"MD","zip":"20783","phone":"UNKNOWN","website":"","email":"dg4720@yahoo.com","description":"Faith-based organization providing food assistance including TEFAP emergency food distribution services to the community."},{"id":"4b34faef-56ab-4b43-8aae-0068d186cd4f","lat":38.998414,"lng":-76.58817410000002,"name":"Annapolis","org":"First Christian Community Church","address":"1800 Hall Brown Road, Annapolis, MD 21401","city":"Annapolis","state":"MD","zip":"21401","phone":"(410) 224-5788","website":"https://www.thefccca.org/","email":"","description":"First Christian Community Church"},{"id":"1633597e-dc3d-42d9-bdde-35bb81a75c22","lat":38.9659378,"lng":-76.48983539999999,"name":"Annapolis","org":"Eastport United Methodist Church","address":"926 Bay Ridge Avenue, Annapolis, MD 21403","city":"Annapolis","state":"MD","zip":"21403","phone":"(410) 263-5490","website":"https://www.eastportumc.org/","email":"","description":"Eastport United Methodist Church"},{"id":"6a2cb3fd-a67b-4e1b-82ca-ebf618097452","lat":38.9970422,"lng":-76.5552283,"name":"Annapolis","org":"Annapolis Seventh Day Adventist Church","address":"1996 Generals Highway, Annapolis, MD 21401","city":"Annapolis","state":"MD","zip":"21401","phone":"(410) 266-8887","website":"https://www.annapolis-sda.org/","email":"","description":"Community organization providing services"},{"id":"326ed21c-1b85-43fd-8e89-988a8c13333e","lat":38.9691674,"lng":-76.5304173,"name":"Annapolis","org":"Bywater Community","address":"1903 Copeland Street, Annapolis, MD 21401","city":"Annapolis","state":"MD","zip":"21401","phone":"(410) 553-4505","website":"https://www.facebook.com/profile.php?id=100066705630064","email":"","description":"Community organization providing food assistance services"},{"id":"e4e735f9-fad2-4db8-9adf-e7b0fd8c140d","lat":39.1447,"lng":-77.0341,"name":"Ashton","org":"Living Legends Awards for Service to Humanity","address":"18800 New Hampshire Avenue, Ashton, MD 20861","city":"Ashton","state":"MD","zip":"20861","phone":"(240) 832-1039","website":"","email":"doreen@livinglegendsawards.org","description":"Community organization providing food assistance services in Ashton, Maryland."},{"id":"4452c3df-9f12-41ca-bd21-d0bd7bf614c6","lat":39.2222427,"lng":-76.6177627,"name":"Baltimore","org":"Brooklyn Park Elementary","address":"200 14th Avenue, Baltimore, MD 21225","city":"Baltimore","state":"MD","zip":"21225","phone":"(410) 553-4505","website":"https://www.facebook.com/profile.php?id=100066705630064","email":"","description":"Food distribution service"},{"id":"102a9ae1-3188-4ab2-b33d-f71138df0360","lat":39.2435617,"lng":-76.64832679999999,"name":"Baltimore","org":"mRelief SNAP Screener - Baltimore","address":", Baltimore, MD UNKNOWN","city":"Baltimore","state":"MD","zip":"UNKNOWN","phone":"","website":"https://apply.mrelief.com/screener","email":"","description":"Families need to complete the 2024-25 school meal & summer EBT application to receive summer benefits ($120 per eligible child)- name spelling, address, etc. all need to be up to date and accurate! Summer EBT Outreach Toolkit\" https://mymdthink.maryland.gov/home/#/sunbucks\nGo to https://apply.mrelief.com/screener or text \"Food\" to 74544 to check eligibility."},{"id":"377d2d7c-be0a-4a11-9b6e-096c7ca13779","lat":39.5942292,"lng":-76.3227288,"name":"Bel Air","org":"Lutheran Mission Society Hickory Compassion Center","address":"2500 Conowingo Road, Bel Air, MD 21015","city":"Bel Air","state":"MD","zip":"21015","phone":"(410) 974-9296","website":"https://www.compassionplace.org/centers","email":"","description":"Food distributed upon request during Center hours"},{"id":"3b82a002-333e-4f0c-8039-99dced5ff58f","lat":39.034,"lng":-76.905,"name":"Beltsville","org":"Emmanuel UMC","address":"11416 Cedar Lane, Beltsville, MD 20705","city":"Beltsville","state":"MD","zip":"20705","phone":"(301) 937-7114","website":"","email":"pastorking@eumcbeltsville.com","description":"Food pantry operated by Emmanuel United Methodist Church providing food assistance to the community."},{"id":"7fbfbabe-3766-4147-85e5-76fce8eb783c","lat":39.034,"lng":-76.908,"name":"Beltsville","org":"East Montgomery County Hub","address":"11710 Beltsville Drive, Beltsville, MD 20705","city":"Beltsville","state":"MD","zip":"20705","phone":"(240) 707-1085","website":"","email":"revsmith@kingdom.global","description":"Food pantry providing food assistance services in East Montgomery County"},{"id":"f0053f5f-bac4-4629-b05a-3c97d949bc22","lat":39.0348,"lng":-76.9066,"name":"Beltsville","org":"Emmanuel UMC","address":"11416 Cedar Lane, Beltsville, MD 20705","city":"Beltsville","state":"MD","zip":"20705","phone":"(301) 937-7114","website":"","email":"pastorking@eumcbeltsville.com","description":"Food pantry operated by Emmanuel United Methodist Church providing food assistance to the community."},{"id":"7c65fde4-4cf1-40ef-89d7-9038e6a69a71","lat":39.036,"lng":-76.909,"name":"Beltsville","org":"Lifehouse Church","address":"12304 Baltimore Avenue, Beltsville, MD 20705","city":"Beltsville","state":"MD","zip":"20705","phone":"(240) 419-8613","website":"","email":"bournehiza@gmail.com","description":"Faith-based organization providing food assistance through TEFAP (The Emergency Food Assistance Program) to community members in Beltsville, MD."},{"id":"937ed3d9-75ae-4f96-be31-aac9c369f321","lat":39.0068,"lng":-77.1017,"name":"Bethesda","org":"Nourishing Bethesda","address":"5020 Battery Lane, Bethesda, MD 20814","city":"Bethesda","state":"MD","zip":"20814","phone":"(301) 664-4630","website":"","email":"jfr@johnfross.com","description":"Food assistance organization providing nutritious food to community members in need"},{"id":"3dd510de-8729-4669-b917-034a8d40e8c0","lat":38.9352,"lng":-76.9314,"name":"Bladensburg","org":"Ports Town Church","address":"4500 57th Ave, Bladensburg, MD 20717","city":"Bladensburg","state":"MD","zip":"20717","phone":"(301) 525-6328","website":"","email":"ebrichardsonrn@gmail.com","description":"Community church providing food assistance services in Bladensburg, Maryland"},{"id":"d2901eb9-165e-4bb8-856c-a22237e4e2ff","lat":39.3059909,"lng":-76.62800399999999,"name":"Bolton Hill","org":"Baltimore Unity Hall","address":"1505 Eutaw Place, Bolton Hill, MD 21217","city":"Bolton Hill","state":"MD","zip":"21217","phone":"","website":"https://www.baltimoreunityhall.org/","email":"","description":"Baltimore Unity Hall"},{"id":"4ef7e3ff-3588-4b9b-b52a-82cbfcacb4bb","lat":38.9423,"lng":-76.7742,"name":"Bowie","org":"Divine Grace Mission","address":"4208 Glenn Dale Rd, Bowie, MD 20720","city":"Bowie","state":"MD","zip":"20720","phone":"(240) 468-8982","website":"","email":"nkechi1956@yahoo.com","description":"Food pantry providing emergency food assistance to families in need in the Bowie, Maryland area."},{"id":"8d178fcc-2e4b-4b19-a5a0-319563801db8","lat":38.942,"lng":-76.7794,"name":"Bowie","org":"Grace Baptist Church","address":"3121 Trinity Drive, Bowie, MD 20715","city":"Bowie","state":"MD","zip":"20715","phone":"(914)664-2676","website":"","email":"","description":"Grace Baptist Church operates a food pantry providing food assistance to community members in Mount Vernon, NY."},{"id":"e0ec63ea-7be9-422c-a62a-8b8fec7f9e9e","lat":38.6973,"lng":-76.8292,"name":"Brandywine","org":"Prince Georges Social Services - Gwynn Park High School","address":"13800 Brandywine Road, Brandywine, MD 20613","city":"Brandywine","state":"MD","zip":"20613","phone":"(301) 526-4081","website":"","email":"jcdiggs.md@comcast.net","description":"Social services organization providing food assistance at Gwynn Park High School location"},{"id":"f8529c8f-4173-499c-a151-4c8d74a5eed8","lat":39.2863418,"lng":-76.56670980000001,"name":"Brewers Hill","org":"Pratt Free Market @ Enoch Pratt Library","address":"3601 Eastern Avenue, Brewers Hill, MD 21224","city":"Brewers Hill","state":"MD","zip":"21224","phone":"(443) 984-5853","website":"https://www.prattlibrary.org/about-us/diversity-equity-inclusion/dei-projects/pratt-free-market","email":"","description":"The Pratt Free Market operates on a numbered ticket system to ensure a fair and organized shopping experience for all visitors.\nWednesday\tTicket distribution 8 am — sellout\nFriday (except fourth Friday—see below*)\tTicket distribution 10 am — sellout\nOn the 4th Friday of every month, the Pratt Free Market will also serve as a Pantry on the Go! location in partnership with the Maryland Food Bank, giving away free produce in a farmers' market-style setup outside the library. Available beginning at 10 am, while supplies last. Tickets are not required for Pantry on the Go! distribution."},{"id":"690cd011-4167-440d-bbbe-30162d2d9c3b","lat":39.22170819999999,"lng":-76.6131557,"name":"Brooklyn","org":"RCDC - H20 4 Life","address":"5317 Ritchie Highway, Brooklyn, MD 21225","city":"Brooklyn","state":"MD","zip":"21225","phone":"(410) 636-3114","website":"","email":"","description":"Food pantry service"},{"id":"aca7f13c-bf86-4309-adfa-70674ce0c71c","lat":39.2296069,"lng":-76.62176199999999,"name":"Brooklyn","org":"Belle Grove Elementary","address":"4502 Belle Grove Road, Brooklyn, MD 21225","city":"Brooklyn","state":"MD","zip":"21225","phone":"(410) 553-4505","website":"https://www.facebook.com/profile.php?id=100066705630064","email":"","description":"Food pantry service"},{"id":"468fa223-0fa6-43c4-9fbf-b77f00fdd2d8","lat":39.2258699,"lng":-76.6117695,"name":"Brooklyn","org":"Brooklyn Community United Methodist Church","address":"110 Townsend Avenue, Brooklyn, MD 21225","city":"Brooklyn","state":"MD","zip":"21225","phone":"(410) 789-3688","website":"","email":"","description":"Brooklyn Community United Methodist Church"},{"id":"9c6d13ea-8d6d-4f09-a903-483f6013ee72","lat":39.2253982,"lng":-76.5985963,"name":"Brooklyn Homes","org":"Bay Brook Elementary School","address":"4301 10th Street, Brooklyn Homes, MD 21225","city":"Brooklyn Homes","state":"MD","zip":"21225","phone":"(410) 553-4505","website":"https://www.facebook.com/profile.php?id=100066705630064","email":"","description":"Bay Brook Elementary School"},{"id":"9602dcbd-e81e-4bfe-94be-78f84b9750a7","lat":39.229912,"lng":-76.59828619999999,"name":"Brooklyn Homes","org":"We Our Us Movement","address":"4100 10th Street, Brooklyn Homes, MD 21225","city":"Brooklyn Homes","state":"MD","zip":"21225","phone":"","website":"https://weourusmovement.org/","email":"","description":"Community organization providing food assistance services"},{"id":"0c23718b-2bf0-4ba3-bd6a-432aae11ef5a","lat":39.0959319,"lng":-76.9486435,"name":"Burtonsville","org":"Kingdom Cares / Benjamin Banneker Middle School","address":"14800 Perrywood Drive, Burtonsville, MD 20866","city":"Burtonsville","state":"MD","zip":"20866","phone":"(301) 679-1100","website":"https://kgcdc.org/east-county-hub/","email":"","description":"Food pantry providing grab and go groceries"},{"id":"991b0f22-4917-44c5-a4f2-8d2086cfafb2","lat":38.80584,"lng":-76.90715,"name":"Camp Springs","org":"Bethel Stand for Life Outreach Ministries","address":"5210 Auth Rd., Camp Springs, MD 20746","city":"Camp Springs","state":"MD","zip":"20746","phone":"(301) 505-0496","website":"","email":"frederick.gaskins@gmail.com","description":"Faith-based outreach ministry providing food assistance services to the community in Camp Springs, Maryland."},{"id":"a9bf68dd-a7ca-4a40-982a-5004c4f8b0fe","lat":38.8059,"lng":-76.9094,"name":"Camp Springs","org":"Central Baptist Church of Camp Springs","address":"5600 Old Branch Avenue, Camp Springs, MD 20748","city":"Camp Springs","state":"MD","zip":"20748","phone":"(301) 899-3800","website":"","email":"info@centralbaptistchurchcs.org","description":"Church-based organization providing food assistance through TEFAP (The Emergency Food Assistance Program) to the Camp Springs community."},{"id":"9e9b5af3-5c8b-4bb9-a428-47c2d087d750","lat":38.7831,"lng":-76.9093,"name":"Camp Springs","org":"St. Stephen's Baptist Church","address":"5757 Temple Hill Road, Camp Springs, MD 20748","city":"Camp Springs","state":"MD","zip":"20748","phone":"(301) 899-8885","website":"","email":"robinreis27@gmail.com","description":"Baptist church in Camp Springs providing food assistance including TEFAP services to the community."},{"id":"9fea2866-2bd2-4549-8c47-a94c71cac195","lat":39.2802922,"lng":-76.57297129999999,"name":"Canton","org":"Canton Free Little Pantry","address":"1030 South Ellwood Avenue, Canton, MD 21224","city":"Canton","state":"MD","zip":"21224","phone":"","website":"https://www.facebook.com/groups/642135508518868/","email":"","description":"Behind the Canton Library\nEastbound O'Donnell St & Decker Street\nNonperishables only"},{"id":"f8ec73e6-acd6-4fae-832a-e6048e043d54","lat":38.8799,"lng":-76.905,"name":"Capital Heights","org":"Faith Temple No. 2 Church","address":"211 Maryland Park Drive, Capital Heights, MD 20743","city":"Capital Heights","state":"MD","zip":"20743","phone":"(301) 350-1035","website":"","email":"rhineshiggs@aol.com","description":"Faith-based organization providing food pantry services to the Capital Heights community"},{"id":"d22b6dbe-8409-4d65-a709-67e932265340","lat":38.9075,"lng":-76.9047,"name":"Capitol Heights","org":"Craig Memorial Community Church","address":"5305 Farmingdale Road, Capitol Heights, MD 20743","city":"Capitol Heights","state":"MD","zip":"20743","phone":"(301) 772-3812","website":"","email":"idastew@yahoo.com","description":"Community church providing food assistance services in Capitol Heights, Maryland"},{"id":"a1a8c94a-cf54-4a74-a6b8-4f8a032d6beb","lat":38.88666500000001,"lng":-76.8644036,"name":"Capitol Heights","org":"GW Foundation (Warehouse #2)","address":"216 West Hampton Avenue, Capitol Heights, MD 20743","city":"Capitol Heights","state":"MD","zip":"20743","phone":"(240) 461-5248","website":"https://www.facebook.com/p/GW-Foundation-61561175583802/","email":"","description":"To make your appointments Text name, time of arrival and warehouse # where you want your appointment @(240) 461-5248\n\n* By regular message, WhatsApp and Signal only\n\n**No calls**\n\nIt is very difficult for us to answer calls and so many messages at once, thank you for your patience, we will confirm as soon as possible\n\n**NOTE:** PRODUCTS MAY VARY DURING THE DAY"},{"id":"e7541dcf-9329-407d-aa09-278b27d9e6f0","lat":38.9049925,"lng":-76.9191161,"name":"Capitol Heights","org":"Community Ministry of PG County (Meridian Hill Baptist)","address":"5354 Sheriff Road, Capitol Heights, MD 20743","city":"Capitol Heights","state":"MD","zip":"20743","phone":"(301) 499-2319","website":"https://cmpgc.com/","email":"","description":"Community ministry organization"},{"id":"07c4d42d-5c9b-4ff6-8d93-9773b0cc7b73","lat":38.8800597,"lng":-76.8527747,"name":"Capitol Heights","org":"GW Foundation (Warehouse #1)","address":"615 Hampton Park Boulevard, Capitol Heights, MD 20743","city":"Capitol Heights","state":"MD","zip":"20743","phone":"(240) 461-5248","website":"https://www.facebook.com/p/GW-Foundation-61561175583802/","email":"","description":"To make your appointments Text name, time of arrival and warehouse # where you want your appointment @(240) 461-5248\n\n* By regular message, WhatsApp and Signal only\n\n**No calls**\n\nIt is very difficult for us to answer calls and so many messages at once, thank you for your patience, we will confirm as soon as possible\n\n**NOTE:** PRODUCTS MAY VARY DURING THE DAY"},{"id":"06cdc529-b986-4bb8-a1b8-89e91727aa66","lat":38.876,"lng":-76.907,"name":"Capitol Heights","org":"Community Outreach and Development Center CDC","address":"4719 Marlboro Pike, Capitol Heights, MD 20743","city":"Capitol Heights","state":"MD","zip":"20743","phone":"(301) 735-0121","website":"","email":"cyoung@communityoutreachcdc.org","description":"Community development center providing food assistance including TEFAP emergency food services to residents of Capitol Heights, MD."},{"id":"bc16a663-191d-4b76-aca2-1282fc885608","lat":38.9,"lng":-76.9,"name":"Capitol Heights","org":"Craig Memorial Community Church","address":"5305 Farmingdale Road, Capitol Heights, MD 20743","city":"Capitol Heights","state":"MD","zip":"20743","phone":"(301) 772-3812","website":"","email":"idastew@yahoo.com","description":"Community church providing food assistance services in Capitol Heights, Maryland"},{"id":"a0454d6d-719f-4299-b7da-3ffc4f1116ce","lat":38.8855,"lng":-76.9147,"name":"Capitol Heights","org":"First Baptist Church of Capitol Heights","address":"6 Capitol Heights Blvd, Capitol Heights, MD 20743","city":"Capitol Heights","state":"MD","zip":"20743","phone":"(301) 336-0722","website":"","email":"fbcchfoodpantry@outlook.com","description":"First Baptist Church providing food pantry services to the Capitol Heights community through TEFAP program"},{"id":"3cea03e9-6eae-4a3b-b5bc-f2da0e70baae","lat":38.7833,"lng":-76.9167,"name":"Capitol Heights","org":"Gethsemane United Methodist Church","address":"910 Addison Road, Capitol Heights, MD 20743","city":"Capitol Heights","state":"MD","zip":"20743","phone":"(301) 237-7116","website":"","email":"kcoates@gethsemaneumc.org","description":"United Methodist Church providing food assistance through TEFAP program"},{"id":"db91a68f-ab17-4e3f-b814-020864a066ab","lat":38.8776,"lng":-76.9075,"name":"Capitol Heights","org":"Greater Beulah Baptist Church","address":"6056 Old Central Ave, Capitol Heights, MD 20743","city":"Capitol Heights","state":"MD","zip":"20743","phone":"(301) 808-2660","website":"","email":"idastew@yahoo.com","description":"Baptist church providing food pantry services to the community"},{"id":"46efbc61-00cf-4c93-9a29-88fea3e3ed3a","lat":38.8951,"lng":-76.9113,"name":"Capitol Heights","org":"Mission of Love Charities, Inc.","address":"6180 Central Avenue, Capitol Heights, MD 20743","city":"Capitol Heights","state":"MD","zip":"20743","phone":"(301) 333-4440","website":"","email":"asorto@molc-inc.org","description":"Non-profit organization providing food assistance and charitable services in Capitol Heights, Maryland"},{"id":"2e2e9223-1b13-4019-87d0-e697dba145ee","lat":38.8951,"lng":-76.9133,"name":"Capitol Heights","org":"New Hope and Life Church of God, Inc.","address":"8616 Edgeworth Drive, Capitol Heights, MD 20743","city":"Capitol Heights","state":"MD","zip":"20743","phone":"(301) 324-5200","website":"","email":"newhopeandlifechurchofgod@gmail.com","description":"Community church organization providing food assistance services including TEFAP distribution in Capitol Heights, MD."},{"id":"54550f1a-5ac5-4b55-93a0-86329532bf35","lat":38.883333,"lng":-76.916667,"name":"Capitol Heights","org":"St. Margaret of Scotland Catholic Church","address":"408 Addison Road, South, Capitol Heights, MD 20743","city":"Capitol Heights","state":"MD","zip":"20743","phone":"(301) 526-9618","website":"","email":"katriceemail@gmail.com","description":"Catholic church providing emergency food assistance through TEFAP (The Emergency Food Assistance Program) to community members in need."},{"id":"3820da8f-c2f7-4609-8a7b-59bfe5e2a3cf","lat":38.8744,"lng":-76.9197,"name":"Capitol Heights","org":"Walker Mill Community Development Center","address":"6801 Walker Mill Rd, Capitol Heights, MD 20743","city":"Capitol Heights","state":"MD","zip":"20743","phone":"(301) 257-3771","website":"","email":"ezone_govan@nps.gov","description":"Community development center providing food assistance services including TEFAP (The Emergency Food Assistance Program) to the Capitol Heights community."},{"id":"ddb3e0f8-41fd-47a2-9c12-2fa588efbb46","lat":39.3261116,"lng":-76.68364389999999,"name":"Central Forest Park","org":"Liberty Rec & Tech Center","address":"3901 Maine Avenue, Central Forest Park, MD 21207","city":"Central Forest Park","state":"MD","zip":"21207","phone":"(443) 642-5353","website":"","email":"","description":"Liberty Rec & Tech Center"},{"id":"9f784089-5328-41ea-a1ef-b1813716b1f6","lat":39.31144,"lng":-76.616843,"name":"Charles North","org":"So What Else @ The Good Trouble Church at the Y Not Lot","address":"4 West North Avenue, Charles North, MD 21201","city":"Charles North","state":"MD","zip":"21201","phone":"(240) 705-4345","website":"https://www.sowhatelse.org/food-rescue-bank/baltimore-food-giveaways/","email":"","description":"Food rescue and distribution organization"},{"id":"9bb1fa95-a66d-4078-8e9a-08443a77426f","lat":39.5529757,"lng":-76.2381228,"name":"Churchville","org":"Smith's Chapel United Methodist Church","address":"3109 Churchville Road, Churchville, MD 21028","city":"Churchville","state":"MD","zip":"21028","phone":"(410) 734-7113","website":"https://www.smithschapelumc.org/","email":"","description":"Food service organization: Smith's Chapel United Methodist Church"},{"id":"a9128413-3f81-40b7-aa38-9a317f9bab3f","lat":39.5708997,"lng":-76.2195668,"name":"Churchville","org":"Helping Hands Ministries","address":"3237 Level Road, Churchville, MD 21028","city":"Churchville","state":"MD","zip":"21028","phone":"(410) 734-4214","website":"https://hhministries.net/","email":"","description":"Food service organization: Helping Hands Ministries"},{"id":"5e868766-35dd-4107-bdee-e2d84ce3fa8f","lat":38.7484,"lng":-76.8781,"name":"Clinton","org":"Greater Refuge Ministries","address":"9512 Piscataway Road, Clinton, MD 20735","city":"Clinton","state":"MD","zip":"20735","phone":"(202) 702-7248","website":"","email":"jimtaxes@gmail.com","description":"Food pantry providing food assistance to community members in need"},{"id":"466e37b1-bca7-4f78-844c-24c5ed07f046","lat":38.7489,"lng":-76.8813,"name":"Clinton","org":"Mount Ennon Baptist Church","address":"9832 Piscataway Road, Clinton, MD 20735","city":"Clinton","state":"MD","zip":"20735","phone":"(301) 856-2170","website":"","email":"dneal2308@gmail.com","description":"Baptist church providing food assistance services including TEFAP distribution to the community"},{"id":"4115583f-111b-4a05-867d-56631f3adf3e","lat":38.7439,"lng":-76.8982,"name":"Clinton","org":"Operation Earnie's Plate","address":"8500 Mike Shapiro Dr, Clinton, MD 20735","city":"Clinton","state":"MD","zip":"20735","phone":"(301) 404-4461","website":"","email":"earniesplate@gmail.com","description":"Community food pantry providing food assistance services in Clinton, Maryland."},{"id":"28260a32-6331-440b-804a-f7674465aeff","lat":39.3256096,"lng":-76.5889614,"name":"Coldstream Homestead Montebello","org":"Greater Faith Hope Tabernacle","address":"1900 East 30th Street, Coldstream Homestead Montebello, MD 21218","city":"Coldstream Homestead Montebello","state":"MD","zip":"21218","phone":"(410) 366-3920","website":"","email":"","description":"Entrance at 30th street"},{"id":"ff5e5080-07e6-44d5-aaec-07ac3dabea47","lat":39.32557459999999,"lng":-76.58971989999999,"name":"Coldstream Homestead Montebello","org":"The Barnes Memorial Church, Inc","address":"3000 Hillen Road, Coldstream Homestead Montebello, MD 21218","city":"Coldstream Homestead Montebello","state":"MD","zip":"21218","phone":"(443) 602-7339","website":"https://www.facebook.com/BarnesMemorialChurch/","email":"","description":"Community organization providing services in Coldstream Homestead Montebello"},{"id":"71fb24ee-5fd8-4254-8707-c8dcdac3aaa3","lat":38.9897,"lng":-76.9378,"name":"College Park","org":"College Park Community Food Bank","address":"9704 Rhode Island Ave, College Park, MD 20740","city":"College Park","state":"MD","zip":"20740","phone":"(301) 364-4931","website":"","email":"cpcommunityfoodbank@gmail.com","description":"Community food bank providing food assistance services in College Park, Maryland"},{"id":"6df099cd-4d79-4087-a2d3-d1bb84c0dfa6","lat":39.2248195,"lng":-76.59187899999999,"name":"Curtis Bay","org":"Filbert Street Garden","address":"1321 Filbert Street, Curtis Bay, MD 21226","city":"Curtis Bay","state":"MD","zip":"21226","phone":"(443) 594-2050","website":"https://www.facebook.com/FilbertStreetGarden","email":"","description":"Open 24/7! Free, outdoor community fridge/pantry operated by local volunteers."},{"id":"7247eceb-85a8-49cd-b4bb-d957c9f18322","lat":38.82,"lng":-76.91,"name":"District Heights","org":"ECWA USA Evangelical Church Winning All","address":"5526 Marlboro Pike, District Heights, MD 20747","city":"District Heights","state":"MD","zip":"20747","phone":"(240) 743-6560","website":"","email":"alheabdu@yahoo.com","description":"Evangelical church providing food assistance services to the community"},{"id":"ccdebe78-fd2d-418b-b70f-aa936768eaba","lat":38.85,"lng":-76.89,"name":"District Heights","org":"First Baptist Church of District Heights","address":"7234 Lansdale Street, District Heights, MD 20747","city":"District Heights","state":"MD","zip":"20747","phone":"(301) 887-7380","website":"","email":"ematthews@fbcdh.org","description":"Faith-based organization providing food assistance services to the District Heights community"},{"id":"4c95670e-9450-4c8f-9d9b-a5c4f95a9126","lat":38.8173,"lng":-76.8853,"name":"District Heights","org":"Second Baptist Church Southwest","address":"5501 Silver Hill Road, District Heights, MD 20747","city":"District Heights","state":"MD","zip":"20747","phone":"(301) 266-9116","website":"","email":"gford87333@aol.com","description":"Faith-based organization providing food assistance services to the community through food pantry programs."},{"id":"9b7d261b-0ec0-46e0-9b7b-caf3ed741da7","lat":39.2925041,"lng":-76.61005310000002,"name":"Downtown","org":"So What Else @ Jones Falls Giveaway","address":"400 East Saratoga Street, Downtown, MD 21202","city":"Downtown","state":"MD","zip":"21202","phone":"(410) 429-0657","website":"https://www.sowhatelse.org/food-rescue-bank/baltimore-food-giveaways/","email":"","description":"Food giveaway service providing emergency food assistance"},{"id":"3d957c02-f46a-45ca-acbc-61f1f05e0330","lat":39.2855202,"lng":-76.61852259999999,"name":"Downtown West","org":"The Baltimore Convention Center","address":"1 West Pratt Street, Downtown West, MD 21201","city":"Downtown West","state":"MD","zip":"21201","phone":"","website":"https://goodwillches.org/thanksgiving/","email":"","description":"Food service organization: The Baltimore Convention Center"},{"id":"f5c6f742-9333-4f22-a52d-a56a8c3289a1","lat":39.3168273,"lng":-76.5983254,"name":"East Baltimore Midway","org":"Mission Life Church","address":"2409 Aisquith Street, East Baltimore Midway, MD 21218","city":"East Baltimore Midway","state":"MD","zip":"21218","phone":"(410) 469-9486","website":"https://www.mlifechurch.com/","email":"","description":"Food service organization: Mission Life Church"},{"id":"356537d7-64d0-4df2-a5d9-f90ed2f37dd8","lat":39.30146999999999,"lng":-76.445839,"name":"Essex","org":"Community Assistance Network @ Creative Kids","address":"958 Ashbridge Drive, Essex, MD 21221","city":"Essex","state":"MD","zip":"21221","phone":"(410) 285-4674","website":"https://www.canconnects.org/food-pantry","email":"","description":"Zip Codes serve: 21220, 21221, 21222, 21224, 21219, 21052\nWe strongly advise you to call 410-285-4674 or visit our Facebook page https://www.facebook.com/CANCONNECTS/(Community Assistance Network) for up-to-date information regarding inclement weather delays or closings before traveling to the Community Choice Pantry."},{"id":"848c17fd-f667-40c9-8727-2c267d2d6949","lat":39.3037202,"lng":-76.4845488,"name":"Essex","org":"Community Assistance Network @ Essex Gateway Center","address":"25 Eastern Boulevard, Essex, MD 21221","city":"Essex","state":"MD","zip":"21221","phone":"(410) 285-4674","website":"https://www.canconnects.org/food-pantry","email":"","description":"Please enter from Marie Ave\nZip Codes serve: 21220, 21221, 21222, 21224, 21219, 21052\nWe strongly advise you to call 410-285-4674 or visit our Facebook page https://www.facebook.com/CANCONNECTS/(Community Assistance Network) for up-to-date information regarding inclement weather delays or closings before traveling to the Community Choice Pantry."},{"id":"ba7cfbd0-89a2-4b0b-b2a2-187247cdda54","lat":39.3060883,"lng":-76.4804939,"name":"Essex","org":"AfriThrive Baltimore County","address":"303 Eastern Boulevard, Essex, MD 21221","city":"Essex","state":"MD","zip":"21221","phone":"(240) 706-1517","website":"https://www.afrithrive.org/healthy-food-initiative","email":"","description":"Food pantry service providing healthy food initiative"},{"id":"4c065900-3bbb-40c3-b5d7-ec2d90933fa3","lat":38.852,"lng":-76.897,"name":"Forestville","org":"Mt. Calvary Catholic Church, Ladies of Charity Food Pantry","address":"6706 Marlboro Pike, Forestville, MD 20747","city":"Forestville","state":"MD","zip":"20747","phone":"(301) 735-5532","website":"","email":"","description":"Food pantry operated by Mt. Calvary Catholic Church providing emergency food assistance through the Ladies of Charity ministry"},{"id":"97331e78-d70f-41e9-a97f-a17b8ac508df","lat":38.7,"lng":-76.9,"name":"Fort Washington","org":"Fort Washington Food Pantry","address":"9801 Livingston Road, Fort Washington, MD 20744","city":"Fort Washington","state":"MD","zip":"20744","phone":"(202) 679-8898","website":"","email":"janehudnall@gmail.com","description":"Food pantry serving the Fort Washington community providing food assistance to individuals and families in need."},{"id":"0201ae03-2e2d-4e43-bf23-0404cf6a4c2b","lat":38.7339,"lng":-76.9947,"name":"Fort Washington","org":"Fort Foote Baptist Church","address":"8310 Fort Foot Road, Fort Washington, MD 20744","city":"Fort Washington","state":"MD","zip":"20744","phone":"(301) 839-1343","website":"","email":"jbrown1009@verizon.net","description":"Baptist church providing food assistance through TEFAP program"},{"id":"cc3b979f-5fbc-4c2b-a3a0-10286fbda377","lat":38.7537,"lng":-77.0297,"name":"Fort Washington","org":"Fountain of Restoration Church","address":"12304 Livingston Rd, Fort Washington, MD 20744","city":"Fort Washington","state":"MD","zip":"20744","phone":"(301) 433-5715","website":"","email":"omonibeauty1@yahoo.com","description":"A church-based organization providing food assistance services to the Fort Washington, MD community."},{"id":"a44f9677-2cb3-4528-865d-3213c6c08976","lat":39.2993781,"lng":-76.6657601,"name":"Franklintown Road","org":"B More Loyal, Inc. Community Fridge & Freezer","address":"2900 Mosher Street, Franklintown Road, MD 21216","city":"Franklintown Road","state":"MD","zip":"21216","phone":"","website":"https://www.facebook.com/groups/642135508518868/","email":"","description":"Open 24/7! Free, outdoor community fridge/pantry operated by local volunteers."},{"id":"b59bc487-f002-40e5-8ba1-3f6ea10f7a03","lat":39.1273493,"lng":-77.1856839,"name":"Gaithersburg","org":"Epworth United Methodist Church","address":"9008 Rosemont Drive, Gaithersburg, MD 20877","city":"Gaithersburg","state":"MD","zip":"20877","phone":"UNKNOWN","website":"https://www.lordstablesoupkitchen.org/","email":"","description":"Guests are served a Bagged Lunch May through Sep: Monday – Friday, 1:30 – 2:30p.m.\n  Guests are served Hot Meals Oct through Apr: Monday – Friday, 3:30 – 4:30p.m."},{"id":"1ace8ecd-2cc8-40b0-aa28-c788bf76f00a","lat":39.1438983,"lng":-77.1877217,"name":"Gaithersburg","org":"Gaithersburg Middle School Parking Lot","address":"2 Teachers Way, Gaithersburg, MD 20877","city":"Gaithersburg","state":"MD","zip":"20877","phone":"(301) 424-1130","website":"https://www.mannafood.org/about/contact-manna/manna-food-distribution-sites/","email":"","description":"Call in advance for services\nOur truck will set up in the upper parking lot by the cafeteria on the side of the building.\nManna works in cooperation with certain qualifying community residences to provide food distribution.  Contact your resident manager to learn how to schedule a pick up."},{"id":"9c54c6df-fba0-4092-9ff0-58a4b5b1990e","lat":39.1903263,"lng":-77.1912134,"name":"Gaithersburg","org":"Covenant United Methodist Church","address":"20301 Pleasant Ridge Drive, Gaithersburg, MD 20886","city":"Gaithersburg","state":"MD","zip":"20886","phone":"","website":"https://www.facebook.com/LFPMV/","email":"","description":"Open 24/7! Free, outdoor community fridge/pantry operated by local volunteers."},{"id":"c33c9396-e0aa-4ff1-a084-17a9f7da3419","lat":39.155946,"lng":-77.19693699999999,"name":"Gaithersburg","org":"So What Else @ South Lake Elementary Parking Lot.","address":"18201 Contour Road, Gaithersburg, MD 20877","city":"Gaithersburg","state":"MD","zip":"20877","phone":"(240) 705-4345","website":"","email":"","description":"* Drive-thru food pantry"},{"id":"25c10de7-7d47-4e51-b7d4-4fe44deffda8","lat":39.1408639,"lng":-77.2070122,"name":"Gaithersburg","org":"So What Else @ Pathways Church","address":"200 West Diamond Avenue, Gaithersburg, MD 20877","city":"Gaithersburg","state":"MD","zip":"20877","phone":"(240) 705-4345","website":"https://www.pathwaysbc.org/connect/community-events/neighbor-helping-neighbor/","email":"","description":"Community food assistance program"},{"id":"e6473c60-d121-408e-8559-4f7a7a9558b7","lat":39.1955712,"lng":-77.1862081,"name":"Gaithersburg","org":"St. John Neumann Catholic Church","address":"9001 Warfield Road, Gaithersburg, MD 20882","city":"Gaithersburg","state":"MD","zip":"20882","phone":"(301) 977-5492","website":"https://sjncatholic.org/food-pantry","email":"","description":"Neman House Garage (Across the street from \nSt. John Neumann Church)"},{"id":"b549e80a-8344-4ce5-9bf5-2d2923131677","lat":39.1395,"lng":-77.2011,"name":"Gaithersburg","org":"First African Methodist Episcopal Church of Gaithersburg","address":"17620 Washington Grove Lane, Gaithersburg, MD 20877","city":"Gaithersburg","state":"MD","zip":"20877","phone":"(240) 632-9760","website":"","email":"vanettalbrice@gmail.com","description":"Religious organization providing food pantry services to the community in Gaithersburg, Maryland"},{"id":"2d4885f8-12d0-4b10-ad08-2e8de8c6b834","lat":39.1637,"lng":-77.2014,"name":"Gaithersburg","org":"Gaithersburg Soup Kitchen","address":"9008 Rosemont Drive, Gaithersburg, MD 20877","city":"Gaithersburg","state":"MD","zip":"20877","phone":"(301) 706-2318","website":"","email":"pdono1417@gmail.com","description":"Community soup kitchen providing food assistance through TEFAP program"},{"id":"f97be46c-2801-49d1-8778-c3a5d9653de1","lat":39.1537,"lng":-77.2011,"name":"Gaithersburg","org":"Manna Food Center","address":"9311 Gaither Rd, Gaithersburg, MD 20877","city":"Gaithersburg","state":"MD","zip":"20877","phone":"(240) 268-2549","website":"","email":"edwin@mannafood.org","description":"Food distribution center providing emergency food assistance and TEFAP services to the community"},{"id":"8680be55-ae0d-4529-b7e4-4a17aef61de0","lat":39.1437,"lng":-77.2014,"name":"Gaithersburg","org":"Montgomery County Muslim Foundation","address":"11 Park Ave, Gaithersburg, MD 20877","city":"Gaithersburg","state":"MD","zip":"20877","phone":"(301) 825-3657","website":"","email":"mcmfmd@gmail.com","description":"Community organization providing food assistance through TEFAP program"},{"id":"9a64f732-cb69-44dd-a3b3-fafe360ff89b","lat":39.1667,"lng":-77.2167,"name":"Gaithersburg","org":"Seneca Creek Community Church (Gaithersburg CARES)","address":"13 Firstfield Rd, Gaithersburg, MD 20878","city":"Gaithersburg","state":"MD","zip":"20878","phone":"(301) 793-3321","website":"","email":"Sharon@senecacreek.org","description":"Community church providing food assistance services through Gaithersburg CARES program in partnership with Capital Area Food Bank."},{"id":"bcaa3bb4-6746-4cdc-806a-a2181639869a","lat":39.171,"lng":-77.255,"name":"Germantown","org":"HC - Germantown","address":"19801 Observation Drive, Germantown, MD 20876","city":"Germantown","state":"MD","zip":"20876","phone":"(301) 754-8735","website":"","email":"wylied@holycrosshealth.org","description":"Food assistance organization serving the Germantown, Maryland community through the Capital Area Food Bank network."},{"id":"809a3883-b72e-4ab5-8573-76d240593806","lat":39.1941677,"lng":-77.24076649999999,"name":"Germantown","org":"The Upcounty Hub @ Neelsville Middle School","address":"11700 Neelsville Church Road, Germantown, MD 20876","city":"Germantown","state":"MD","zip":"20876","phone":"(240) 912-1077","website":"https://www.theupcountyhub.org/distribution-calendar","email":"","description":"Food distribution service"},{"id":"65b98e49-ad9e-4358-ab14-5e9598bdc7fd","lat":39.2102434,"lng":-77.2453199,"name":"Germantown","org":"The Upcounty Hub @ Ridge Road Recreational Park","address":"21155 Frederick Road, Germantown, MD 20876","city":"Germantown","state":"MD","zip":"20876","phone":"(240) 912-1077","website":"https://www.theupcountyhub.org/distribution-calendar","email":"","description":"Food distribution service"},{"id":"db137061-9098-497c-9b35-97a4dc445b70","lat":39.1731,"lng":-77.2411,"name":"Germantown","org":"HC - Germantown","address":"19801 Observation Drive, Germantown, MD 20876","city":"Germantown","state":"MD","zip":"20876","phone":"(301) 754-8735","website":"","email":"wylied@holycrosshealth.org","description":"Food assistance organization serving the Germantown, Maryland community through the Capital Area Food Bank network."},{"id":"36dd3c1d-c4b8-4f82-9080-353f0f7449bc","lat":39.1734,"lng":-77.2664,"name":"Germantown","org":"MC - Germantown","address":"20200 Observation Dr, Germantown, MD 20876","city":"Germantown","state":"MD","zip":"20876","phone":"(240) 567-5000","website":"","email":"julia.kann@montgomerycollege.edu","description":"Montgomery College Germantown campus food pantry providing food assistance to students and community members"},{"id":"af49d398-e4cc-4855-9b2a-c7b258f1c6bc","lat":39.1731,"lng":-77.2772,"name":"Germantown","org":"The Upcounty Hub Inc","address":"12900 Middlebrook Road Suite 1100, Germantown, MD 20874","city":"Germantown","state":"MD","zip":"20874","phone":"(240) 912-1077","website":"","email":"moven@upcountyhub.org","description":"Community food assistance organization providing food pantry services in Montgomery County, Maryland"},{"id":"ce179477-6488-43d3-ae64-d192466035ac","lat":39.19304169999999,"lng":-76.63741619999999,"name":"Glen Burnie","org":"North County High School","address":"10 East 1st Avenue, Glen Burnie, MD 21061","city":"Glen Burnie","state":"MD","zip":"21061","phone":"(410) 553-4505","website":"https://www.facebook.com/profile.php?id=100066705630064","email":"","description":"Food service organization: North County High School"},{"id":"9352175b-6a8b-4177-8c88-ae93466a2f37","lat":39.161444,"lng":-76.6747675,"name":"Glen Burnie","org":"New Kingdom Faith","address":"500 McCormick Drive, Glen Burnie, MD 21061","city":"Glen Burnie","state":"MD","zip":"21061","phone":"(410) 553-4566","website":"https://www.facebook.com/profile.php?id=100066705630064","email":"","description":"Food pantry service provider"},{"id":"72cf4183-7fc7-4053-a09e-a5d846820db5","lat":39.190283,"lng":-76.63518619999999,"name":"Glen Burnie","org":"Hilltop Elementary School","address":"415 Melrose Avenue, Glen Burnie, MD 21061","city":"Glen Burnie","state":"MD","zip":"21061","phone":"(410) 553-4505","website":"https://www.facebook.com/profile.php?id=100066705630064","email":"","description":"Food pantry service at Hilltop Elementary School"},{"id":"139249b5-6b6f-4522-ab63-b36c1289674b","lat":39.1613891,"lng":-76.6263189,"name":"Glen Burnie","org":"Glen Burnie United Methodist Church","address":"5 2nd Avenue Southeast, Glen Burnie, MD 21061","city":"Glen Burnie","state":"MD","zip":"21061","phone":"(410) 761-4381","website":"http://gbumchurch.org/events-calender/","email":"","description":"Food service organization: Glen Burnie United Methodist Church"},{"id":"73fedb6d-402b-4867-99aa-1660219727b8","lat":38.915,"lng":-76.862,"name":"Glenarden","org":"Glenarden Community Center","address":"8615 McLain Ave, Glenarden, MD 20706","city":"Glenarden","state":"MD","zip":"20706","phone":"(202) 644-9848","website":"","email":"awright@capitalareafoodbank.org","description":"Community center providing food assistance services in Glenarden, Maryland"},{"id":"945d7fff-36ca-41c7-b0bc-e5e3523e233e","lat":38.9525,"lng":-76.8014,"name":"Glenn Dale","org":"Jamil-UL Jalil","address":"10845 Lanham Severn Road, Glenn Dale, MD 20769","city":"Glenn Dale","state":"MD","zip":"20769","phone":"(240) 381-1143","website":"","email":"Jalil1@comcast.net","description":"Food pantry providing TEFAP (The Emergency Food Assistance Program) services to the community"},{"id":"ff11cbfa-2e63-476f-9830-30438af42f91","lat":38.9567,"lng":-76.7625,"name":"Glenn Dale","org":"Reid Temple AME Church","address":"11400 Glenn Dale Blvd, Glenn Dale, MD 20769","city":"Glenn Dale","state":"MD","zip":"20769","phone":"(301) 352-0320","website":"","email":"laurenajack24@gmail.com","description":"Faith-based organization providing food pantry services to the community"},{"id":"dff22382-9fd7-4300-878d-69faf01c2441","lat":39.3416613,"lng":-76.5926872,"name":"Greater Northwood Covenant Association","org":"All Saints Evangelical Lutheran","address":"4215 Loch Raven Boulevard, Greater Northwood Covenant Association, MD 21218","city":"Greater Northwood Covenant Association","state":"MD","zip":"21218","phone":"(410) 889-8458","website":"https://www.allsaintslochraven.org/","email":"","description":"All Saints Evangelical Lutheran organization"},{"id":"df40faea-ebec-4224-ae81-16e82c5203cd","lat":39.0042,"lng":-76.8755,"name":"Greenbelt","org":"City of Greenbelt Food Pantry","address":"15 Crescent Rd, Greenbelt, MD 20770","city":"Greenbelt","state":"MD","zip":"20770","phone":"(240) 542-2019","website":"","email":"cbatey@greenbeltmd.gov","description":"Municipal food pantry providing food assistance to residents of Greenbelt and surrounding areas"},{"id":"30126f48-1643-4296-a740-ed5ec86df126","lat":39.0095,"lng":-76.8747,"name":"Greenbelt","org":"Zion Church Inc.","address":"8829 Greenbelt Rd, Greenbelt, MD 20770","city":"Greenbelt","state":"MD","zip":"20770","phone":"(240) 539-3035","website":"","email":"kwhitehead@zionchurch.org","description":"Church organization providing food assistance services in Greenbelt, Maryland"},{"id":"fa885a2d-300f-49c2-986e-350580967f1c","lat":39.31058650000001,"lng":-76.6130582,"name":"Greenmount West","org":"Bmore Community Fridge","address":"209 McAllister Street, Greenmount West, MD 21202","city":"Greenmount West","state":"MD","zip":"21202","phone":"","website":"https://www.instagram.com/p/DH1q3wKy75x/?img_index=2","email":"","description":"The site isn't easy to find. Technically GPS lists it at 200 Eareckson Place. It is tucked next to blue light junction on hunter St, but faces Eareckson Place.)"},{"id":"48f8607f-7fdb-495e-821c-2af2407eca6c","lat":39.33253339999999,"lng":-76.6606932,"name":"Greenspring","org":"Plantation Park Heights Urban Farm Fridge","address":"3811 Park Heights Avenue, Greenspring, MD 21215","city":"Greenspring","state":"MD","zip":"21215","phone":"","website":"https://www.facebook.com/groups/642135508518868/","email":"","description":"Fridge is located in the farm\nThis fridge is stocked solely BY the farm. Neighbors are invited to take what they need, but unlike other BCFN sites, they do NOT accept outside donations. So, please don't leave anything on-site!"},{"id":"9261d3ba-784a-4a8b-b236-7ae181dd6c24","lat":39.3530448,"lng":-76.5646948,"name":"Harford - Echodale - Perring Parkway","org":"Gibbons Community Fridge","address":"2803 Gibbons Avenue, Harford - Echodale - Perring Parkway, MD 21214","city":"Harford - Echodale - Perring Parkway","state":"MD","zip":"21214","phone":"","website":"https://www.instagram.com/gibbonscommunityfridge/","email":"","description":"Open 24/7! Free, outdoor community fridge/pantry operated by local volunteers."},{"id":"f2033a38-a603-48c0-a41e-de9fba90e4fa","lat":39.35588179999999,"lng":-76.55884759999999,"name":"Harford - Echodale - Perring Parkway","org":"Sharon Seventh-day Adventist Church","address":"5814 Harford Road, Harford - Echodale - Perring Parkway, MD 21214","city":"Harford - Echodale - Perring Parkway","state":"MD","zip":"21214","phone":"(410) 444-8145","website":"","email":"","description":"next to the enoch Library on Harford road"},{"id":"7256120e-9339-4b2b-829b-cafb6981ca77","lat":38.975,"lng":-76.965,"name":"Hyattsville","org":"Shiloh Church Of God 7 Day","address":"5701 Eastern Ave, Hyattsville, MD 20781","city":"Hyattsville","state":"MD","zip":"20781","phone":"(202) 907-6072","website":"","email":"grantclaudette@ymail.com","description":"Food pantry operated by Shiloh Church Of God 7 Day providing food assistance to the community"},{"id":"92e56320-c163-49cd-8fe2-a43eb199e782","lat":38.953,"lng":-76.942,"name":"Hyattsville","org":"Turner AME Church","address":"7201 16th Place, Hyattsville, MD 20783","city":"Hyattsville","state":"MD","zip":"20783","phone":"(301) 408-0750","website":"","email":"civy@turner-ame.org","description":"Food pantry services provided by Turner AME Church in Hyattsville, MD"},{"id":"da929ce4-ca4d-4fbe-93db-b8cc408c65f6","lat":38.9658331,"lng":-76.9506567,"name":"Hyattsville","org":"Lutheran Mission Society Hyattsville Compassion Center","address":"3799 East-West Highway, Hyattsville, MD 20782","city":"Hyattsville","state":"MD","zip":"20782","phone":"(301) 277-2302","website":"https://www.compassionplace.org/centers","email":"","description":"Food pantry service"},{"id":"efbf5f37-9301-402f-9deb-0b91d7d1a51c","lat":38.95467,"lng":-76.95833,"name":"Hyattsville","org":"Ebenezer COG Community Outreach Ministries","address":"7550 Buchanan St., Hyattsville, MD 20784","city":"Hyattsville","state":"MD","zip":"20784","phone":"(240) 338-6065","website":"","email":"dasft@yahoo.com","description":"Community outreach ministry providing food assistance and TEFAP services to individuals and families in need"},{"id":"300dd090-0537-4439-8220-a6c19b920e38","lat":38.9547,"lng":-76.9447,"name":"Hyattsville","org":"Everlasting Joy Foundation","address":"5170 Lawrence Place, Hyattsville, MD 20781","city":"Hyattsville","state":"MD","zip":"20781","phone":"(301) 433-3180","website":"","email":"info@theeverlastingjoyfoundation.org","description":"Community organization providing food assistance through TEFAP (The Emergency Food Assistance Program)"},{"id":"bf0fadd2-e7da-4753-9f07-619a2208d32e","lat":38.9557,"lng":-76.9592,"name":"Hyattsville","org":"Good Samaritan Ministry","address":"1417 Chillum Rd, Hyattsville, MD 20782","city":"Hyattsville","state":"MD","zip":"20782","phone":"(301) 363-1679","website":"","email":"j.mbulu@clgministries.org","description":"Community food assistance organization providing food pantry services in Hyattsville, Maryland"},{"id":"06e297fb-80d4-43bd-90bb-4473356762e5","lat":38.9558,"lng":-76.9631,"name":"Hyattsville","org":"Metropolitan SDA Church","address":"6303 Riggs Rd, Hyattsville, MD 20783","city":"Hyattsville","state":"MD","zip":"20783","phone":"(301) 853-2224","website":"","email":"","description":"Food pantry operated by Metropolitan SDA Church providing TEFAP food assistance to the community"},{"id":"0fd56861-2a94-493d-9341-45f9a4e40452","lat":38.961,"lng":-76.964,"name":"Hyattsville","org":"St. Mark The Evangelist Catholic Church","address":"7501 Adelphi Road, Hyattsville, MD 20783","city":"Hyattsville","state":"MD","zip":"20783","phone":"(301) 852-3816","website":"","email":"stmarkfoodpantry@gmail.com","description":"Catholic church providing food pantry services to the community"},{"id":"a2062c5a-d274-4a03-8422-590fddded950","lat":38.95,"lng":-76.95,"name":"Hyattsville","org":"Tender Love & Care","address":"822 Cox Ave, Hyattsville, MD 20783","city":"Hyattsville","state":"MD","zip":"20783","phone":"(434) 315-1601","website":"","email":"eaalrc@gmail.com","description":"Community food assistance organization providing food pantry services in Hyattsville, Maryland"},{"id":"38aa4741-7a42-48f1-a6aa-e9a8a7483865","lat":39.0266,"lng":-77.0739,"name":"Kensington","org":"First Baptist Church Ken-Gar","address":"3922 Hampden St, Kensington, MD 20895","city":"Kensington","state":"MD","zip":"20895","phone":"(917) 364-1681","website":"","email":"conyandliz@msn.com","description":"Faith-based organization providing food pantry services to the Kensington community"},{"id":"9aafd2ba-0aca-4829-a172-6e116e1fb8f4","lat":39.4565185,"lng":-76.4188925,"name":"Kingsville","org":"Kingsville Elementary School Summer Meals","address":"7300 Sunshine Avenue, Kingsville, MD 21087","city":"Kingsville","state":"MD","zip":"21087","phone":"(443) 809-7855","website":"https://www.bcps.org/foodandnutrition","email":"","description":"From 23rd June Till 15th August"},{"id":"6aed92b3-347b-4ff1-81d6-28e47140ae3f","lat":38.9356,"lng":-76.8647,"name":"Landover","org":"Calvary Assembly of Holy Cross","address":"3505 Hubbard Rd, Landover, MD 20785","city":"Landover","state":"MD","zip":"20785","phone":"(301) 316-8374","website":"","email":"gerryj52@gmail.com","description":"Food pantry operated by Calvary Assembly of Holy Cross providing food assistance to the community"},{"id":"b862a8f0-43b1-43ec-80ac-4a1f2f7cef1b","lat":38.91,"lng":-76.86,"name":"Landover","org":"First Baptist Church of Highland Park","address":"6801 Sheriff Road, Landover, MD 20785","city":"Landover","state":"MD","zip":"20785","phone":"(202) 286-4287","website":"","email":"sburgess301@gmail.com","description":"Faith-based organization providing food assistance through TEFAP program in Landover, MD"},{"id":"ede5397d-fd5d-40c4-b080-9b22b5848d24","lat":38.9072,"lng":-76.8378,"name":"Landover","org":"Kentland Community Center","address":"2413 Pinebrook Rd, Landover, MD 20785","city":"Landover","state":"MD","zip":"20785","phone":"(240) 643-9397","website":"","email":"lenora.harper@verizon.net","description":"Community center providing food assistance services in Landover, Maryland"},{"id":"ab3bb7ab-6ece-4ec5-8fa2-74d6eefb6d9f","lat":38.927089,"lng":-76.888474,"name":"Landover","org":"Prince George's County DSS","address":"805 Brightseat Rd, Landover, MD 20785","city":"Landover","state":"MD","zip":"20785","phone":"(301) 909-6364","website":"","email":"beverly.bruce@maryland.gov","description":"Prince George's County Department of Social Services providing TEFAP food assistance programs"},{"id":"47c1ca5d-d38b-4f65-bdf6-ac5aeaf5da1c","lat":38.9072,"lng":-76.8431,"name":"Landover","org":"Shabach Emergency Empowerment Center","address":"403 Brightseat Rd, Landover, MD 20785","city":"Landover","state":"MD","zip":"20785","phone":"(240) 532-7003","website":"","email":"gpope@fbcglenarden.org","description":"Emergency food assistance center providing food pantry services to the community in Landover, MD."},{"id":"598b47d5-67c6-46c0-9bf5-97a62e8cb3ae","lat":39.3441334,"lng":-76.6819696,"name":"Langston Hughes","org":"So What Else @ Dreamworks CDC","address":"3903 West Belvedere Avenue, Langston Hughes, MD 21215","city":"Langston Hughes","state":"MD","zip":"21215","phone":"(410) 429-0657","website":"https://www.sowhatelse.org/food-rescue-bank/baltimore-food-giveaways/","email":"","description":"Food rescue and distribution organization"},{"id":"d68a9f8d-e54a-4341-a242-3f9d31da28a4","lat":38.998819,"lng":-76.860992,"name":"Lanham","org":"Trinity Assembly of God","address":"7800 Good Luck Rd, Lanham, MD 20706","city":"Lanham","state":"MD","zip":"20706","phone":"(301) 841-6533","website":"","email":"info@themeljohnson.org","description":"Trinity Assembly of God provides food assistance services to the community in Lanham, Maryland."},{"id":"daf42406-a68f-4665-a1b9-5838285f8e69","lat":38.9637,"lng":-76.8794,"name":"Lanham","org":"Destiny Driven","address":"5900 Princess Garden Parkway, Lanham, MD 20706","city":"Lanham","state":"MD","zip":"20706","phone":"(301) 455-5970","website":"","email":"destinydriveninternationalceo@gmail.com","description":"Community organization providing food assistance and support services in Lanham, Maryland."},{"id":"79a01374-9845-4fef-bf09-2b968d993180","lat":38.94909579999999,"lng":-76.8554297,"name":"Lanham","org":"AfriThrive Prince George's County","address":"5120 Whitfield Chapel Road, Lanham, MD 20706","city":"Lanham","state":"MD","zip":"20706","phone":"(240) 706-1517","website":"https://www.afrithrive.org/healthy-food-initiative","email":"","description":"Food assistance organization"},{"id":"1f1befe9-519c-4074-a2ad-64f2a1c564a1","lat":38.9577,"lng":-76.8513,"name":"Lanham","org":"Ark of Grace Mission, Inc","address":"3311 Brightseat Road, Lanham, MD 20706","city":"Lanham","state":"MD","zip":"20706","phone":"(240) 467-1389","website":"","email":"pchims@juno.com","description":"Community organization providing food assistance services in Lanham, Maryland"},{"id":"08f2005b-fe4e-4bd8-a35a-de061383f666","lat":38.96,"lng":-76.85,"name":"Lanham","org":"Capital Christian Fellowship","address":"10411 Greenbelt Rd, Lanham, MD 20706","city":"Lanham","state":"MD","zip":"20706","phone":"(301) 262-7008","website":"","email":"marieodah@capitalchristian.org","description":"Food pantry operated by Capital Christian Fellowship providing food assistance services"},{"id":"c598e89b-0497-4671-a856-b69138916541","lat":38.958,"lng":-76.863,"name":"Lanham","org":"Community Health Foundation","address":"9150 Lanham Severn Rd., Lanham, MD 20706","city":"Lanham","state":"MD","zip":"20706","phone":"(667) 458-0219","website":"","email":"info@chfoundationconnect.org","description":"Community health organization providing food assistance services including TEFAP distribution in Lanham, Maryland."},{"id":"96b735ed-4650-4c50-9698-19eee27fe6d1","lat":38.9547,"lng":-76.8581,"name":"Lanham","org":"Destiny Driven","address":"5900 Princess Garden Parkway, Lanham, MD 20706","city":"Lanham","state":"MD","zip":"20706","phone":"(301) 455-5970","website":"","email":"destinydriveninternationalceo@gmail.com","description":"Community organization providing food assistance and support services in Lanham, Maryland."},{"id":"d374fb61-b4a6-4343-9635-c793cc131639","lat":38.958,"lng":-76.843,"name":"Lanham","org":"Mollemm Food Pantry","address":"9721 Good Luck Road, Lanham, MD 20706","city":"Lanham","state":"MD","zip":"20706","phone":"(301) 807-1383","website":"","email":"sspeight123@verizon.net","description":"Food pantry providing food assistance services in Lanham, Maryland"},{"id":"f6430b76-f454-4aa2-9376-da4ccf5c64fa","lat":38.9567,"lng":-76.8419,"name":"Lanham","org":"St. Matthias Catholic Church","address":"9475 Annapolis, Lanham, MD 20706","city":"Lanham","state":"MD","zip":"20706","phone":"(301) 325-6843","website":"","email":"pford@stmatthias.org","description":"Catholic church providing food assistance services to the community"},{"id":"5516709b-b5b4-4f7c-bdc3-b17c6835cefa","lat":38.9456,"lng":-76.8631,"name":"Lanham","org":"This Generation Ministries","address":"9470 Annapolis Rd, Lanham, MD 20706","city":"Lanham","state":"MD","zip":"20706","phone":"(240) 374-2901","website":"","email":"nkyenwerem@yahoo.com","description":"A ministry organization providing food assistance services in Lanham, Maryland."},{"id":"1d94db77-e550-411d-9d9b-2b3e23ebd4be","lat":38.966804,"lng":-76.845851,"name":"Lanham","org":"Trinity Assembly of God","address":"7800 Good Luck Rd, Lanham, MD 20706","city":"Lanham","state":"MD","zip":"20706","phone":"(301) 841-6533","website":"","email":"info@themeljohnson.org","description":"Trinity Assembly of God provides food assistance services to the community in Lanham, Maryland."},{"id":"82d427be-6634-4747-9c38-b02a4c42f9a0","lat":39.24609699999999,"lng":-76.652862,"name":"Lansdowne - Baltimore Highlands","org":"Lansdowne High School","address":"3800 Hollins Ferry Road, Lansdowne - Baltimore Highlands, MD 21227","city":"Lansdowne - Baltimore Highlands","state":"MD","zip":"21227","phone":"(443) 809-1415","website":"","email":"","description":"Food pantry service"},{"id":"71b67091-e391-4e78-bb0a-4e29cfecc292","lat":39.236179,"lng":-76.6559159,"name":"Lansdowne - Baltimore Highlands","org":"Riverview Elementary","address":"3298 Kessler Road, Lansdowne - Baltimore Highlands, MD 21227","city":"Lansdowne - Baltimore Highlands","state":"MD","zip":"21227","phone":"(443) 809-1428","website":"","email":"","description":"Food pantry services"},{"id":"661cea6e-b008-400a-b2d9-d5dc7c3c6366","lat":39.237056,"lng":-76.6420785,"name":"Lansdowne - Baltimore Highlands","org":"Baltimore Highlands Elementary","address":"4200 Annapolis Road, Lansdowne - Baltimore Highlands, MD 21227","city":"Lansdowne - Baltimore Highlands","state":"MD","zip":"21227","phone":"(443) 809-0919","website":"https://baltimorehighlandses.bcps.org/staff_directory/support_staff_","email":"","description":"Food service organization: Baltimore Highlands Elementary"},{"id":"11246544-b9b1-4c66-b883-f903b88cf79b","lat":38.890858,"lng":-76.831719,"name":"Largo","org":"Metropolitan Baptist Church","address":"1200 Mercantile Lane Suite 115B, Largo, MD 20774","city":"Largo","state":"MD","zip":"20774","phone":"5184659375","website":"https://www.mbcphila.org/","email":"porterp8@gmail.com","description":"A church-based food pantry serving the Albany community, providing food assistance twice monthly with walk-in services available."},{"id":"174588b5-5f9e-47c5-a058-de97f770da46","lat":38.901388,"lng":-76.782778,"name":"Largo","org":"St. Joseph Catholic Church","address":"2020 St Joseph Drive, Largo, MD 20774","city":"Largo","state":"MD","zip":"20774","phone":"(301) 773-4838 EXT. 13","website":"","email":"pamwhite2013@verizon.net","description":"Catholic church providing food assistance through the Emergency Food Assistance Program (TEFAP)"},{"id":"014c9372-cc76-4dc2-898f-f34d0c6a4d5d","lat":39.3522654,"lng":-76.569255,"name":"Lauraville","org":"Heart House Community Fridge","address":"5207 Catalpha Road, Lauraville, MD 21214","city":"Lauraville","state":"MD","zip":"21214","phone":"","website":"https://www.facebook.com/profile.php?id=61576221493009","email":"","description":"Open 24/7! Free, outdoor community fridge/pantry operated by local volunteers."},{"id":"274a8fbb-09cc-450e-bb01-a6df8acb469d","lat":39.1099,"lng":-76.8459,"name":"Laurel","org":"Faith Village of Greater Laurel, Inc.","address":"13714 Briarwood Drive, Laurel, MD 20708","city":"Laurel","state":"MD","zip":"20708","phone":"(202) 321-8468","website":"","email":"moodsultd@yahoo.com","description":"Food assistance organization providing TEFAP services in Laurel, Maryland"},{"id":"a70e4280-ae9c-4160-99d5-9ca90d4b4074","lat":39.0958376,"lng":-76.8175806,"name":"Laurel","org":"Maryland City Elementary","address":"3359 Crumpton South, Laurel, MD 20724","city":"Laurel","state":"MD","zip":"20724","phone":"(410) 553-4505","website":"https://www.facebook.com/profile.php?id=100066705630064","email":"","description":"Maryland City Elementary"},{"id":"c0d6a294-9208-4aff-947b-dad97c3fb976","lat":39.0934604,"lng":-76.84157990000001,"name":"Laurel","org":"FISH of Laurel Inc @ Laurel Multiservice Center","address":"204 Fort Meade Road, Laurel, MD 20707","city":"Laurel","state":"MD","zip":"20707","phone":"(301) 776-9296","website":"https://www.facebook.com/profile.php?id=100064802973776","email":"","description":"Food assistance services provided by FISH of Laurel Inc"},{"id":"934ea33a-3edd-442b-843e-305e3e2544a0","lat":39.071849,"lng":-76.8320592,"name":"Laurel","org":"MARYLAND CITY PARK","address":"565 Brock Bridge Road, Laurel, MD 20724","city":"Laurel","state":"MD","zip":"20724","phone":"UNKNOWN","website":"https://www.marylandfreefood.com/","email":"","description":"Food assistance program"},{"id":"26cc395c-b811-4135-bdc6-acdee888dc01","lat":39.099167,"lng":-76.875,"name":"Laurel","org":"Faith Village of Greater Laurel, Inc.","address":"13714 Briarwood Drive, Laurel, MD 20708","city":"Laurel","state":"MD","zip":"20708","phone":"(202) 321-8468","website":"","email":"moodsultd@yahoo.com","description":"Food assistance organization providing TEFAP services in Laurel, Maryland"},{"id":"86762283-7dc7-46d7-abcd-6b416eeda87f","lat":39.0994,"lng":-76.8483,"name":"Laurel","org":"FISH of Laurel, Inc.","address":"308 Gorman Ave, Laurel, MD 20707","city":"Laurel","state":"MD","zip":"20707","phone":"(240) 547-9013","website":"","email":"linda@fishoflaurel.org","description":"Food assistance organization providing TEFAP (The Emergency Food Assistance Program) services to the Laurel community."},{"id":"f5246141-0fa4-43ed-bab2-913f9607dd35","lat":39.099,"lng":-76.848,"name":"Laurel","org":"Laurel Advocacy & Referral Services, Inc.","address":"311 Laurel Ave, Laurel, MD 20707","city":"Laurel","state":"MD","zip":"20707","phone":"(301) 776-0442","website":"","email":"amilner@laureladvocacy.org","description":"Community organization providing advocacy, referral services, and food assistance including TEFAP distribution to residents of Laurel, Maryland."},{"id":"31e629d4-8f9a-4886-a2e4-c0073445c52d","lat":39.086021,"lng":-76.838493,"name":"Laurel","org":"Our Savior Lutheran Church","address":"13611 Laurel Bowie Road, Laurel, MD 20708","city":"Laurel","state":"MD","zip":"20708","phone":"(301) 776-7670","website":"","email":"milybmw7@gmail.com","description":"Lutheran church providing food assistance services to the community"},{"id":"a69c6bc6-5d2a-4cf9-b2bf-de6c423a8b5c","lat":39.0993,"lng":-76.8483,"name":"Laurel","org":"ST. PHILIP'S EPISCOPAL CHURCH","address":"522 Main Street, Laurel, MD 20707","city":"Laurel","state":"MD","zip":"20707","phone":"(716)833-0442","website":"","email":"eileencollinslecpe@icloud.com","description":"Episcopal church operating a food pantry providing food assistance to the community"},{"id":"7b185641-fe31-4c2e-ac02-b4854df286c1","lat":39.355783,"lng":-76.6095672,"name":"Mid-Govans","org":"Shepherd's Heart Missionary","address":"5405 York Road, Mid-Govans, MD 21212","city":"Mid-Govans","state":"MD","zip":"21212","phone":"(410) 323-4544","website":"https://www.shepherdsheartmissionary.org/","email":"","description":"Food pantry services"},{"id":"13ac77ee-97a0-4c71-8506-c468c047c653","lat":38.95,"lng":-76.82,"name":"Mitchellville","org":"Hope Presbyterian Church","address":"1100 Enterprise Road, Mitchellville, MD 20721","city":"Mitchellville","state":"MD","zip":"20721","phone":"(301) 249-7774","website":"","email":"nichi1994@yahoo.com","description":"Food pantry services provided by Hope Presbyterian Church in Mitchellville, Maryland"},{"id":"c29c28b7-34bc-4832-ac7f-bf51c7d33378","lat":38.9444,"lng":-76.7781,"name":"Mitchellville","org":"Hope Presbyterian Church","address":"1100 Enterprise Road, Mitchellville, MD 20721","city":"Mitchellville","state":"MD","zip":"20721","phone":"(301) 249-7774","website":"","email":"nichi1994@yahoo.com","description":"Food pantry services provided by Hope Presbyterian Church in Mitchellville, Maryland"},{"id":"dc9bab6e-562f-43d4-929f-294c831bf0df","lat":39.2950859,"lng":-76.66122589999999,"name":"Mosher","org":"LaBurt-Mosher Community Fridge","address":"607 Ashburton Street, Mosher, MD 21216","city":"Mosher","state":"MD","zip":"21216","phone":"(443) 570-9931","website":"https://www.instagram.com/laburtmosher_community_fridge/","email":"","description":"Open 24/7! Free, outdoor community fridge/pantry operated by local volunteers."},{"id":"aa649bee-319c-4a3d-be27-5bb131617da0","lat":38.9348594,"lng":-76.9625812,"name":"Mount Rainier","org":"Alafia Baptist Church","address":"3623 Eastern Avenue Northeast, Mount Rainier, MD 20712","city":"Mount Rainier","state":"MD","zip":"20712","phone":"(301) 985-3090","website":"https://alafiabaptistchurchusa.org/","email":"e.adigun@verizon.net","description":"Community organization providing services"},{"id":"83175031-9400-4570-a1c0-568827cb0de6","lat":38.9542,"lng":-76.9642,"name":"Mount Rainier","org":"First Baptist Church of Mount Rainier","address":"3103 Shepherd Street, Mount Rainier, MD 20712","city":"Mount Rainier","state":"MD","zip":"20712","phone":"(301) 927-5565","website":"","email":"barb20748@aol.com","description":"A Baptist church in Mount Rainier, MD that provides food pantry services to the community."},{"id":"bb001034-86cb-44ed-a750-e4796f7444e1","lat":39.3768445,"lng":-76.5064081,"name":"Nottingham","org":"The Pantry–a ministry of Community Christian Church","address":"8032 Belair Road, Nottingham, MD 21236","city":"Nottingham","state":"MD","zip":"21236","phone":"(410) 882-1497","website":"https://communitycc.net/pantry/","email":"","description":"The Pantry is a generosity initiative whose purpose is to help families in the community who are having a difficult time by providing groceries and other needed items. The Pantry is stocked with perishable and non-perishable groceries, including milk and meat, as well as personal and household items. All Pantry services are provided by appointment only. We service clients in Northeast Baltimore County.\n\nIf you would like to receive help from The Pantry **[click here] https://communitycc.ccbchurch.com/goto/forms/683/responses/new or call (410) 882-1497 to leave a message.  All personal information is kept completely confidential.**"},{"id":"1211bba4-24fc-423d-8f23-ee89ef4904ee","lat":39.1506,"lng":-77.0669,"name":"Olney","org":"Iglesia Evangelica Cristo Promesa Fiel","address":"17017 Georgia Avenue, Olney, MD 20832","city":"Olney","state":"MD","zip":"20832","phone":"(240) 461-5059","website":"","email":"info@cristopromesafiel.org","description":"Evangelical church providing food pantry services to the community"},{"id":"2ce135ee-27d4-448b-89fb-7555c88f07df","lat":39.1512,"lng":-77.0669,"name":"Olney","org":"Iglesia Evangelica Cristo Promesa Fiel","address":"17017 Georgia Avenue, Olney, MD 20832","city":"Olney","state":"MD","zip":"20832","phone":"(240) 461-5059","website":"","email":"info@cristopromesafiel.org","description":"Evangelical church providing food pantry services to the community"},{"id":"12c7e05c-a3c9-431e-bcdc-766c99e2b3b0","lat":39.1451,"lng":-77.0703,"name":"Olney","org":"Mid-County Hub at Harvest Intercontinental Church Olney","address":"16227 Batchellors Forest Rd, Olney, MD 20832","city":"Olney","state":"MD","zip":"20832","phone":"(301) 512-5584","website":"","email":"mdavis@harvestersolney.org","description":"Food distribution hub located at Harvest Intercontinental Church providing food assistance services to the Olney community"},{"id":"0b1b8254-0512-45c3-bd72-91baaeecf06d","lat":38.7892,"lng":-76.9731,"name":"Oxon Hill","org":"Oxon Hill UMC","address":"6400 Livingston Road, Oxon Hill, MD 20745","city":"Oxon Hill","state":"MD","zip":"20745","phone":"(301) 807-2754","website":"","email":"Breadministry@oxonhillumc.org","description":"United Methodist Church providing food pantry services to the Oxon Hill community"},{"id":"9f5c75f7-fb04-44d4-8d9f-d4339b9c1ede","lat":39.6222824,"lng":-76.6571987,"name":"Parkton","org":"Hereford High School Summer Meal Program","address":"17301 York Road, Parkton, MD 21120","city":"Parkton","state":"MD","zip":"21120","phone":"(443) 809-7855","website":"https://www.bcps.org/foodandnutrition/","email":"","description":"From June 23rd till August 15th"},{"id":"c7fc1ca1-421f-4f27-aaa6-3baf9ff2d007","lat":39.138257,"lng":-76.57273219999999,"name":"Pasadena","org":"Freetown Village","address":"7820 Darrell Henry Court, Pasadena, MD 21122","city":"Pasadena","state":"MD","zip":"21122","phone":"(410) 553-4505","website":"https://www.facebook.com/profile.php?id=100066705630064","email":"","description":"Community organization providing food assistance services"},{"id":"83cc6138-0e78-4010-9b33-9d57664b1ae0","lat":39.2938842,"lng":-76.57608379999999,"name":"Patterson Park Neighborhood","org":"Linwood Community Fridge","address":"123 North Linwood Avenue, Patterson Park Neighborhood, MD 21224","city":"Patterson Park Neighborhood","state":"MD","zip":"21224","phone":"","website":"https://www.instagram.com/linwoodcommunityfridge/","email":"","description":"Open 24/7! Free, outdoor community fridge/pantry operated by local volunteers."},{"id":"c2f538a3-e2a7-4c3f-933b-1f457349786c","lat":39.0458,"lng":-77.2014,"name":"Potomac","org":"ISKCON of Washington","address":"10310 Oaklyn Dr, Potomac, MD 20854","city":"Potomac","state":"MD","zip":"20854","phone":"(301) 299-2100","website":"","email":"sharmilabcs@gmail.com","description":"Religious organization providing food assistance services in the Potomac, Maryland area"},{"id":"345c5e26-0dbf-4b4e-b628-ac0c1915992b","lat":39.31658039999999,"lng":-76.6322483,"name":"Reservoir Hill","org":"So What Else @ Lakeview Towers Apartments","address":"727 Druid Park Lake Drive, Reservoir Hill, MD 21217","city":"Reservoir Hill","state":"MD","zip":"21217","phone":"(410) 429-0657","website":"https://www.sowhatelse.org/food-rescue-bank/baltimore-food-giveaways/","email":"","description":"Food rescue and distribution services"},{"id":"f202c5a0-7dcf-4043-b926-f748fb1d0006","lat":38.9570608,"lng":-76.91638619999999,"name":"Riverdale","org":"St. Bernard of Clairvaux","address":"5700 Saint Bernard Drive, Riverdale, MD 20737","city":"Riverdale","state":"MD","zip":"20737","phone":"(301) 277-1000","website":"https://adw.org/parishes/st-bernard-of-clairvaux/","email":"","description":"Call +1 (301) 277-1000 by Tuesday to confirm schedule and make an appointment since there's no fix distribution day/time."},{"id":"cc9355d7-2a87-4402-ac40-9ee4c2727748","lat":38.9638,"lng":-76.9218,"name":"Riverdale","org":"LindaBen Foundation","address":"5809 St Bernard Drive, Riverdale, MD 20737","city":"Riverdale","state":"MD","zip":"20737","phone":"(646) 420-0787","website":"","email":"abeavan@lindabenfoundation.org","description":"Community organization providing emergency food assistance and TEFAP services to residents in the Riverdale, MD area."},{"id":"0e271814-d7b5-4345-bb83-b1b39bfc110a","lat":38.9637,"lng":-76.9114,"name":"Riverdale","org":"Sowing Empowerment & Economic Development, Inc.","address":"5819 Eastpine Dr, Riverdale, MD 20737","city":"Riverdale","state":"MD","zip":"20737","phone":"(301) 458-9808","website":"","email":"tnunes@seedinc.org","description":"Community organization providing food assistance and empowerment services in Riverdale, MD"},{"id":"bb2cc65e-d2a0-412f-8280-a5e6d33e755e","lat":39.1054,"lng":-77.2008,"name":"Rockville","org":"The Universities at Shady Grove","address":"9630 Gudelsky Drive, Rockville, MD 20850","city":"Rockville","state":"MD","zip":"20850","phone":"(301) 738-6000","website":"","email":"szelaya3@umd.edu","description":"University campus providing food assistance services to students and community members"},{"id":"f988c51a-5d09-4f64-a746-61dc27400881","lat":39.0817,"lng":-77.1336,"name":"Rockville","org":"The Universities at Shady Grove","address":"9630 Gudelsky Drive, Rockville, MD 20850","city":"Rockville","state":"MD","zip":"20850","phone":"(301) 738-6000","website":"","email":"szelaya3@umd.edu","description":"University campus providing food assistance services to students and community members"},{"id":"174276ad-7ae2-4a68-a1d4-81f653edbfb5","lat":39.0839,"lng":-77.1528,"name":"Rockville","org":"InterFaith Works","address":"751 Twinbrook Pkwy, Rockville, MD 20852","city":"Rockville","state":"MD","zip":"20852","phone":"(301) 424-3796","website":"","email":"hubcoordinator@iworksmc.org","description":"Faith-based organization providing food assistance and community support services in Montgomery County, Maryland."},{"id":"993d3099-e61e-478e-9c6b-818d87383cb2","lat":39.077,"lng":-77.148,"name":"Rockville","org":"Living Faith Lutheran Church","address":"1605 Veirs Mill Road, Rockville, MD 20851","city":"Rockville","state":"MD","zip":"20851","phone":"(301) 424-8622","website":"","email":"stevecorbin@verizon.net","description":"A Lutheran church providing food assistance services to the community"},{"id":"a505f6d5-7414-4f09-92e0-98d734203983","lat":39.084,"lng":-77.152,"name":"Rockville","org":"Nourish Now","address":"397 EAST GUDE DR, Rockville, MD 20850","city":"Rockville","state":"MD","zip":"20850","phone":"(240) 330-8098","website":"","email":"brett@nourishnow.org","description":"Food assistance organization providing food pantry services in Rockville, MD"},{"id":"13932c4e-2de3-41a9-8904-4efdef36a2de","lat":39.0723,"lng":-77.1527,"name":"Rockville","org":"Rockville Senior Center","address":"1150 Carnation Drive, Rockville, MD 20850","city":"Rockville","state":"MD","zip":"20850","phone":"(240) 314-8800","website":"","email":"adangelo@rockvillemd.gov","description":"Senior center providing food assistance services to the community in Rockville, Maryland."},{"id":"780242c8-6036-4249-b0e6-38bc82035a6b","lat":39.084,"lng":-77.155,"name":"Rockville","org":"So What Else, Inc","address":"4924 Wyaconda Road, Rockville, MD 20852","city":"Rockville","state":"MD","zip":"20852","phone":"(202) 573-7787","website":"","email":"mjoe@sowhatelse.org","description":"Food assistance organization serving the Rockville, MD community through food distribution programs."},{"id":"33607405-f378-46f6-89ad-a13bdacd5b5a","lat":39.1437,"lng":-77.2009,"name":"Rockville","org":"The Universities at Shady Grove","address":"9630 Gudelsky Drive, Rockville, MD 20850","city":"Rockville","state":"MD","zip":"20850","phone":"(301) 738-6000","website":"","email":"szelaya3@umd.edu","description":"University campus providing food assistance services to students and community members"},{"id":"94bc1034-7a30-472c-b2cf-5574e693367c","lat":38.37048,"lng":-75.59084,"name":"Salisbury","org":"Salisbury Urban Ministries, God's Kitchen","address":"635 East Church Street, Salisbury, MD 21804","city":"Salisbury","state":"MD","zip":"21804","phone":"(410) 749-1563","website":"","email":"","description":"SOUP KITCHEN: Offers a free meal to anyone in need on Saturdays from 11AM to 12:30PM at Grace United Methodist Church."},{"id":"c5cb2d4a-940a-4ce5-82f0-f1769e88166e","lat":39.3065772,"lng":-76.64370939999999,"name":"Sandtown-Winchester","org":"Sandtown Winchester Senior Center","address":"1601 Baker Street, Sandtown-Winchester, MD 21217","city":"Sandtown-Winchester","state":"MD","zip":"21217","phone":"(410) 523-0061","website":"","email":"","description":"Senior center providing food assistance services"},{"id":"d6e0b7bf-c4c9-4770-bc3e-dd2b3b3d9aa9","lat":39.3012097,"lng":-76.6433642,"name":"Sandtown-Winchester","org":"St. Luke UMC","address":"1100 North Gilmor Street, Sandtown-Winchester, MD 21217","city":"Sandtown-Winchester","state":"MD","zip":"21217","phone":"(443) 762-6716","website":"https://stlukeumcbaltimore.org/contact-us","email":"","description":"St. Luke UMC"},{"id":"0b27b2bf-9d16-4cb8-9a4f-09f73b67e4ce","lat":38.89,"lng":-76.91,"name":"Seat Pleasant","org":"Maryland Umbrella Group","address":"408 Addison Road South, Seat Pleasant, MD 20743","city":"Seat Pleasant","state":"MD","zip":"20743","phone":"(301) 968-7816","website":"","email":"cbatey@m-u-g.org","description":"Community organization providing emergency food assistance through TEFAP (The Emergency Food Assistance Program)"},{"id":"757faa31-a2c9-4b11-8e1d-47a2e3ee3c54","lat":39.1175119,"lng":-76.7080264,"name":"Severn","org":"Pioneer City","address":"8377 Pioneer Drive, Severn, MD 21144","city":"Severn","state":"MD","zip":"21144","phone":"(410) 553-4505","website":"https://www.facebook.com/profile.php?id=100066705630064","email":"","description":"Corner of Pioneer Dr. and Indian Dr. Severn"},{"id":"6cec7f85-d93f-4e7d-9abc-2790c4650c63","lat":39.060861,"lng":-76.967894,"name":"Silver Spring","org":"Allen Chapel AME Church Outreach Ministry","address":"2518 Fairland Road, Silver Spring, MD 20904","city":"Silver Spring","state":"MD","zip":"20904","phone":"(301) 404-2688","website":"","email":"dotboddie@yahoo.com","description":"Food pantry providing TEFAP services"},{"id":"d291d912-33a9-4e22-acca-c29881bd9afa","lat":39.0458,"lng":-77.0164,"name":"Silver Spring","org":"Chrisma Charities","address":"12805 Georgia Avenue, Silver Spring, MD 20906","city":"Silver Spring","state":"MD","zip":"20906","phone":"(202) 427-2816","website":"","email":"info@chrismacharities.org","description":"Community organization providing emergency food assistance including TEFAP (The Emergency Food Assistance Program) services to residents in the Silver Spring area."},{"id":"7cd9e807-b1b6-4f06-9752-15a369c2412f","lat":39.0463,"lng":-77.0297,"name":"Silver Spring","org":"Clifton Park Baptist Church","address":"8818 Piney Branch Rd, Silver Spring, MD 20903","city":"Silver Spring","state":"MD","zip":"20903","phone":"(301) 434-2456","website":"","email":"outreach.cpbc@gmail.com","description":"Baptist church providing food pantry services in Silver Spring, Maryland"},{"id":"63379992-fc7c-4b1e-bcc5-8ec832ea2a46","lat":39.035,"lng":-77.015,"name":"Silver Spring","org":"First Alliance Church","address":"14500 New Hampshire Ave, Silver Spring, MD 20904","city":"Silver Spring","state":"MD","zip":"20904","phone":"(301) 785-8571","website":"","email":"Office@1stalliancechurch.com","description":"A church-based organization providing food assistance services to the community."},{"id":"2331f411-1f92-4d82-a434-52219890e81f","lat":39.0186,"lng":-77.0336,"name":"Silver Spring","org":"Kings and Priests International Ministries","address":"520 Randolph Road, Silver Spring, MD 20904","city":"Silver Spring","state":"MD","zip":"20904","phone":"(301) 467-6646","website":"","email":"kpciministries@gmail.com","description":"Religious ministry organization providing food assistance services including TEFAP (The Emergency Food Assistance Program) to the community."},{"id":"9f2900ca-86ab-4f25-a896-c86c6367853a","lat":39.039167,"lng":-77.046111,"name":"Silver Spring","org":"Silver Spring Christian Reformed Church","address":"1501 Arcola Ave, Silver Spring, MD 20902","city":"Silver Spring","state":"MD","zip":"20902","phone":"(301) 284-8401","website":"","email":"foodpantry@sscrc.org","description":"Christian Reformed Church providing food pantry services to the Silver Spring community"},{"id":"dc1df475-fa25-40ad-916a-441de45eee73","lat":39.0014,"lng":-77.0269,"name":"Silver Spring","org":"Tommy's Pantry","address":"630 Silver Spring Ave., Silver Spring, MD 20910","city":"Silver Spring","state":"MD","zip":"20910","phone":"(202) 262-4537","website":"","email":"tommyspantry@gmail.com","description":"Community food pantry providing food assistance services"},{"id":"a33cf8b7-fad8-4494-b265-0f991f3b30ed","lat":39.0458,"lng":-77.0183,"name":"Silver Spring","org":"Washington Spanish SDA Church","address":"12604 New Hampshire Avenue, Silver Spring, MD 20904","city":"Silver Spring","state":"MD","zip":"20904","phone":"(240) 638-7086","website":"","email":"fatimaservices@hotmail.com","description":"Community church providing food assistance services to the local community"},{"id":"accb44f7-16f9-435b-8d93-ef4646ff1ce8","lat":39.0404159,"lng":-76.9944265,"name":"Silver Spring","org":"Kingdom Cares / Enclaves Apartments","address":"11225 Oak Leaf Drive, Silver Spring, MD 20901","city":"Silver Spring","state":"MD","zip":"20901","phone":"(301) 679-1100","website":"https://kgcdc.org/east-county-hub/#","email":"","description":"Food service organization: Kingdom Cares / Enclaves Apartments"},{"id":"cf165971-aab3-485c-97b2-d94343809168","lat":39.090289,"lng":-77.065056,"name":"Silver Spring","org":"AfriThrive Montgomery County","address":"3132 Bel Pre Road, Silver Spring, MD 20906","city":"Silver Spring","state":"MD","zip":"20906","phone":"(240) 706-1517","website":"https://www.afrithrive.org/healthy-food-initiative","email":"","description":"Community organization providing healthy food initiatives"},{"id":"47497aa9-0992-48a7-b627-9a8a8d40aefe","lat":39.0458,"lng":-76.9973,"name":"Silver Spring","org":"Clifton Park Baptist Church","address":"8818 Piney Branch Rd, Silver Spring, MD 20903","city":"Silver Spring","state":"MD","zip":"20903","phone":"(301) 434-2456","website":"","email":"outreach.cpbc@gmail.com","description":"Baptist church providing food pantry services in Silver Spring, Maryland"},{"id":"a649889b-f4b3-47a0-b354-9a4df2f3181d","lat":39.011,"lng":-77.032,"name":"Silver Spring","org":"Clifton Park Baptist Church","address":"8818 Piney Branch Road, Silver Spring, MD 20903","city":"Silver Spring","state":"MD","zip":"20903","phone":"(301) 434-2456","website":"","email":"outreach.cpbc@gmail.com","description":"Baptist church providing food pantry services in Silver Spring, Maryland"},{"id":"d5129031-4458-4b3f-a3e2-9da65e0c789e","lat":39.0458,"lng":-77.0315,"name":"Silver Spring","org":"First Alliance Church","address":"14500 New Hampshire Ave, Silver Spring, MD 20904","city":"Silver Spring","state":"MD","zip":"20904","phone":"(301) 785-8571","website":"","email":"Office@1stalliancechurch.com","description":"A church-based organization providing food assistance services to the community."},{"id":"772dd54f-a2ee-464e-a7c2-9ed15e57fed9","lat":39.0458,"lng":-77.0178,"name":"Silver Spring","org":"Guru Nanak Foundation of America (GNFA)","address":"12917 Old Columbia Pike, Silver Spring, MD 20904","city":"Silver Spring","state":"MD","zip":"20904","phone":"(301) 728-7138","website":"","email":"fooddrive@gnfa.org","description":"Community organization providing food assistance services in Silver Spring, Maryland"},{"id":"2f25b414-5a28-4c82-8e9c-0cc2412731f6","lat":39.1012,"lng":-77.0947,"name":"Silver Spring","org":"Harvest Gleaners","address":"3210 Norbeck Road, Silver Spring, MD 20906","city":"Silver Spring","state":"MD","zip":"20906","phone":"(301) 503-7397","website":"","email":"harvestgleaners@aol.com","description":"Food assistance organization providing food distribution services in Silver Spring, Maryland"},{"id":"19b57019-4367-4ca4-81ed-1033cd493c34","lat":39.015,"lng":-77.028,"name":"Silver Spring","org":"HC - Silver Spring","address":"1500 Forest Glen Rd, Silver Spring, MD 20910","city":"Silver Spring","state":"MD","zip":"20910","phone":"(301) 754-8735","website":"","email":"wylied@holycrosshealth.org","description":"Food distribution service operated by Holy Cross Health in Silver Spring, Maryland"},{"id":"5ce1f08b-e50c-4ab5-8d70-2906fe5aed7e","lat":39.0223,"lng":-77.0237,"name":"Silver Spring","org":"Kings and Priests International Ministries","address":"520 Randolph Road, Silver Spring, MD 20904","city":"Silver Spring","state":"MD","zip":"20904","phone":"(301) 467-6646","website":"","email":"kpciministries@gmail.com","description":"Religious ministry organization providing food assistance services including TEFAP (The Emergency Food Assistance Program) to the community."},{"id":"c975c9b5-3e2f-40d6-b329-4d0874fb7836","lat":39.0067,"lng":-77.0011,"name":"Silver Spring","org":"Luther Rice Neighborhood Center","address":"801 University Blvd W, Silver Spring, MD 20901","city":"Silver Spring","state":"MD","zip":"20901","phone":"(301) 593-1130","website":"","email":"lutherrice@aol.com","description":"Community neighborhood center providing food assistance services in Silver Spring, Maryland"},{"id":"d1a96c50-9ab6-4af9-a7b8-bff11dc21b12","lat":39.0458,"lng":-77.0428,"name":"Silver Spring","org":"Montgomery County Family Center","address":"12247 Georgia Ave, Silver Spring, MD 20902","city":"Silver Spring","state":"MD","zip":"20902","phone":"(301) 942-1790","website":"","email":"ashley.uribe@cc-dc.org","description":"A family service center providing food assistance and community support services in Silver Spring, Maryland."},{"id":"e45e68a7-0f59-48d8-9006-6914425369b6","lat":39.0891,"lng":-77.0283,"name":"Silver Spring","org":"Oak Chapel UMC","address":"14500 Layhill Road, Silver Spring, MD 20906","city":"Silver Spring","state":"MD","zip":"20906","phone":"(301) 598-0000","website":"","email":"ocumhub@gmail.com","description":"Food pantry operated by Oak Chapel United Methodist Church providing food assistance to the community in Silver Spring, Maryland."},{"id":"064733bc-849a-40af-8840-6e56f4ac033d","lat":39.018,"lng":-77.024,"name":"Silver Spring","org":"Rainbow Community Development Center","address":"2120 Industrial Parkway A, Silver Spring, MD 20904","city":"Silver Spring","state":"MD","zip":"20904","phone":"(301) 768-7672","website":"","email":"pdrumming@rainbowcdc.org","description":"Community development center providing food assistance services through TEFAP program"},{"id":"f344faa3-f2a4-490c-bb47-144f51b97fe0","lat":39.0458,"lng":-77.0153,"name":"Silver Spring","org":"St. Camillus Catholic Church","address":"1600 Saint Camillus Drive, Silver Spring, MD 20903","city":"Silver Spring","state":"MD","zip":"20903","phone":"(301) 960-8903","website":"","email":"jromanus74@gmail.com","description":"Catholic church providing food assistance services including TEFAP (The Emergency Food Assistance Program) in Silver Spring, Maryland."},{"id":"c0123009-2b64-4d9d-bb1c-4bfa90146a28","lat":39.0458,"lng":-76.9922,"name":"Silver Spring","org":"Vietnamese American Services","address":"12621 Old Columbia Pike, Silver Spring, MD 20904","city":"Silver Spring","state":"MD","zip":"20904","phone":"(301) 646-5852","website":"","email":"thotran@vasusa.org","description":"Vietnamese American Services providing food assistance and community support services"},{"id":"dcbb59e5-8cb0-4353-88b6-80237c9bbb17","lat":39.0458,"lng":-77.0228,"name":"Silver Spring","org":"Washington Spanish SDA Church","address":"12604 New Hampshire Avenue, Silver Spring, MD 20904","city":"Silver Spring","state":"MD","zip":"20904","phone":"(240) 638-7086","website":"","email":"fatimaservices@hotmail.com","description":"Community church providing food assistance services to the local community"},{"id":"f785ba88-e32e-4e65-8dd6-4f0ee4235db5","lat":39.0458,"lng":-77.0269,"name":"Silver Spring","org":"Zion Baptist Church North Campus","address":"11005 Dayton St, Silver Spring, MD 20902","city":"Silver Spring","state":"MD","zip":"20902","phone":"(240) 876-5167","website":"","email":"cburtsmith@gmail.com","description":"Food pantry services provided by Zion Baptist Church North Campus in Silver Spring, Maryland"},{"id":"e2becaf7-e4cc-4c50-a949-268145be7e6b","lat":39.0458,"lng":-77.0413,"name":"Silver Spring Christian Reformed Church","org":"Silver Spring Christian Reformed Church","address":"8900 Georgia Ave, Silver Spring, MD 20901","city":"Silver Spring","state":"MD","zip":"20901","phone":"(301) 284-8401","website":"","email":"foodpantry@sscrc.org","description":"Christian Reformed Church providing food pantry services to the Silver Spring community"},{"id":"1a7c92a3-b5ce-4a59-85c8-0ac87ee887d3","lat":39.1340714,"lng":-76.63519699999999,"name":"South Gate","org":"Glen View Gardens Apartments","address":"7987 Nolpark Court, South Gate, MD 21061","city":"South Gate","state":"MD","zip":"21061","phone":"(410) 553-4505","website":"https://www.facebook.com/profile.php?id=100066705630064","email":"","description":"Glen View Gardens Apartments"},{"id":"4221b930-44f5-441a-ad4f-5555b8a7a43c","lat":39.130762,"lng":-76.6236622,"name":"South Gate","org":"Quail Hollows","address":"7930 Silver Leaf Court, South Gate, MD 21061","city":"South Gate","state":"MD","zip":"21061","phone":"(410) 553-4505","website":"https://www.facebook.com/profile.php?id=100066705630064","email":"","description":"Food service organization: Quail Hollows"},{"id":"80a43a9a-8552-4a2e-a83c-d6bf49b1886b","lat":38.8462,"lng":-76.9148,"name":"Suitland","org":"Galilee Community Development Corporation","address":"2101 Shadyside Ave, Suitland, MD 20746","city":"Suitland","state":"MD","zip":"20746","phone":"(240) 312-2850","website":"","email":"svcasherrod@aol.com","description":"Community development corporation providing food assistance services including TEFAP distribution in Suitland, Maryland."},{"id":"2cc04d39-967b-480e-b4e2-7755ec3c6a6e","lat":38.987654,"lng":-77.012345,"name":"TAKOMA PARK","org":"Educare Support Services","address":"7517 New Hampshire Avenue, TAKOMA PARK, MD 20912","city":"TAKOMA PARK","state":"MD","zip":"20912","phone":"(240) 450-2092","website":"","email":"info@educaremd.org","description":"Community support organization providing food assistance services in Takoma Park, Maryland"},{"id":"07479514-37e3-48a3-94ef-8f3bc9165215","lat":38.975,"lng":-77.002,"name":"Takoma Park","org":"Small Things Matter, Inc","address":"201 Ethan Allen Avenue, Takoma Park, MD 20912","city":"Takoma Park","state":"MD","zip":"20912","phone":"(202) 669-8550","website":"","email":"thesmallthingsmatter@yahoo.com","description":"Community food assistance organization providing food pantry services in Takoma Park, Maryland."},{"id":"b79ad72c-d46d-4487-8aef-3c5db4720519","lat":38.8047,"lng":-76.9691,"name":"Temple Hills","org":"Interfaith Community Action Council - Oxon Hill Food Pantry","address":"4915 Saint Barnabas Road, Temple Hills, MD 20748","city":"Temple Hills","state":"MD","zip":"20748","phone":"(301) 899-8358","website":"","email":"oxonhillfoodpantry@gmail.com","description":"Food pantry providing emergency food assistance including TEFAP (The Emergency Food Assistance Program) services to the local community."},{"id":"0c4e8bf6-f896-4285-98c3-0b5080b4c98c","lat":38.8167,"lng":-76.9167,"name":"Temple Hills","org":"Southern Friendship Missionary Baptist Church","address":"4444 Branch Avenue, Temple Hills, MD 20748","city":"Temple Hills","state":"MD","zip":"20748","phone":"(301) 702-0100","website":"","email":"carriebgreen@gmail.com","description":"A Baptist church providing food assistance services to the community"},{"id":"8817858f-0ede-4748-ab9b-48cc85302836","lat":39.4535375,"lng":-76.6379771,"name":"Timonium","org":"Baltimore Hunger Project","address":"9596 Deereco Road, Timonium, MD 21093","city":"Timonium","state":"MD","zip":"21093","phone":"(410) 989-1247","website":"https://www.baltimorehungerproject.org/whats-in-a-bag/","email":"","description":"Baltimore Hunger Project"},{"id":"a552e12f-33fa-42c1-a056-e4a1d1809c94","lat":39.2872717,"lng":-76.590741,"name":"Upper Fells Point","org":"Barbie Mansion Community Fridge","address":"315 South Durham Street, Upper Fells Point, MD 21231","city":"Upper Fells Point","state":"MD","zip":"21231","phone":"","website":"https://www.instagram.com/barbiemansion_foodpantry/","email":"","description":"Community food pantry and fridge service"},{"id":"4b1fd07a-5d62-4833-ad7f-0cc2827a68bd","lat":38.84,"lng":-76.76,"name":"Upper Marlboro","org":"The Sanctuary","address":"5300 Crain Highway, Upper Marlboro, MD 20772","city":"Upper Marlboro","state":"MD","zip":"20772","phone":"(301) 752-0778","website":"","email":"mscharander@gmail.com","description":"Food pantry serving the Upper Marlboro community through the Capital Area Food Bank network"},{"id":"ee4e572f-4baa-452a-b40a-52915e7791a9","lat":38.8355,"lng":-76.7646,"name":"Upper Marlboro","org":"Great Commission Change of Life Ministries","address":"7937 Penn Randall Place Unit A, Upper Marlboro, MD 20772","city":"Upper Marlboro","state":"MD","zip":"20772","phone":"(301) 541-9968","website":"","email":"keith.iola@verizon.net","description":"Food assistance ministry providing emergency food services to the community"},{"id":"69f2a79f-2275-42a7-880e-00bcc661a1b7","lat":38.8514477,"lng":-76.8468798,"name":"Upper Marlboro","org":"Loaves & Fishes Community Food Pantry @ Ridley Ministries","address":"9235 D'Arcy Road, Upper Marlboro, MD 20774","city":"Upper Marlboro","state":"MD","zip":"20774","phone":"(301) 350-4298","website":"http://www.ridgleyministries.org","email":"","description":"Community food pantry operated by Ridley Ministries"},{"id":"30582910-f38e-4726-91c1-63e604e3336d","lat":38.7892,"lng":-76.7517,"name":"Upper Marlboro","org":"Cornerstone Peaceful Bible Baptist Church","address":"9010 Frank Tippett Road, Upper Marlboro, MD 20772","city":"Upper Marlboro","state":"MD","zip":"20772","phone":"(240) 346-4169","website":"","email":"janaclese@comcast.net","description":"Faith-based organization providing emergency food assistance through TEFAP (The Emergency Food Assistance Program) to community members in need."},{"id":"cb28b131-bf9b-477e-b72e-bdad2b33f0e5","lat":38.7849,"lng":-76.7547,"name":"Upper Marlboro","org":"Fountain Community Enrichment Inc.","address":"15853 Commerce Court, Upper Marlboro, MD 20774","city":"Upper Marlboro","state":"MD","zip":"20774","phone":"(202) 390-9841","website":"","email":"Jade.i.vaughn@gmail.com","description":"Community organization providing emergency food assistance through TEFAP program in Upper Marlboro, Maryland."},{"id":"58524fd1-7f67-46ce-a79e-b0e18ed3154d","lat":38.8346,"lng":-76.7634,"name":"Upper Marlboro","org":"Great Commission Change of Life Ministries","address":"7937 Penn Randall Place Unit A, Upper Marlboro, MD 20772","city":"Upper Marlboro","state":"MD","zip":"20772","phone":"(301) 541-9968","website":"","email":"keith.iola@verizon.net","description":"Food assistance ministry providing emergency food services to the community"},{"id":"0e6bd305-40f7-48ed-9faf-11ef1c30b7c2","lat":38.8075,"lng":-76.7689,"name":"Upper Marlboro","org":"The Sanctuary","address":"5300 Crain Highway, Upper Marlboro, MD 20772","city":"Upper Marlboro","state":"MD","zip":"20772","phone":"(301) 752-0778","website":"","email":"mscharander@gmail.com","description":"Food pantry serving the Upper Marlboro community through the Capital Area Food Bank network"},{"id":"d69d2ffe-36be-4dbe-8af6-e412f3dc7b6d","lat":39.3045847,"lng":-76.6363298,"name":"Upton","org":"The Journey to feeding Baltimore","address":"1822 Pennsylvania Avenue, Upton, MD 21217","city":"Upton","state":"MD","zip":"21217","phone":"","website":"https://www.facebook.com/groups/642135508518868/","email":"","description":"Open 24/7! Free, outdoor community fridge/pantry operated by local volunteers."},{"id":"2b1b2891-f144-4e29-bc0d-5a2b44aa82ce","lat":39.2991233,"lng":-76.6296732,"name":"Upton","org":"Pennsylvania Avenue A.M.E. Zion Church","address":"1128 Pennsylvania Avenue, Upton, MD 21201","city":"Upton","state":"MD","zip":"21201","phone":"(410) 728-7416","website":"https://www.pennaveamezion.church/","email":"","description":"Pennsylvania Avenue A.M.E. Zion Church"},{"id":"9c9f37c0-f628-4414-b5ec-d4a6bed9de9e","lat":39.2913882,"lng":-76.5926449,"name":"Washington Hill","org":"The Mix Church","address":"1725 East Baltimore Street, Washington Hill, MD 21231","city":"Washington Hill","state":"MD","zip":"21231","phone":"(410) 732-1414","website":"https://themixchurch.com/events/thanksgiving-giveaway/","email":"","description":"Community church providing food assistance services"},{"id":"1bf6fd37-5530-4e19-ac19-bc3cd4f5e81b","lat":39.0458,"lng":-77.0519,"name":"Wheaton","org":"Mid County United Ministries (MUM)","address":"11002 Viers Mill Road, Wheaton, MD 20902","city":"Wheaton","state":"MD","zip":"20902","phone":"(301) 929-8675","website":"","email":"midcountyunitedministries@gmail.com","description":"Community organization providing food assistance and support services in Montgomery County, Maryland."},{"id":"82249db5-8f9c-4a38-a4f4-f34e2dfe3acb","lat":39.3384338,"lng":-76.7620903,"name":"Windsor Mill","org":"Maryland Free Food Summer Program","address":"3030 Rolling Road, Windsor Mill, MD 21244","city":"Windsor Mill","state":"MD","zip":"21244","phone":"(443) 524-3200","website":"https://www.marylandfreefood.com/","email":"","description":"Parent and Guardian pickup only"},{"id":"b96d6cad-5245-422d-9ab1-9fcf87011103","lat":39.3587644,"lng":-76.7920819,"name":"Windsor Mill","org":"SFSP Maryland / March Life Tribute Center","address":"5616 Old Court Road, Windsor Mill, MD 21244","city":"Windsor Mill","state":"MD","zip":"21244","phone":"(410) 655-0110","website":"https://www.sfspmaryland.com/","email":"","description":"Families now have more flexible ways to get kids the food and nutrition they need during summer with the SUN Meals To-Go program. Now you can pick up FREE summer meals and snacks for your kids. Free meal boxes in Maryland are open to any child aged 1-18 - no application needed."},{"id":"6a43b6d4-3b48-4e8f-9e2d-0b7474a6d5a3","lat":39.3518744,"lng":-76.6107286,"name":"York-Homeland","org":"Bmore Community Fridge Network","address":"454 Notre Dame Lane, York-Homeland, MD 21212","city":"York-Homeland","state":"MD","zip":"21212","phone":"","website":"https://www.facebook.com/groups/642135508518868/","email":"","description":"(Behind the Loyola Bldg)"}]}