{"metadata":{"generated":"2025-07-27T04:08:36.038554+00:00","total_locations":48,"states_covered":26,"coverage":"26 US states/territories","source":"HAARRRvest - Pantry Pirate Radio Database","database_path":"pantry_pirate_radio.sqlite","format_version":"1.0","filtered_by":"state = NC"},"locations":[{"id":"126e0756-33f2-49e4-85f7-913a0bc5d32f","lat":36.1009919,"lng":-79.44652529999999,"name":"Burlington","org":"Freedom Fellowship Church","address":"300 Trollinger Street, Burlington, NC 27215","city":"Burlington","state":"NC","zip":"27215","phone":"(336) 261-9801","website":"https://ampleharvest.org/food-pantries/freedom-fellowship-church-8012/?usertype=","email":"","description":"Food service organization: Freedom Fellowship Church"},{"id":"b27a5049-3782-46a5-a0bb-3535cedafaa8","lat":35.2425739,"lng":-80.8331328,"name":"Charlotte","org":"Nourish UP @ Care Ring - Referral Required","address":"1514 North Graham Street, Charlotte, NC 28206","city":"Charlotte","state":"NC","zip":"28206","phone":"(704) 523-4333","website":"https://nourishup.org/pantry/care-ring-pantry/2025-03-25/","email":"","description":"Previously \"Loaves & Fishes/Friendship Trays\". New name. Same mission.\n\nThis is an emergency food pantry that requires a referral. \n\n**How To Get A Referral:**\nTo get a referral please have the following information ready for each person in the household:\n• First and Last Name\n• Date of Birth\n• Phone Number (if available)\n• Current Address\n• Gender\n• Ethnicity\n• Veteran Status (Y or N)\n• Receiving Food Stamps/SNAP (Y or N)\n• Household Income**\n• Disability (Y or N)\n• Email Address (if available)\n• Date of Pick Up\n• Preferred Pantry Location and secondary location in case the primary location is at capacity.\n\nTo access pop-up food shares for excess fresh items, no referral, ID or financial documents are required. Pre-registration is required to ensure there is enough food. Follow this link to see locations and register:  https://nourishup.org/foodshare/\n\nVisit our website at https://nourishup.org/pantries/ under the food pantries tab for all of our location and hours."},{"id":"4a0e2064-f9b4-4388-b145-34b1e5fea601","lat":35.220198,"lng":-80.85815869999999,"name":"Charlotte","org":"Queen City Nerve","address":"332 West Bland Street, Charlotte, NC 28203","city":"Charlotte","state":"NC","zip":"28203","phone":"(704) 817-8996","website":"https://qcnerve.com/","email":"","description":"Queen City Nerve organization"},{"id":"b5dcdb5c-0656-42fe-94ee-c487a4578a03","lat":35.2187848,"lng":-80.8373742,"name":"Charlotte","org":"mRelief SNAP Screener - Charlotte","address":", Charlotte, NC UNKNOWN","city":"Charlotte","state":"NC","zip":"UNKNOWN","phone":"","website":"https://apply.mrelief.com/screener","email":"","description":"Families need to complete the 2024-25 school meal & summer EBT application to receive summer benefits ($120 per eligible child)- name spelling, address, etc. all need to be up to date and accurate! Summer EBT Outreach Toolkit\" https://northcarolina.summerebtapp.com/begin\nGo to https://apply.mrelief.com/screener or text \"Food\" to 74544 to check eligibility."},{"id":"147c9da7-9edc-4399-9242-1a4064460421","lat":35.2694976,"lng":-80.86949,"name":"Charlotte","org":"Food Lion Feeds at Nourish Up - Referral Required","address":"901 Carrier Drive, Charlotte, NC 28216","city":"Charlotte","state":"NC","zip":"28216","phone":"(704) 523-4333","website":"https://nourishup.org/pantries/list/?tribe-bar-date=2024-10-16","email":"","description":"Previously \"Loaves & Fishes/Friendship Trays\". New name. Same mission.\n\nThis is an emergency food pantry that requires a referral. \n\n**How To Get A Referral:**\nTo get a referral please have the following information ready for each person in the household:\n• First and Last Name\n• Date of Birth\n• Phone Number (if available)\n• Current Address\n• Gender\n• Ethnicity\n• Veteran Status (Y or N)\n• Receiving Food Stamps/SNAP (Y or N)\n• Household Income**\n• Disability (Y or N)\n• Email Address (if available)\n• Date of Pick Up\n• Preferred Pantry Location and secondary location in case the primary location is at capacity.\n\nTo access pop-up food shares for excess fresh items, no referral, ID or financial documents are required. Pre-registration is required to ensure there is enough food. Follow this link to see locations and register:  https://nourishup.org/foodshare/\n\nVisit our website at https://nourishup.org/pantries/ under the food pantries tab for all of our location and hours."},{"id":"ac772fad-27db-42c3-91e0-c1467472fc2f","lat":35.399864,"lng":-80.608841,"name":"Concord","org":"Corner Field Market - Community","address":"280 Concord Pkwy S, Concord, NC 28027","city":"Concord","state":"NC","zip":"28027","phone":"(704) 413-7711","website":"https://www.cabarrusdreamcenter.com/","email":"","description":"Food service organization: Corner Field Market - Community"},{"id":"3c42258b-de39-4d67-b78c-6b254ec84f96","lat":35.399376,"lng":-80.610641,"name":"Concord","org":"Corner Field Market - Community","address":"280 Concord Pkwy S, Concord, NC 28027","city":"Concord","state":"NC","zip":"28027","phone":"(704) 413-7711","website":"https://www.cabarrusdreamcenter.com/","email":"","description":"Food service organization: Corner Field Market - Community"},{"id":"92ddba0d-1755-4dcd-856b-0add29588bb0","lat":35.3932689,"lng":-80.5906663,"name":"Solo Faith Church Inc.","org":"Solo Faith Church Inc.","address":"589 Old Charlotte Rd SW, Concord, NC 28027","city":"Concord","state":"NC","zip":"28027","phone":"(704) 214-5422","website":"Solofaith.com/foodbank","email":"","description":"Solo Faith Food Bank – Free Groceries in Concord NC\n\nIf you're looking for compassionate, convenient, and consistent access to free food in Concord NC, the Solo Faith Food Bank is here to serve. Operated by Solo Faith Church, this volunteer-run food outreach program offers grocery relief to individuals and families in need across Cabarrus County."},{"id":"d560c691-a097-4489-acb3-7063a7ec068c","lat":35.4598624,"lng":-80.8523013,"name":"Cornelius","org":"The Carolina Factory","address":"18619 Starcreek Drive, Cornelius, NC 28031","city":"Cornelius","state":"NC","zip":"28031","phone":"","website":"","email":"info@carolinafactory.com","description":"Community organization providing services in Cornelius, NC"},{"id":"0d8b57ea-ac27-4186-bc6d-19a4514c110e","lat":35.1738858,"lng":-80.9789687,"name":"Dixie - Berryhill","org":"Berewick Recreation Center","address":"5910 Dixie River Road, Dixie - Berryhill, NC 28278","city":"Dixie - Berryhill","state":"NC","zip":"28278","phone":"(980) 314-1102","website":"https://summermeals4nckids.org/","email":"","description":"This summer from 06-16-2025 to 08-08-2025. \nThe supervisor is keairah dawkins  (tel: (980) 314-1102). \nAll kids and teens ages 18 and under can eat for free.\nSome meal sites may ask for registration to receive meals\nFamilies can receive $120 in SUN Bucks grocery-buying benefits per eligible school-aged child on a debit-like card to buy nutritious food during the summer at grocery stores, farmers markets and some online retailers. Learn more and find out if your child is eligible at ncdhhs.gov/SUNBucks."},{"id":"b47a6a24-da86-4445-b70e-af92cd51e8ae","lat":35.2128197,"lng":-80.9903544,"name":"Dixie - Berryhill","org":"Berryhill School","address":"10501 Windy Grove Road, Dixie - Berryhill, NC 28278","city":"Dixie - Berryhill","state":"NC","zip":"28278","phone":"(980) 343-3430","website":"https://summermeals4nckids.org/","email":"","description":"This summer from 06-23-2025 to 07-31-2025. \nThe supervisor is Rick Schine  (tel: (980) 343-3430).\nAll kids and teens ages 18 and under can eat for free.\nSome meal sites may ask for registration to receive meals\nFamilies can receive $120 in SUN Bucks grocery-buying benefits per eligible school-aged child on a debit-like card to buy nutritious food during the summer at grocery stores, farmers markets and some online retailers. Learn more and find out if your child is eligible at ncdhhs.gov/SUNBucks."},{"id":"d9fc0231-b234-4b99-b28a-99b0778e7388","lat":35.2573148,"lng":-80.8241748,"name":"Druid Hills North","org":"Druid Hills Academy Summer Meal","address":"2801 Lucena Street, Druid Hills North, NC 28206","city":"Druid Hills North","state":"NC","zip":"28206","phone":"(980) 343-3344","website":"https://summermeals4nckids.org/","email":"","description":"Open this summer from 06-16-2025 to 07-31-2025. \nAll kids and teens ages 18 and under can eat for free.\nSome meal sites may ask for registration to receive meals\nFamilies can receive $120 in SUN Bucks grocery-buying benefits per eligible school-aged child on a debit-like card to buy nutritious food during the summer at grocery stores, farmers markets and some online retailers. Learn more and find out if your child is eligible at ncdhhs.gov/SUNBucks.\nThe supervisor is Missy Curenton  (tel: (980) 343-3344)."},{"id":"8fd1fb17-8c32-4998-a4de-4742961b8def","lat":35.1643419,"lng":-80.9263149,"name":"Eagle Lake","org":"Steele Creek Preparatory Academy","address":"2200 Shopton Road, Eagle Lake, NC 28217","city":"Eagle Lake","state":"NC","zip":"28217","phone":"(704) 451-4967","website":"https://summermeals4nckids.org/","email":"","description":"This summer from 06-16-2025 to 07-31-2025. \nThe supervisor is Danielle Corbin  (tel: (704) 451-4967).\nAll kids and teens ages 18 and under can eat for free.\nSome meal sites may ask for registration to receive meals\nFamilies can receive $120 in SUN Bucks grocery-buying benefits per eligible school-aged child on a debit-like card to buy nutritious food during the summer at grocery stores, farmers markets and some online retailers. Learn more and find out if your child is eligible at ncdhhs.gov/SUNBucks."},{"id":"7282925e-b750-4cc0-8096-67b1b8b9991b","lat":35.1427109,"lng":-80.72460339999999,"name":"East Forest","org":"Autism Charlotte","address":"2331 Crownpoint Executive Drive, East Forest, NC 28227","city":"East Forest","state":"NC","zip":"28227","phone":"(845) 269-9387","website":"https://summermeals4nckids.org/","email":"","description":"This summer from 06-16-2025 to 08-08-2025. \nThe supervisor is Laurel Wolfe  (tel: (845) 269-9387).\nAll kids and teens ages 18 and under can eat for free.\nSome meal sites may ask for registration to receive meals\nFamilies can receive $120 in SUN Bucks grocery-buying benefits per eligible school-aged child on a debit-like card to buy nutritious food during the summer at grocery stores, farmers markets and some online retailers. Learn more and find out if your child is eligible at ncdhhs.gov/SUNBucks."},{"id":"6d331230-6602-4b74-8231-22f28f4ac380","lat":35.1770633,"lng":-80.75780820000001,"name":"East Forest","org":"East Mecklenburg High","address":"6800 Monroe Road, East Forest, NC 28212","city":"East Forest","state":"NC","zip":"28212","phone":"(980) 343-3762","website":"https://summermeals4nckids.org/","email":"","description":"This summer from 06-16-2025 to 06-26-2025. The supervisor is Jackie Walker (tel: (980) 343-3762).\nAll kids and teens ages 18 and under can eat for free.\nSome meal sites may ask for registration to receive meals\nFamilies can receive $120 in SUN Bucks grocery-buying benefits per eligible school-aged child on a debit-like card to buy nutritious food during the summer at grocery stores, farmers markets and some online retailers. Learn more and find out if your child is eligible at ncdhhs.gov/SUNBucks."},{"id":"f8abac6a-ef98-4ea6-bb91-f6626bc65068","lat":35.2092485,"lng":-80.7476842,"name":"Eastland - Wilora Lake","org":"Charlotte East Language Academy","address":"6108 Wilora Lake Road, Eastland - Wilora Lake, NC 28212","city":"Eastland - Wilora Lake","state":"NC","zip":"28212","phone":"(980) 343-0383","website":"https://summermeals4nckids.org/","email":"","description":"This summer from 07-07-2025 to 07-31-2025. \nThe supervisor is Daryl Cooper  (tel: (980) 343-0383).\nAll kids and teens ages 18 and under can eat for free.\nSome meal sites may ask for registration to receive meals\nFamilies can receive $120 in SUN Bucks grocery-buying benefits per eligible school-aged child on a debit-like card to buy nutritious food during the summer at grocery stores, farmers markets and some online retailers. Learn more and find out if your child is eligible at ncdhhs.gov/SUNBucks."},{"id":"b070dade-c8c7-4371-b184-93f5d361e710","lat":35.21463749999999,"lng":-80.7549789,"name":"Eastland - Wilora Lake","org":"Calvary Nazarene Church","address":"4000 North Sharon Amity Road, Eastland - Wilora Lake, NC 28205","city":"Eastland - Wilora Lake","state":"NC","zip":"28205","phone":"(704) 536-6485","website":"https://charlottecalvary.org/food-pantry","email":"","description":"https://www.facebook.com/cltcalvary"},{"id":"2a874eeb-c2c0-429b-bdc3-3f78d6b24066","lat":35.2604689,"lng":-80.73618789999999,"name":"Eastway","org":"Assurance Community Bible Ministries","address":"4000 East W.T. Harris Boulevard, Eastway, NC 28215","city":"Eastway","state":"NC","zip":"28215","phone":"(704) 779-1653","website":"https://summermeals4nckids.org/","email":"","description":"This summer from 06-16-2025 to 08-08-2025. \nThe supervisor is Deborah Redmond  (tel: (704) 779-1653). \nAll kids and teens ages 18 and under can eat for free.\nSome meal sites may ask for registration to receive meals\nFamilies can receive $120 in SUN Bucks grocery-buying benefits per eligible school-aged child on a debit-like card to buy nutritious food during the summer at grocery stores, farmers markets and some online retailers. Learn more and find out if your child is eligible at ncdhhs.gov/SUNBucks."},{"id":"e5db7550-0a0e-4aee-9a18-84477d61b4c3","lat":35.2518961,"lng":-80.7654005,"name":"Eastway","org":"Briarwood Academic","address":"1001 Wilann Drive, Eastway, NC 28215","city":"Eastway","state":"NC","zip":"28215","phone":"(980) 343-3366","website":"https://summermeals4nckids.org/","email":"","description":"From 06-16-2025 to 07-24-2025. \nThe supervisor is Veronica Bailey  (tel: (980) 343-3366).\nAll kids and teens ages 18 and under can eat for free.\nSome meal sites may ask for registration to receive meals\nFamilies can receive $120 in SUN Bucks grocery-buying benefits per eligible school-aged child on a debit-like card to buy nutritious food during the summer at grocery stores, farmers markets and some online retailers. Learn more and find out if your child is eligible at ncdhhs.gov/SUNBucks."},{"id":"6d05e2ae-ca1c-4d56-920c-1773a9c377bb","lat":35.2551233,"lng":-80.775381,"name":"Eastway","org":"Eastway Regional Recreation Center","address":"3150 Eastway Park Drive, Eastway, NC 28213","city":"Eastway","state":"NC","zip":"28213","phone":"(980) 301-3689","website":"https://summermeals4nckids.org/","email":"","description":"this summer from 06-16-2025 to 08-08-2025. \nThe supervisor is Tahara Epps  (tel: (980) 301-3689).  \nAll kids and teens ages 18 and under can eat for free.\nSome meal sites may ask for registration to receive meals\nFamilies can receive $120 in SUN Bucks grocery-buying benefits per eligible school-aged child on a debit-like card to buy nutritious food during the summer at grocery stores, farmers markets and some online retailers. Learn more and find out if your child is eligible at ncdhhs.gov/SUNBucks."},{"id":"89c09221-d8f7-44a3-9d0d-f0e88c20d5d9","lat":35.4196906,"lng":-80.8418961,"name":"Huntersville","org":"Angels & Sparrows Community Table","address":"510 North Old Statesville Road, Huntersville, NC 28078","city":"Huntersville","state":"NC","zip":"28078","phone":"(704) 918-0122","website":"https://angelsandsparrows.org","email":"","description":"* Free seated meal each weekday.\n* No qualification required.  \n* Note:  *visitors who arrive between 12:40-1:00 p.m. will receive a to-go meal.*\n* After eating lunch, visitors can take home groceries from our Marketplace (subject to availability). **Walk-up grocery shopping is not provided.\n* We share a driveway with New Friendship Presbyterian Church at the intersection of Ramah Church Road & Old Statesville Road.  For reference, the church is located across the street from a 7-Eleven gas station."},{"id":"55ad55bb-88b1-4b1c-973e-a5796ce13b7c","lat":35.1960415,"lng":-80.724889,"name":"Idlewild Farms","org":"Albemarle Road Recreation Center","address":"5027 Idlewild Road North, Idlewild Farms, NC 28227","city":"Idlewild Farms","state":"NC","zip":"28227","phone":"(980) 900-7280","website":"https://summermeals4nckids.org/","email":"","description":"This summer from 06-16-2025 to 08-08-2025. \nThe supervisor is Darrius Harris  (tel: (980) 900-7280).  \nAll kids and teens ages 18 and under can eat for free.\nSome meal sites may ask for registration to receive meals\nFamilies can receive $120 in SUN Bucks grocery-buying benefits per eligible school-aged child on a debit-like card to buy nutritious food during the summer at grocery stores, farmers markets and some online retailers. Learn more and find out if your child is eligible at ncdhhs.gov/SUNBucks."},{"id":"68a6229e-acf6-4544-8347-828bd1bf7e92","lat":35.2555578,"lng":-80.8771313,"name":"Lakewood","org":"Faith Memorial Baptist Church Summer Meals","address":"211 Lakewood Avenue, Lakewood, NC 28208","city":"Lakewood","state":"NC","zip":"28208","phone":"(704) 449-6475","website":"https://summermeals4nckids.org/","email":"","description":"No service on 7/3/2025 and 7/4/2025\nthis summer from 06-16-2025 to 07-25-2025.\nAll kids and teens ages 18 and under can eat for free.\nSome meal sites may ask for registration to receive meals\nFamilies can receive $120 in SUN Bucks grocery-buying benefits per eligible school-aged child on a debit-like card to buy nutritious food during the summer at grocery stores, farmers markets and some online retailers. Learn more and find out if your child is eligible at ncdhhs.gov/SUNBucks.\nThe supervisor is Lawanda Williams (tel: (704) 449-6475)."},{"id":"5abbd60a-1214-43e7-a612-8bee411e95d1","lat":35.2571568,"lng":-80.85356039999999,"name":"Lincoln Heights","org":"Little Angels Enrichment","address":"2010 Russell Avenue, Lincoln Heights, NC 28216","city":"Lincoln Heights","state":"NC","zip":"28216","phone":"(980) 299-3838","website":"https://summermeals4nckids.org/","email":"","description":"From Dates: 06-09-2025 to 08-22-2025  \nAll kids and teens ages 18 and under can eat for free.\nSome meal sites may ask for registration to receive meals\nFamilies can receive $120 in SUN Bucks grocery-buying benefits per eligible school-aged child on a debit-like card to buy nutritious food during the summer at grocery stores, farmers markets and some online retailers. Learn more and find out if your child is eligible at ncdhhs.gov/SUNBucks.\nThe supervisor is Marlaina Williford  (tel: (980) 299-3838 Ext. 1)."},{"id":"90f4d192-2a9d-44a8-babe-0050626aac32","lat":35.1599861,"lng":-80.71520199999999,"name":"Matthews","org":"Crown Point Elementary","address":"3335 Sam Newell Road, Matthews, NC 28105","city":"Matthews","state":"NC","zip":"28105","phone":"(980) 343-3363","website":"https://summermeals4nckids.org/","email":"","description":"This summer from 07-07-2025 to 07-31-2025. \nThe supervisor is Kim Anthony  (tel: (980) 343-3363).  \nAll kids and teens ages 18 and under can eat for free.\nSome meal sites may ask for registration to receive meals\nFamilies can receive $120 in SUN Bucks grocery-buying benefits per eligible school-aged child on a debit-like card to buy nutritious food during the summer at grocery stores, farmers markets and some online retailers. Learn more and find out if your child is eligible at ncdhhs.gov/SUNBucks."},{"id":"8b72698e-e167-4c57-80f0-cd90b22f91a1","lat":35.2971547,"lng":-80.7560364,"name":"Mineral Springs / Rumple Road","org":"Breathe of Life, Inc","address":"7935 North Tryon Street, Mineral Springs / Rumple Road, NC 28262","city":"Mineral Springs / Rumple Road","state":"NC","zip":"28262","phone":"(980) 206-3385","website":"https://summermeals4nckids.org/","email":"","description":"This summer from 06-16-2025 to 08-08-2025. \nThe supervisor is Elizabeth Kirkland  (tel: (980) 206-3385).\nAll kids and teens ages 18 and under can eat for free.\nSome meal sites may ask for registration to receive meals\nFamilies can receive $120 in SUN Bucks grocery-buying benefits per eligible school-aged child on a debit-like card to buy nutritious food during the summer at grocery stores, farmers markets and some online retailers. Learn more and find out if your child is eligible at ncdhhs.gov/SUNBucks."},{"id":"8fa824bc-a1d2-413c-9567-47345c36da9a","lat":35.2943136,"lng":-80.79595909999999,"name":"Mineral Springs / Rumple Road","org":"Derita Presbyterian Church","address":"2230 West Sugar Creek Road, Mineral Springs / Rumple Road, NC 28262","city":"Mineral Springs / Rumple Road","state":"NC","zip":"28262","phone":"(704) 746-8081","website":"https://summermeals4nckids.org/","email":"","description":"This summer from 06-17-2025 to 08-08-2025. \nThe supervisor is Janette Kinard  (tel: (704) 746-8081).\nAll kids and teens ages 18 and under can eat for free.\nSome meal sites may ask for registration to receive meals\nFamilies can receive $120 in SUN Bucks grocery-buying benefits per eligible school-aged child on a debit-like card to buy nutritious food during the summer at grocery stores, farmers markets and some online retailers. Learn more and find out if your child is eligible at ncdhhs.gov/SUNBucks."},{"id":"fd9d56e3-29dd-4f7d-b9c8-4684352000dc","lat":35.2854598,"lng":-80.7803589,"name":"Mineral Springs / Rumple Road","org":"Northside Charlotte","address":"333 Jeremiah Boulevard, Mineral Springs / Rumple Road, NC 28262","city":"Mineral Springs / Rumple Road","state":"NC","zip":"28262","phone":"(704) 302-3699","website":"https://summermeals4nckids.org/","email":"","description":"This summer from 06-16-2025 to 08-22-2025. \nThe supervisor is Veronica Washington  (tel: (704) 302-3699).\nAll kids and teens ages 18 and under can eat for free.\nSome meal sites may ask for registration to receive meals\nFamilies can receive $120 in SUN Bucks grocery-buying benefits per eligible school-aged child on a debit-like card to buy nutritious food during the summer at grocery stores, farmers markets and some online retailers. Learn more and find out if your child is eligible at ncdhhs.gov/SUNBucks."},{"id":"b8debb7b-848f-48a0-833a-bf4bea965c99","lat":35.2418169,"lng":-80.7963876,"name":"North Charlotte","org":"The Plaza Pantry","address":"3321 The Plaza, North Charlotte, NC 28205","city":"North Charlotte","state":"NC","zip":"28205","phone":"(704) 334-3913","website":"https://www.plazabaptist.org/pantry","email":"","description":"Food pantry service organization"},{"id":"7335ff6f-7811-400b-8ec0-0c98b7680c65","lat":35.2465552,"lng":-80.8080899,"name":"North Charlotte","org":"Johnston YMCA","address":"3025 North Davidson Street, North Charlotte, NC 28205","city":"North Charlotte","state":"NC","zip":"28205","phone":"(704) 716-6300","website":"https://www.ymcacharlotte.org/branches/johnston","email":"","description":"Pre registration required from Nourish up 704.523.4333"},{"id":"0d0e436e-4596-41a5-85ca-962178cbc9b6","lat":35.8581883,"lng":-78.640658,"name":"North Raleigh","org":"Farmers Market Nutrition Program (WIC)","address":"5601 Six Forks Road, North Raleigh, NC 27609","city":"North Raleigh","state":"NC","zip":"27609","phone":"(919) 707-5800","website":"https://www.ncdhhs.gov/divisions/child-and-family-well-being/food-and-nutrition-services-food-stamps/apply-food-and-nutrition-services-food-stamps","email":"","description":"Families need to complete the 2024-25 school meal & summer EBT application to receive summer benefits ($120 per eligible child)- name spelling, address, etc. all need to be up to date and accurate! https://northcarolina.summerebtapp.com/begin\nApply by mail. Fill out a paper application and mail it to your local county DSS office. Form link  https://policies.ncdhhs.gov/divisional/social-services/forms/dss-8207-application-for-food-and-nutrition-services/@@display-file/form_file/dss-8207-ia.pdf\nApply online with https://epass.nc.gov/CitizenPortal/application.do. You may need to create an account first\nApply in person at your https://www.ncdhhs.gov/divisions/social-services/local-dss-directory) office"},{"id":"58db82e8-72a3-47bf-baed-503528f601c6","lat":35.2469235,"lng":-80.7495952,"name":"Oak Forest","org":"Cochrane Collegiate Academy","address":"6200 Starhaven Drive, Oak Forest, NC 28215","city":"Oak Forest","state":"NC","zip":"28215","phone":"(980) 343-3367","website":"https://summermeals4nckids.org/","email":"","description":"This summer from 07-21-2025 to 07-31-2025. \nThe supervisor is Merritt Murphy  (tel: (980) 343-3367).\nAll kids and teens ages 18 and under can eat for free.\nSome meal sites may ask for registration to receive meals\nFamilies can receive $120 in SUN Bucks grocery-buying benefits per eligible school-aged child on a debit-like card to buy nutritious food during the summer at grocery stores, farmers markets and some online retailers. Learn more and find out if your child is eligible at ncdhhs.gov/SUNBucks."},{"id":"c2a27469-2adf-4699-9a94-f526b3e687e4","lat":35.07149200000001,"lng":-80.772466,"name":"Piper Glen","org":"Providence Presbyterian Church","address":"10140 Providence Church Lane, Piper Glen, NC 28277","city":"Piper Glen","state":"NC","zip":"28277","phone":"(704) 846-1079","website":"https://providencepresclt.org/outreach/serving-in-our-community","email":"","description":"Providence Presbyterian Church"},{"id":"a6d6e43b-3083-41fa-8c89-401f98b3d4bf","lat":35.0561467,"lng":-80.8138154,"name":"Provincetowne","org":"St. Matthew Catholic Church","address":"8015 Ballantyne Commons Parkway, Provincetowne, NC 28277","city":"Provincetowne","state":"NC","zip":"28277","phone":"(704) 543-7677","website":"https://stmatthewcatholic.org/foodpantry","email":"","description":"Catholic church providing food pantry services to the community"},{"id":"64c4915e-7339-44f6-89ae-d519dba0ff36","lat":35.0941962,"lng":-80.7776836,"name":"Raintree","org":"Messiah Lutheran Church","address":"8300 Providence Road, Raintree, NC 28277","city":"Raintree","state":"NC","zip":"28277","phone":"(704) 541-1624","website":"https://messiah-nc.org/","email":"","description":"Food service organization: Messiah Lutheran Church"},{"id":"1dacb53b-3b2d-43f6-aad5-e35ca068e3e1","lat":35.2409507,"lng":-80.7634645,"name":"Shannon Park","org":"Lion of Judah Outreach Corp.","address":"3325 Donovan Place, Shannon Park, NC 28215","city":"Shannon Park","state":"NC","zip":"28215","phone":"(704) 907-4076","website":"https://lionofjudahofdavid.org/","email":"","description":"Call in advance (704) 907-4076 to make an appointment. Please do not go to pantry without appointment"},{"id":"203655a2-7fe4-4812-9e9b-2c9c2275e010","lat":35.2997651,"lng":-80.8457579,"name":"Slater Road / Hamilton Circle","org":"Charlotte Mecklenburg Academy","address":"5833 Milhaven Lane, Slater Road / Hamilton Circle, NC 28269","city":"Slater Road / Hamilton Circle","state":"NC","zip":"28269","phone":"(980) 343-0682","website":"https://summermeals4nckids.org/","email":"","description":"This summer from 07-14-2025 to 07-31-2025. \nThe supervisor is Ana Estevez  (tel: (980) 343-0682).\nAll kids and teens ages 18 and under can eat for free.\nSome meal sites may ask for registration to receive meals\nFamilies can receive $120 in SUN Bucks grocery-buying benefits per eligible school-aged child on a debit-like card to buy nutritious food during the summer at grocery stores, farmers markets and some online retailers. Learn more and find out if your child is eligible at ncdhhs.gov/SUNBucks."},{"id":"f8ee70b0-425c-46db-b70e-ae94c07dbac4","lat":35.2955552,"lng":-80.83987719999999,"name":"Slater Road / Hamilton Circle","org":"Love Fellowship Church","address":"5535 Statesville Road, Slater Road / Hamilton Circle, NC 28269","city":"Slater Road / Hamilton Circle","state":"NC","zip":"28269","phone":"(704) 921-1550","website":"https://www.lfccharlotte.org/","email":"","description":"Love Fellowship Church"},{"id":"071ceb8d-58f2-47af-b6ee-7ef5723093ea","lat":35.783775,"lng":-80.912659,"name":"Statesville","org":"SYBA Food Pantry","address":"1423 W Front St, Statesville, NC 28677","city":"Statesville","state":"NC","zip":"28677","phone":"(704) 873-4372","website":"www.sybaptist.org/food","email":"","description":"Food pantry services"},{"id":"66e8225c-53f2-4a4d-8f14-00447df1a608","lat":35.1111718,"lng":-80.8765427,"name":"Sterling","org":"PineValley Community","address":"1700 Longleaf Drive, Sterling, NC 28210","city":"Sterling","state":"NC","zip":"28210","phone":"(704) 835-6798","website":"https://summermeals4nckids.org/","email":"","description":"This summer from 06-16-2025 to 08-22-2025. \nThe supervisor is Jonquil Peay  (tel: (704) 835-6798).  \nAll kids and teens ages 18 and under can eat for free.\nSome meal sites may ask for registration to receive meals\nFamilies can receive $120 in SUN Bucks grocery-buying benefits per eligible school-aged child on a debit-like card to buy nutritious food during the summer at grocery stores, farmers markets and some online retailers. Learn more and find out if your child is eligible at ncdhhs.gov/SUNBucks."},{"id":"0d932336-946c-4b07-915c-c714291b3dc4","lat":35.3267645,"lng":-80.86871289999999,"name":"Sunset Road","org":"Kings Church Inc. Outreach","address":"7003 Beatties Ford Road, Sunset Road, NC 28216","city":"Sunset Road","state":"NC","zip":"28216","phone":"(704) 858-7460","website":"","email":"","description":"Food pantry service"},{"id":"852a906b-1c6f-416e-a3df-43ce8291a477","lat":35.2617376,"lng":-80.8942892,"name":"Thomasboro - Hoskins","org":"God's Lighthouse Outreach Church","address":"4409 Hovis Road, Thomasboro - Hoskins, NC 28208","city":"Thomasboro - Hoskins","state":"NC","zip":"28208","phone":"(980) 309-0881","website":"","email":"","description":"Community organization providing outreach services"},{"id":"94196079-484e-4220-b08a-2d5e78684618","lat":35.24691129999999,"lng":-80.9297059,"name":"Toddville Road","org":"Our Lady of Guadalupe","address":"6212 Tuckaseegee Road, Toddville Road, NC 28214","city":"Toddville Road","state":"NC","zip":"28214","phone":"(704) 391-3732","website":"","email":"aklimka@archdiosf.org | rdearagon@hotmail.com","description":"Food service organization: Our Lady of Guadalupe"},{"id":"51163079-ca0b-4d40-aba6-4abf5ca1b8ac","lat":35.2501471,"lng":-80.81168009999999,"name":"Tryon Hills","org":"Hearts United for Good","address":"2920 North Tryon Street, Tryon Hills, NC 28206","city":"Tryon Hills","state":"NC","zip":"28206","phone":"(704) 626-5980","website":"https://www.hugclt.org/","email":"","description":"Food service organization: Hearts United for Good"},{"id":"d42cb6b0-0319-4793-8cb0-a3f2bf88bc22","lat":35.3099496,"lng":-80.7239851,"name":"University City South","org":"Jamil Niner Student Pantry","address":"1224 John Kirk Drive, University City South, NC 28262","city":"University City South","state":"NC","zip":"28262","phone":"(704) 687-0289","website":"https://ninerpantry.charlotte.edu/food-pantry-request","email":"","description":"The pantry's online form for student shoppers opens every Sunday morning at 7:00 a.m. Shopping appointments can be scheduled between 11:00 - 4:30 p.m"},{"id":"f3668222-da21-469f-b40e-35577b9d78f8","lat":35.2655034,"lng":-80.8583795,"name":"University Park","org":"West Charlotte High Summer Meal","address":"2219 Senior Drive, University Park, NC 28216","city":"University Park","state":"NC","zip":"28216","phone":"(980) 343-3440","website":"https://summermeals4nckids.org/","email":"","description":"from 06-16-2025 to 08-08-2025.\nAll kids and teens ages 18 and under can eat for free.\nSome meal sites may ask for registration to receive meals\nFamilies can receive $120 in SUN Bucks grocery-buying benefits per eligible school-aged child on a debit-like card to buy nutritious food during the summer at grocery stores, farmers markets and some online retailers. Learn more and find out if your child is eligible at ncdhhs.gov/SUNBucks.\nThe supervisor is Darryl Reid  (tel: (980) 343-3440)."},{"id":"8348a694-3a71-4484-8a00-f9b8eada7a94","lat":35.2084063,"lng":-80.89348059999999,"name":"West Blvd","org":"Arbor Glen Recreation Center","address":"1520 Clanton Road, West Blvd, NC 28208","city":"West Blvd","state":"NC","zip":"28208","phone":"(980) 314-1110","website":"https://summermeals4nckids.org/","email":"","description":"from 06-16-2025 to 08-08-2025\nAll kids and teens ages 18 and under can eat for free.\nSome meal sites may ask for registration to receive meals\nFamilies can receive $120 in SUN Bucks grocery-buying benefits per eligible school-aged child on a debit-like card to buy nutritious food during the summer at grocery stores, farmers markets and some online retailers. Learn more and find out if your child is eligible at ncdhhs.gov/SUNBucks.\nThe supervisor is Marquisha Clayburn  (tel: (980) 314-1110)."},{"id":"95668475-cacd-412d-95a5-828f708028f5","lat":35.2750464,"lng":-80.853332,"name":"Wilson Heights","org":"W.I.T.H. @ The Heights Ministry","address":"2137 B Avenue, Wilson Heights, NC 28216","city":"Wilson Heights","state":"NC","zip":"28216","phone":"(704) 621-8443","website":"https://summermeals4nckids.org/","email":"","description":"from 06-16-2025 to 07-24-2025.   The supervisor is Sandra Gray  (tel: (704) 621-8443).  \nAll kids and teens ages 18 and under can eat for free.\nSome meal sites may ask for registration to receive meals\nFamilies can receive $120 in SUN Bucks grocery-buying benefits per eligible school-aged child on a debit-like card to buy nutritious food during the summer at grocery stores, farmers markets and some online retailers. Learn more and find out if your child is eligible at ncdhhs.gov/SUNBucks."}]}