{"metadata":{"generated":"2025-08-06T23:30:55.856845+00:00","total_locations":3,"states_covered":44,"coverage":"44 US states/territories","source":"HAARRRvest - Pantry Pirate Radio Database","database_path":"pantry_pirate_radio.sqlite","format_version":"1.0","filtered_by":"state = ND"},"locations":[{"id":"2064e77a-d040-4544-b63d-1593d452d715","lat":46.8083,"lng":-100.7837,"name":"Bismarck","org":"Dream Center Bismarck","address":"1805 Park Avenue, Bismarck, ND 58504","city":"Bismarck","state":"ND","zip":"58504","phone":"701-955-2150","website":"","email":"","description":"Community organization providing food assistance and choice pantry services in the Bismarck area"},{"id":"e5547357-a075-4853-ad98-8eefd1d20694","lat":46.88594,"lng":-102.78533,"name":"DICKINSON","org":"AMEN Food Pantry","address":"30 7TH ST W, DICKINSON, ND 58601","city":"DICKINSON","state":"ND","zip":"58601","phone":"(701) 483-4311","website":"","email":"","description":"Food pantry providing prepack pantry services to the community"},{"id":"e3161873-4b9a-4990-8385-6d5ef8c64374","lat":46.83949239,"lng":-100.90001099,"name":"Mandan","org":"Dream Center Bismarck","address":"1400 Collins, Mandan, ND 58554","city":"Mandan","state":"ND","zip":"58554","phone":"701-955-2150","website":"","email":"","description":"Community organization providing food assistance and choice pantry services in the Bismarck area"}]}