{"metadata":{"generated":"2025-07-28T03:46:14.415754+00:00","total_locations":6,"states_covered":8,"coverage":"8 US states/territories","source":"HAARRRvest - Pantry Pirate Radio Database","database_path":"pantry_pirate_radio.sqlite","format_version":"1.0","filtered_by":"state = NJ"},"locations":[{"id":"aa9548c7-05db-4711-bf88-a0dfbcc3c235","lat":40.7135184,"lng":-74.0779038,"name":"Jersey City","org":"Mount Pisgah AME Food Pantry","address":"354 Forrest Street, Jersey City, NJ UNKNOWN","city":"Jersey City","state":"NJ","zip":"UNKNOWN","phone":"","website":"","email":"","description":"Food pantry in Hudson County, NJ. 07304"},{"id":"fabe7089-3a22-4261-85d1-ff5915f47060","lat":40.7145068,"lng":-74.0694626,"name":"Jersey City","org":"Mt. Olive Baptist Church","address":"400 Arlington Avenue, Jersey City, NJ UNKNOWN","city":"Jersey City","state":"NJ","zip":"UNKNOWN","phone":"UNKNOWN","website":"","email":"","description":"Food pantry in Hudson County, NJ. 07304"},{"id":"16e4c929-f6f7-4311-9206-024378d1522f","lat":40.0639698,"lng":-74.20227150000001,"name":"Lakewood","org":"Shiras Devora - Campit","address":"575 Oak Street, Lakewood, NJ 08701","city":"Lakewood","state":"NJ","zip":"08701","phone":"(917) 960-0428","website":"","email":"","description":"Miriam\tSorotzkin\t7323703825\nFrom: 06/30/2025\t07/24/2025"},{"id":"9ea7942b-0a52-4065-bae1-3f0ff812d074","lat":40.6109606,"lng":-74.4131736,"name":"Plainfield","org":"PHS Summer Sports","address":"950 Park Avenue, Plainfield, NJ 07060","city":"Plainfield","state":"NJ","zip":"07060","phone":"(908) 731-4200","website":"","email":"","description":"Keith\tPellew\t9087314346\nFrom: 07/01/2025\tTill 07/31/2025"},{"id":"67f76139-54a0-49fb-b715-a62b672b1c67","lat":40.7194239,"lng":-74.0823218,"name":"West Side","org":"JCFPL West Bergen Branch","address":"546 West Side Avenue, West Side, NJ 07304","city":"West Side","state":"NJ","zip":"07304","phone":"(201) 547-4554","website":"","email":"","description":"Debbie\tOriol\t2015475162\nFrom: 06/30/2025\t08/22/2025"},{"id":"7e7e81aa-09d8-4a31-99a6-8e78d2be4581","lat":40.8952006,"lng":-74.5757746,"name":"Wharton","org":"Wharton Public School - Duffy Elementary","address":"137 East Central Avenue, Wharton, NJ 07885","city":"Wharton","state":"NJ","zip":"07885","phone":"(908) 872-0715","website":"","email":"","description":"Sandy Cammarata 9739892000\nStarts: 06/30/2025 07/31/2025"}]}