{"metadata":{"generated":"2025-07-28T03:46:14.415754+00:00","total_locations":136,"states_covered":8,"coverage":"8 US states/territories","source":"HAARRRvest - Pantry Pirate Radio Database","database_path":"pantry_pirate_radio.sqlite","format_version":"1.0","filtered_by":"state = NY"},"locations":[{"id":"a6df8a10-dbbd-49c7-9364-9bf79b134320","lat":42.110787,"lng":-77.221408,"name":"Addison","org":"Addison Community Food Pantry","address":"13 Community Drive Suite 103, Addison, NY 14801","city":"Addison","state":"NY","zip":"14801","phone":"607-359-2555","website":"","email":"","description":"Food pantry providing food assistance services. Call to verify hours of operation and to see if an appointment is required."},{"id":"721b8812-bcef-4bde-b5e2-0fb41c609289","lat":42.22883,"lng":-75.52886,"name":"Afton","org":"Afton Inter-Church Food Pantry","address":"34 Spring St., Afton, NY 13730","city":"Afton","state":"NY","zip":"13730","phone":"607-435-6888","website":"","email":"","description":"Food pantry providing food assistance to the community. Call to verify hours of operation and to see if an appointment is required."},{"id":"04ffd99d-8859-4b55-9588-5a35515fc0b7","lat":44.9869256,"lng":-74.6734239,"name":"Akwesasne","org":"Akwesasne Food Pantry","address":"188 McGee Rd, Akwesasne, NY 13655","city":"Akwesasne","state":"NY","zip":"13655","phone":"(518) 358-4860","website":"","email":"","description":"Food pantry providing food assistance services. Call to verify hours of operation and to see if an appointment is required."},{"id":"186c5f37-9cdc-4953-a488-9e9f03f31078","lat":42.724383734876284,"lng":-73.84136084029727,"name":"Albany","org":"Capital District Center for Independence, Inc.","address":"1716 Central Avenue, Albany, NY 12205","city":"Albany","state":"NY","zip":"12205","phone":"5184596422","website":"","email":"","description":"Food pantry providing mostly shelf-stable items. Guests can visit every 30 days. Can call ahead but will serve walk-ins. Serves mostly Albany County but will serve Schenectady County as well."},{"id":"143405d2-2b6f-44aa-ad2f-65f6c559c7cb","lat":42.660582,"lng":-73.7662519,"name":"Albany","org":"The Redeemed Christian Church of God","address":"86 Lexington Avenue, Albany, NY 12206","city":"Albany","state":"NY","zip":"12206","phone":"(518) 463-5231","website":"http://www.rccgalbanyny.org/our-ministries/rccg-albany-food-pantry/","email":"","description":"Food pantry operated by The Redeemed Christian Church of God. Families can visit twice a month."},{"id":"3543ffe5-3f8d-44ed-bd96-69cd0d8833e0","lat":42.663096,"lng":-73.7870862,"name":"Albany","org":"St. Vincent de Paul","address":"984 Madison Avenue, Albany, NY 12208","city":"Albany","state":"NY","zip":"12208","phone":"(518) 694-3153","website":"http://www.stvincentalbany.org/social-justice/food-pantry/","email":"","description":"Organization providing food pantry services in Albany"},{"id":"1220e66d-f952-496a-947b-8a7cb3eb62ab","lat":42.6536699,"lng":-73.7508849,"name":"Albany","org":"First Church In Albany","address":"110 North Pearl Street, Albany, NY 12207","city":"Albany","state":"NY","zip":"12207","phone":"(518) 463-4449","website":"http://firstchurchinalbany.weebly.com/local-mission.html","email":"","description":"Food pantry service - Guests can visit twice a month. May come into building and place client choice order"},{"id":"b3a8cd1d-2fd0-4810-8055-c1d99f3cfee3","lat":42.673113,"lng":-73.782015,"name":"Albany","org":"Blessed Sacrament Food Pantry","address":"607 Central Avenue, Albany, NY 12206","city":"Albany","state":"NY","zip":"12206","phone":"(518) 482-3375","website":"http://blessedsacramentalbany.org/outreach/","email":"","description":"Guest can visit once a month. Walk ins welcome, limited amount of people in at one time, pre-packed bags. Thrift store: Sat 9-12"},{"id":"cad41efc-cadf-4752-9b92-335820c36c8c","lat":42.661561178480774,"lng":-73.7687753846573,"name":"Albany","org":"Capital District LATINOS","address":"160 Central Avenue, Albany, NY 12206","city":"Albany","state":"NY","zip":"12206","phone":"(518) 801-9440 ext. 5082","website":"https://www.capitaldistrictlatinos.org/","email":"","description":"They serve a maximum of 75 families per day. No appointment necessary. Every family is served once a month. Call pantry to verify the weeks they are open"},{"id":"2777ba93-d4bc-4915-b00d-58868249109c","lat":42.697749977082246,"lng":-73.8040937457539,"name":"Albany","org":"Macedonia Baptist Church","address":"26 Wilson Avenue, Albany, NY 12205","city":"Albany","state":"NY","zip":"12205","phone":"518-598-2419","website":"","email":"","description":"Food Pantry - Guests can visit pantry twice a month- Client choice"},{"id":"fe88e7bb-806a-4067-a929-d1c30c559595","lat":42.6387988,"lng":-73.7575752,"name":"Albany","org":"St. John's/St. Ann's Center","address":"88 Fourth Avenue, Albany, NY 12202","city":"Albany","state":"NY","zip":"12202","phone":"(518) 472-9091 x142","website":"http://www.sjsacenter.org/pantrymenu.shtml","email":"","description":"Food pantry offering monthly visits for pantry items and multiple visits for produce. Walk-up or call-in pickup available with curbside service. Also operates soup kitchen on Tuesdays 9am-1:30pm. Produce available Mondays and Wednesdays 10-12, 1-3."},{"id":"4566c372-2533-46b7-b734-e2d2db14203f","lat":42.666648,"lng":-73.852166,"name":"Albany","org":"Life For The Nations Church","address":"477 Krumkill Road, Albany, NY 12203","city":"Albany","state":"NY","zip":"12203","phone":"(518) 438-3841","website":"http://www.lifeforthenationschurch.org/food-pantry/","email":"","description":"Food pantry that accepts everyone, call for an appointment. Tuesday-Friday 9am-3pm. May be able to serve emergency food on Mondays"},{"id":"a4f43bb7-a69f-4d25-a4ee-d6ee4ded0aa7","lat":42.6418638,"lng":-73.752949,"name":"Albany","org":"Salvation Army Albany Food Pantry","address":"20 S Ferry Street, Albany, NY 12202","city":"Albany","state":"NY","zip":"12202","phone":"5184636678 ext. 4","website":"","email":"","description":"Guests can visit once a month. walk in. Pre-packed with the exception of meat, dairy products and produce"},{"id":"4d4e688a-7638-4c3e-8e61-f124cdb8b1ba","lat":42.6617178,"lng":-73.7575836,"name":"Albany","org":"Arbor Hill Pantry","address":"47 Lark Street, Albany, NY 12210","city":"Albany","state":"NY","zip":"12210","phone":"(518) 463-1516 ext 110","website":"http://www.trinityalliancealbany.org/food-pantries/","email":"","description":"Food pantry operated by Trinity Alliance of the Capital Region. Follows street listing. Guest can utilize pantry twice a month. Walk-ins welcome at any time, client choice. Produce only Tuesdays and Thursdays after 11am. Serves every 14 days"},{"id":"9f8b3e7e-57c4-4252-bf75-bd0e9cbdedd9","lat":42.685555,"lng":-73.824629,"name":"Albany","org":"SUNY Albany Purple Pantry","address":"Campus Center Building, Room 329, 1400 Washington Avenue, Albany, NY 12222","city":"Albany","state":"NY","zip":"12222","phone":"(518) 442-5501","website":"https://www.albany.edu/dean-students/supplemental-support-services/purple-pantry","email":"","description":"Food pantry serving current UAlbany students, staff, faculty, and their families. Hours vary during academic semesters, finals, and school breaks."},{"id":"f9ab7246-2205-4509-8ff3-3eb03590f5c2","lat":42.660673,"lng":-73.7641912,"name":"Albany","org":"Sister Maureen Joyce Food Pantry","address":"315 Sheridan Avenue, Albany, NY 12206","city":"Albany","state":"NY","zip":"12206","phone":"518-314-0859","website":"http://www.ccrcda.org/get_help/Food-Nutrition_27_service.htm","email":"","description":"Food pantry where guests can utilize pantry 1-2 times a month. Must call for appointment, client choice available. Also offers soup kitchen services Monday & Thursday 11:45-12:45."},{"id":"d914b516-cb08-47a3-8434-a4f849f69cb9","lat":42.65292697835415,"lng":-73.7658411933013,"name":"Albany","org":"Israel AME Food Pantry","address":"381 Hamilton Street, Albany, NY 12210","city":"Albany","state":"NY","zip":"12210","phone":"5184638779","website":"","email":"","description":"Food pantry operated by Israel AME Church"},{"id":"0857ea56-5773-4c4d-b6ff-2fd7c256f1d8","lat":42.655039,"lng":-73.794348,"name":"Albany","org":"Mater Christi Church Food Pantry","address":"3 West Erie Street, Albany, NY 12208","city":"Albany","state":"NY","zip":"12208","phone":"(518) 596-6691","website":"https://www.rcda.org/parishes/parish/parish-mater-christi-albany-ny","email":"","description":"Food pantry operated by Mater Christi Church. Updated proof of address is required every 4 months. Will serve emergency bags by appointment. The pantry is not open on any 5th Monday of the month. On Monday holidays, the pantry day is moved to the next day (Tuesday). Guests can visit twice a month Walk in welcome. Client choice"},{"id":"bf34f7ee-6d23-4395-9e4a-3dac34eb7c82","lat":42.642483912926615,"lng":-73.78098273155432,"name":"Albany","org":"St. James Food Pantry","address":"16 St. James Place, Albany, NY 12209","city":"Albany","state":"NY","zip":"12209","phone":"518-414-1929","website":"https://www.rcda.org/parishes/parish/st-francis-assisi-parish-delaware-ave-site-albany-ny","email":"","description":"Food pantry providing food assistance to community members. Entrance on St. James Pl- door on the right side of the parking lot. Guests can visit once a month. Walk ins welcome. Bags are handed out a window after client sign in. Guests can visit once a month, but can come every week for produce and bread."},{"id":"68626304-45e0-4a4d-a1f2-991b57d3853b","lat":42.654319,"lng":-73.761047,"name":"Albany","org":"FOCUS Churches of Albany","address":"275 State Street, Albany, NY 12210","city":"Albany","state":"NY","zip":"12210","phone":"(518) 443-0460","website":"https://www.focuschurches.net/interfaith-food-pantry--first-church-food-pantry.html","email":"","description":"Food pantry operated by FOCUS Covenant Congregations. Guest can visit twice a month. Call in order ahead, pick up at appt. time. We bring groceries to door, no one inside. Come to door. Preorder preferred, but will take walk-ins"},{"id":"007b603a-3299-4038-b047-388486bdbb7b","lat":42.651857,"lng":-73.752801,"name":"Albany","org":"St. Mary's Outreach","address":"10 Lodge Street, Albany, NY 12207","city":"Albany","state":"NY","zip":"12207","phone":"(518) 462-4357","website":"https://www.hist-stmarys.org/outreach-food-pantry","email":"","description":"Food pantry service. Please use Steuben St. entrance. Guests can visit 1 time 2 if necessary. walk in, limited amount of people inside building, client choice"},{"id":"72c904b5-54f6-4572-8b6f-4e4ddca35da7","lat":44.28491,"lng":-75.98522,"name":"Alexandria","org":"Alexandria Bay Food Pantry","address":"42601 State Route 12, Alexandria, NY 13607","city":"Alexandria","state":"NY","zip":"13607","phone":"(315) 486-9322","website":"","email":"","description":"Food pantry providing food assistance services. Call to verify hours of operation and to see if an appointment is required."},{"id":"4565049a-56ae-4e3d-9234-578443b43263","lat":42.324265,"lng":-77.73598,"name":"Almond","org":"Almond Area Food Pantry","address":"11 Main St, Almond, NY 14804","city":"Almond","state":"NY","zip":"14804","phone":"6072766151","website":"","email":"","description":"Food pantry serving the Almond area. Call to verify hours of operation and to see if an appointment is required."},{"id":"c234461f-d7be-4b49-a3ba-66b8321f8d6b","lat":42.700008828475944,"lng":-74.02871231517831,"name":"Altamont","org":"Altamont Community Food Pantry","address":"122 Grand Street, Altamont, NY 12009","city":"Altamont","state":"NY","zip":"12009","phone":"518-861-6542","website":"https://www.altamontvillage.org/business-directory/altamont-food-pantry","email":"","description":"Guest can use pantry twice a month. Appointments preferred. \"Orders\" are placed via email or over the phone, a time for pick up is scheduled and the items are on a cart outside the door. Guests also have the option of making an appointment to come in and select the items themselves. Only 1 guest is allowed at a time."},{"id":"d07326eb-1534-4e12-8347-ca0813cd6ed1","lat":42.94252,"lng":-74.19543,"name":"Amsterdam","org":"AMEN PLACE FOOD PANTRY","address":"105 Guy Park Ave., Amsterdam, NY 12010","city":"Amsterdam","state":"NY","zip":"12010","phone":"(518)857-3207","website":"","email":"","description":"Food pantry providing food assistance services"},{"id":"12a28c6d-84bd-4db9-af75-5efd9deaa280","lat":43.004123,"lng":-73.849457,"name":"Ballston Spa","org":"The Upper Room Thrift Shop & Food Pantry","address":"101 Milton Avenue, Ballston Spa, NY 12020","city":"Ballston Spa","state":"NY","zip":"12020","phone":"(518) 885-6883","website":"http://www.ballstonspaumchurch.org/food-pantry.html","email":"","description":"Food pantry service where guests can utilize once a month. Walk-in service with client choice."},{"id":"03b533cf-5325-4d81-bca1-b50ac09fcc05","lat":43.000434,"lng":-73.849761,"name":"Ballston Spa","org":"Christ Episcopal Church Pantry","address":"15 West High Street, Ballston Spa, NY 12020","city":"Ballston Spa","state":"NY","zip":"12020","phone":"(518) 885-1031 ext. 5","website":"https://www.christepiscopalballstonspa.com/food-pantry/","email":"","description":"Food Pantry located behind Parish Hall, to the right of the Church. Guest are allowed once a month, walk in, limited amount of people in building at a time. Each client gets 1 or 2 bags of non-perishables and then can choose fresh meat, veggies and breads as needed. Ballston Spa Central School District residents only starting May 5th, 2025"},{"id":"eb7a4aac-1ec8-494e-b816-a2fa3d3c3597","lat":43.006079,"lng":-73.848769,"name":"Ballston Spa","org":"Christ's Cupboard","address":"202 Milton Avenue, Ballston Spa, NY 12020","city":"Ballston Spa","state":"NY","zip":"12020","phone":"(518) 885-8361","website":"","email":"","description":"Food pantry serving Ballston Spa residents. Walk ins welcome! Ballston spa residents only"},{"id":"a07f4887-dc69-4ee5-bdb0-d1b6b2a1f1ee","lat":42.2252,"lng":-78.031199,"name":"Belmont","org":"Accord Corporation- Belmont Food Pantry","address":"84 Schuyler Street, Belmont, NY 14813","city":"Belmont","state":"NY","zip":"14813","phone":"5852687605","website":"","email":"","description":"Food pantry providing food assistance services"},{"id":"45291daa-5923-4031-8f78-712c01637bc5","lat":42.1088771,"lng":-75.9048555,"name":"Binghamton","org":"Addiction Center of Broome County","address":"30 W State St, Binghamton, NY 13901","city":"Binghamton","state":"NY","zip":"13901","phone":"(607) 723-7308","website":"","email":"","description":"Food pantry operated by Addiction Center of Broume County. Call to verify hours of operation and to see if an appointment is required."},{"id":"6313a2b0-5cb9-4209-a6f9-db240c6f9a29","lat":40.815655,"lng":-73.89797,"name":"Bronx","org":"Acacia Network-Ruth Fernandez Family Residence","address":"760 FOX STREET, Bronx, NY 10455","city":"Bronx","state":"NY","zip":"10455","phone":"718-328-8180","website":"","email":"","description":"Food pantry providing food assistance services"},{"id":"5a246b62-5b2f-43b1-acc1-a7d707df8f1d","lat":40.8134,"lng":-73.922295,"name":"Bronx","org":"Abundant Life Tabernacle","address":"2692 Third Avenue, Bronx, NY 10454","city":"Bronx","state":"NY","zip":"10454","phone":"718-292-8734","website":"","email":"","description":"Food pantry providing food assistance services. Call to verify hours of operation and to see if an appointment is required"},{"id":"6a4de665-8e1b-49d9-8721-7515388ee77e","lat":40.871356,"lng":-73.843869,"name":"Bronx","org":"Abundant Grace For The Forsaken","address":"3101 Eastchester Road, Bronx, NY 10469","city":"Bronx","state":"NY","zip":"10469","phone":"347-449-5663","website":"","email":"","description":"Food Pantry - All Other - NYS Food Pantries. Call to verify hours of operation and to see if an appointment is required"},{"id":"3b9d0e20-3196-4d9e-a0cb-cb98816d1c34","lat":40.847325,"lng":-73.86608,"name":"Bronx","org":"Albanian American Open Hands","address":"1867 Hunt Ave Apt 7, Bronx, NY 10462","city":"Bronx","state":"NY","zip":"10462","phone":"347-658-8000","website":"","email":"","description":"Food Pantry - All Other - NYS Food Pantries. Call to verify hours of operation and to see if an appointment is required"},{"id":"3d4c416d-2f17-4eb6-b79c-02653b25c946","lat":40.847985,"lng":-73.894705,"name":"Bronx","org":"Abrigo del Altisimo","address":"2009 MONTEREY AVENUE, Bronx, NY 10457","city":"Bronx","state":"NY","zip":"10457","phone":"718-669-4826","website":"","email":"","description":"Food pantry providing food assistance services"},{"id":"4872780f-50fb-4556-9752-e570877d8292","lat":40.60757,"lng":-73.96278,"name":"Brooklyn","org":"Aishel Shabbat","address":"1002 Quentin Road, Brooklyn, NY 11229","city":"Brooklyn","state":"NY","zip":"11229","phone":"646-229-1126","website":"","email":"","description":"Food pantry providing assistance to the community. Call to verify hours of operation and to see if an appointment is required."},{"id":"8f22aab9-47d9-4410-9b04-235348b8356d","lat":40.576425,"lng":-74.008584,"name":"Brooklyn","org":"Abraham Residence","address":"3915 Neptune Ave, Brooklyn, NY 11224","city":"Brooklyn","state":"NY","zip":"11224","phone":"646-649-1231","website":"","email":"","description":"Food Pantry - All Other - NYS Food Pantries. Call to verify hours of operation and to see if an appointment is required"},{"id":"84eb5cee-c390-45f6-bcfe-fc61793c22b4","lat":40.62639,"lng":-73.99716,"name":"Brooklyn","org":"Agudath Israel of America/Tomchei Shabbos of Brooklyn","address":"6225 New Utrecht Avenue, Brooklyn, NY 11219","city":"Brooklyn","state":"NY","zip":"11219","phone":"917-662-2962","website":"","email":"","description":"Food Pantry - All Other - NYS Food Pantries. Call to verify hours of operation and to see if an appointment is required"},{"id":"bd4bf47e-135b-460c-8d2d-67055bde3c93","lat":42.536922,"lng":-73.749422,"name":"Castleton-On-Hudson","org":"The Anchor Food Pantry","address":"35 Boltwood Avenue, Castleton-On-Hudson, NY 12033","city":"Castleton-On-Hudson","state":"NY","zip":"12033","phone":"(518) 732-4120","website":"https://www.facebook.com/pg/The-Anchor-Food-Pantry-912784275466563/about/","email":"","description":"Serves the town of Schodack and Village of Castleton. Calling ahead appreciated but walk ins welcome. Thrift store opened for shopping; same hrs. as operation"},{"id":"dab06170-0fcf-4879-9b2a-4e5d301e0d1a","lat":42.8611836,"lng":-73.7824106,"name":"Clifton Park","org":"Karyl's Kupboard CAPTAIN Youth & Family Services","address":"5 Municipal Plaza, Suite 3, Clifton Park, NY 12065","city":"Clifton Park","state":"NY","zip":"12065","phone":"(518) 371-1185","website":"https://captaincares.org/what-we-do/emergency-assistance/emergency-food-hygiene-pantry.html","email":"","description":"Food pantry service where guests can visit once a month. Call during pantry hours to place phone order or visit www.captaincares.org for online order. Curbside service available - call or ring door bell on arrival, order will be brought out."},{"id":"71003a86-13c2-43fc-9365-78b7be098952","lat":42.840298,"lng":-73.760814,"name":"Clifton Park","org":"Harvest Church Food Pantry","address":"303 Grooms Road, Clifton Park, NY 12065","city":"Clifton Park","state":"NY","zip":"12065","phone":"518-628-3663","website":"https://www.soldoutforjesus.com/pantry/","email":"","description":"Guest MUST call ahead of time and leave a voicemail; pantry will return the call to schedule an appointment. Guest can visit once a month. Call ahead for appt, wait inside and order is brought out. Prepack"},{"id":"05d6f29a-052f-49b1-b0d4-11866651a21b","lat":42.472446,"lng":-73.897506,"name":"Coeymans Hollow","org":"Trinity UMC Food Pantry Coeymans Hollow","address":"1313 State Route 143, Coeymans Hollow, NY 12046","city":"Coeymans Hollow","state":"NY","zip":"12046","phone":"(518) 756-2812","website":"","email":"","description":"Guests can visit once a month unless its an emergency. In-person, curbside if requested, delivery if requested, emergency when phoned ahead. Client choice\r\nSouper Saturdays- free soup 1st Saturday of the month October-March 12-2pm"},{"id":"9d04c334-b88b-48da-8721-d56257ab21da","lat":42.776031681145646,"lng":-73.70694428655308,"name":"Cohoes","org":"Connect Center Food Pantry","address":"49 Johnston Avenue, Cohoes, NY 12047","city":"Cohoes","state":"NY","zip":"12047","phone":"(518) 687-1999","website":"https://www.connectcenterforyouth.org/services-1/food-pantry","email":"","description":"Food pantry service with walk-ins welcome"},{"id":"8e0e002b-c4cc-491c-9df6-ba98a6a554c3","lat":42.773467,"lng":-73.6999092,"name":"Cohoes","org":"United Church of Cohoes","address":"123 Mohawk Street, Cohoes, NY 12047","city":"Cohoes","state":"NY","zip":"12047","phone":"(518) 237-0278","website":"","email":"","description":"Walk in. Serves guests once every 30 days (not once a month). Prepacked \r\nFree weekly meal Saturday 4:30-5:30\r\n*Cohoes residents only!*"},{"id":"c1b5a1ba-d6cf-4fd2-9e04-ae92e82f961b","lat":42.777639550547086,"lng":-73.7129817648075,"name":"Cohoes","org":"Holy Trinity Food Pantry","address":"122 Vliet Boulevard, Cohoes, NY 12047","city":"Cohoes","state":"NY","zip":"12047","phone":"518-257-2501","website":"https://www.holytrinitycohoes.org/food-pantry","email":"","description":"Clients come every 30 days for food and must call 518-257-2501 before coming in. Pick up is at the Simmons Avenue entrance off the parking lot. Available to residents of Cohoes and Watervliet. Must provide proof of residency (current bill, rent receipt, etc.) for new applicants."},{"id":"fcf89f5a-41af-4ee1-86ea-429ded0ecf26","lat":42.772839,"lng":-73.700714,"name":"Cohoes","org":"Albany Community Action Partnership (ACAP) Food Pantry","address":"145 Remsen Street, Cohoes, NY 12047","city":"Cohoes","state":"NY","zip":"12047","phone":"(518) 237-9201 x4","website":"https://albanycap.org/","email":"","description":"Guests can visit once a month. Limited guests in building at a time, client choice"},{"id":"23221e9b-ee48-4638-a30a-fc969a7e0504","lat":42.73316019905969,"lng":-73.84502286148248,"name":"Colonie","org":"Victory Church","address":"31 Vly Road, Colonie, NY 12205","city":"Colonie","state":"NY","zip":"12205","phone":"518-857-0726","website":"","email":"","description":"Food pantry services provided by Victory Church"},{"id":"1af252be-b045-45c1-a584-83b92dc21e3b","lat":42.739999,"lng":-73.857259,"name":"Colonie","org":"St. Clare's Food Pantry","address":"1947 Central Avenue, Colonie, NY 12205","city":"Colonie","state":"NY","zip":"12205","phone":"(518) 456-3112 ext 115","website":"http://www.stclarescolonie.com/index.html","email":"","description":"Food pantry operated by Church of St. Clare. Can visit pantry twice a month. Distribution is outside walk up or drive up, prepacked and client choice"},{"id":"e9013a27-17d9-4463-b285-e49eb5cccd76","lat":43.244517,"lng":-73.832345,"name":"Corinth","org":"Corinth Churches' Community Cupboard","address":"6 Fourth Street, Corinth, NY 12822","city":"Corinth","state":"NY","zip":"12822","phone":"(518) 615-9564","website":"","email":"","description":"Food pantry serving the Corinth Central School District, accepting walk-ins"},{"id":"0b786579-775d-47ea-afc3-9482304ad73c","lat":42.139755,"lng":-77.043745,"name":"Corning","org":"AIM - Community Nutrition Program","address":"271 East First Street, Corning, NY 14830","city":"Corning","state":"NY","zip":"14830","phone":"607-962-8225 x116","website":"","email":"","description":"Food pantry providing community nutrition services. Call to verify hours of operation and to see if an appointment is required."},{"id":"4327d0aa-1bb3-4d6d-9967-bc950e5730a3","lat":42.8088077,"lng":-74.2157958,"name":"Delanson","org":"Braman Hall Food Pantry","address":"7963 State Route 30, Delanson, NY 12053","city":"Delanson","state":"NY","zip":"12053","phone":"(518) 956-1758","website":"https://www.duanesburgfloridabaptistchurch.org/braman-hall-food-pantry","email":"","description":"Food pantry operated by Braman Food Pantry. Once per month. Walk-ins welcome. Call to verify hours of operation."},{"id":"6b85e8a6-16ab-4f0b-9d36-a1e65bd40c1b","lat":42.7500199,"lng":-74.1874925,"name":"Delanson","org":"Our Lady of Fatima Church","address":"1735 Alexander Rd, Delanson, NY 12053","city":"Delanson","state":"NY","zip":"12053","phone":"(518) 895-2788","website":"https://parishes.rcda.org/OurLadyOfFatima/FoodPantry.php","email":"","description":"Church organization operating a food pantry serving Duanesburg, Delanson, Rotterdam, Quaker Street, Esperance, Mariaville, and Schoharie areas. Provides holiday meal distribution at Thanksgiving by appointment."},{"id":"fe4cd8cc-82a2-4ce9-96c0-e55caf1481a1","lat":42.621903,"lng":-73.835357,"name":"Delmar","org":"Shalom Food Pantry","address":"393 Delaware Ave, Delmar, NY 12054","city":"Delmar","state":"NY","zip":"12054","phone":"(518) 439-3310","website":"https://www.shalomfoodpantry.org/","email":"","description":"Kosher foods. Delivery available. Serves Albany, Schenectady, and Rensselaer Counties. Must call ahead"},{"id":"7de8347d-659e-473a-b426-cd32f0c77ca0","lat":42.620159,"lng":-73.839924,"name":"Delmar","org":"Town of Bethlehem Food Pantry","address":"445 Delaware Avenue, Delmar, NY 12054","city":"Delmar","state":"NY","zip":"12054","phone":"(518) 439-4955 ext 1176","website":"http://www.townofbethlehem.org/264/Food-Meal-Programs","email":"","description":"Food pantry serving the community. Guest can visit once every 30 days. Call ahead appointment necessary, pick up in pantry, client choice"},{"id":"7bc14b83-8f24-4669-ac02-6874984d67b4","lat":42.772863,"lng":-74.0966999,"name":"Duanesburg","org":"Lighthouse Food Pantry","address":"4780 Duanesburg Rd, Duanesburg, NY 12056","city":"Duanesburg","state":"NY","zip":"12056","phone":"(518) 355-2277","website":"","email":"","description":"Food pantry operated by Lighthouse Evangelical Free Church. By Appointment Only"},{"id":"1ed7cc98-d980-4744-b6a9-4f6760e08a1c","lat":43.124036,"lng":-76.052633,"name":"East Syracuse","org":"Abundant Life Christian Ctr FP","address":"7000 All Nations Blvd., East Syracuse, NY UNKNOWN","city":"East Syracuse","state":"NY","zip":"UNKNOWN","phone":"(315) 463-7300 x212","website":"","email":"","description":"Food pantry serving church members and appointments, with mobile service on 3rd Saturday"},{"id":"58b7fd12-0f02-499c-b087-a3adcb928c57","lat":44.214546,"lng":-73.5928,"name":"Elizabethtown","org":"ADIRONDACK COMMUNITY ACTION PROGRAM","address":"7572 Court St - Suite 2, Elizabethtown, NY 12932","city":"Elizabethtown","state":"NY","zip":"12932","phone":"(518) 873-3207","website":"https://www.acapinc.org/programs1/community-services/","email":"","description":"Food Pantry - All Other - NYS Food Pantries. Call to verify hours of operation and to see if an appointment is required."},{"id":"bb7ca35f-ac60-4250-b498-45e6777a8434","lat":40.60528,"lng":-73.75226,"name":"Far Rockaway","org":"AIDS Center of Queens County","address":"1600 Central Avenue, Far Rockaway, NY 11691","city":"Far Rockaway","state":"NY","zip":"11691","phone":"718-896-2500","website":"","email":"","description":"Food pantry providing services in Queens County"},{"id":"6b78df29-ae50-460e-b922-860de4dc5f58","lat":43.018686,"lng":-74.031516,"name":"Galway","org":"Greater Galway Community Services Association","address":"2167 Galway Road, Galway, NY 12074","city":"Galway","state":"NY","zip":"12074","phone":"(518) 882-1316","website":"","email":"","description":"Community services organization operating Greater Galway Food Pantry"},{"id":"984c54d7-3f58-4248-9279-d3daf3aea0b7","lat":43.199834,"lng":-73.657079,"name":"Gansevoort","org":"St. Therese Chapel","address":"1 Wilton Gansevoort Road, Gansevoort, NY 12831","city":"Gansevoort","state":"NY","zip":"12831","phone":"518-812-0208","website":"https://www.rcda.org/parishes/parish/st-therese-chapel-gansevoort-ny","email":"","description":"Emergency food by appointment, if available, or on Sundays. Serves all of Saratoga county."},{"id":"a95b51be-0b59-47fc-8112-f460a43a4c0b","lat":43.16247,"lng":-73.704393,"name":"Gansevort","org":"Wilton Food Pantry","address":"155 Ballard Road, Gansevort, NY 12831","city":"Gansevort","state":"NY","zip":"12831","phone":"(518) 350-4456","website":"http://www.wiltonfoodpantry.org/","email":"","description":"Food pantry operated by Trinity United Methodist Church. Guests can visit 2x/month. Call or email, brought to cars, client choice. Appointment necessary."},{"id":"39f7bfe7-88f4-42a7-bca5-ab5c7ccb3abe","lat":42.61121698316464,"lng":-73.78689539562525,"name":"Glenmont","org":"Mt. Moriah Food Pantry","address":"262 Route 9W, Glenmont, NY 12077","city":"Glenmont","state":"NY","zip":"12077","phone":"518-426-4510","website":"","email":"","description":"Food Pantry - Will also take guests by appointment and walk-ins"},{"id":"53f219be-083b-4265-90bd-bb60f6bb8447","lat":43.315545,"lng":-73.6509,"name":"Glens Falls","org":"ALLIANCE FOR POSITIVE HEALTH: HUDSON FALLS","address":"13 Chester St., Glens Falls, NY 12801","city":"Glens Falls","state":"NY","zip":"12801","phone":"(518)743-0703","website":"","email":"","description":"Food Pantry - All Other - NYS Food Pantries. Call to verify hours of operation and to see if an appointment is required"},{"id":"43031025-e576-4305-8582-db9d164c900f","lat":41.34044,"lng":-74.39831,"name":"Goshen","org":"ALAMO FARMWORKERS COMMUNITY FP","address":"890 Pulaski Highway, Goshen, NY 10924","city":"Goshen","state":"NY","zip":"10924","phone":"(845)838-7015","website":"","email":"","description":"Food pantry serving the community with regular operating hours throughout the week. Call to verify hours of operation and to see if an appointment is required."},{"id":"9e62e3b0-0c47-499a-9f68-152ff12806ba","lat":43.128179,"lng":-73.845667,"name":"Greenfield Center","org":"Greenfield Food Pantry","address":"25 Wilton Road, Greenfield Center, NY 12833","city":"Greenfield Center","state":"NY","zip":"12833","phone":"518-322-6999","website":"https://www.stjosephschurchgreenfieldcenter.org/food-pantires","email":"","description":"Greenfield residents only, walk ins welcome. Guests can visit 2x per month."},{"id":"09bd0a37-e640-426e-96ff-3d50a686c50f","lat":42.7027902,"lng":-73.8851602,"name":"Guilderland","org":"Guilderland Food Pantry","address":"4 Charles Blvd., Guilderland, NY 12084","city":"Guilderland","state":"NY","zip":"12084","phone":"(518) 930-1001","website":"http://www.guilderlandfoodpantry.com/","email":"","description":"Food pantry providing food assistance. Can visit once a month. No appointment necessary. Curbside pick up or delivery, client choice."},{"id":"19b18cfc-a9eb-4bb9-b1f0-4caa29e613cb","lat":43.30461656859057,"lng":-74.01780564844267,"name":"Hadley","org":"Day Community Food Pantry","address":"1650 North Shore Road, Hadley, NY 12835","city":"Hadley","state":"NY","zip":"12835","phone":"518-696-3789","website":"https://www.townofday.com/","email":"","description":"Food pantry operated by the Town of Day, providing food assistance services in the Capital District area."},{"id":"3c33025b-775d-418f-8c0d-f9be1aab28ab","lat":40.80718,"lng":-73.06866,"name":"Holbrook","org":"Abundant Life COG","address":"440 Furrows Road, Holbrook, NY 11741","city":"Holbrook","state":"NY","zip":"11741","phone":"631-304-5226","website":"","email":"","description":"Food Pantry - All Other - NYS Food Pantries. Call to verify hours of operation and to see if an appointment is required"},{"id":"1659e45c-09a2-4ffa-ba8a-da794d58a46a","lat":42.901754,"lng":-73.352456,"name":"Hoosick Falls","org":"HACA Food Pantry","address":"26 John Street, Hoosick Falls, NY 12090","city":"Hoosick Falls","state":"NY","zip":"12090","phone":"(518) 686-5163","website":"http://cornerstone22.com/?page_id=276","email":"","description":"Guest can utilize pantry 2x per month. Walk ins. Limited guests in building pre-pack with guest selection sheet"},{"id":"464ee3c5-79ae-4441-8d55-e3ac601731e1","lat":40.71178,"lng":-73.79378,"name":"Jamaica","org":"AIDS Center of Queens County","address":"161-21 Jamaica Avenue, Jamaica, NY 11432","city":"Jamaica","state":"NY","zip":"11432","phone":"718-896-2500","website":"","email":"","description":"Food pantry providing services in Queens County"},{"id":"82c75dbf-097c-465e-b522-c2b1e5fc5175","lat":40.695083,"lng":-73.781497,"name":"Jamaica","org":"Allen Outreach Ministry Feeding Program","address":"110-31 Merrick Blvd, Jamaica, NY 11433","city":"Jamaica","state":"NY","zip":"11433","phone":"718-723-6106","website":"","email":"","description":"Food pantry providing food assistance to the community"},{"id":"d96e2577-0b5c-494b-b545-a77374c7110b","lat":42.757779,"lng":-73.75292,"name":"Latham","org":"St. Ambrose","address":"347 Old Loudon Road, Latham, NY 12110","city":"Latham","state":"NY","zip":"12110","phone":"(518) 785-1951","website":"https://stambroselatham.com/church","email":"","description":"Food pantry serving the Capital District. Guests can visit once a month by appointment. Guests wait outside and food is brought out to them. Limited number of people allowed in at a time."},{"id":"ac61d7bf-dd00-42b5-b322-d032ffcdeb06","lat":42.709232,"lng":-73.759131,"name":"Loudonville","org":"Loudonville Presbyterian Church","address":"22 Old Niskayuna Road, Loudonville, NY 12211","city":"Loudonville","state":"NY","zip":"12211","phone":"(518) 465-7277","website":"https://www.facebook.com/loudonvillepresbychurch","email":"","description":"We have dry and canned goods, personal care items and toilet paper. We do not have gift cards or perishable food items, We do have cereal, canned meats, pasta, and all kinds of canned food."},{"id":"ce8af797-f9d1-4a0e-b17e-5b78e0c2d280","lat":40.76273,"lng":-72.85603,"name":"Mastic Beach","org":"Agape Community Church","address":"395 Neighborhood Road, Mastic Beach, NY 11951","city":"Mastic Beach","state":"NY","zip":"11951","phone":"631-317-7536","website":"","email":"","description":"Food Pantry - All Other - NYS Food Pantries. Call to verify hours of operation and to see if an appointment is required"},{"id":"dd87270e-eed9-4d78-93b1-a5603d1ad1bb","lat":42.902537,"lng":-73.686688,"name":"Mechanicville","org":"Mechanicville Area Community Services Center","address":"6 South Main Street, Mechanicville, NY 12118","city":"Mechanicville","state":"NY","zip":"12118","phone":"(518) 664-8322 ext. 1","website":"https://www.mechanicvilleacsc.org/food-programs/#1691682389797-2d63ae92-4abb","email":"","description":"Community services center providing food pantry services with client choice model. Guests can visit once a month with two available sessions."},{"id":"44aa775c-88af-47e1-8a87-1fd6c1110463","lat":42.515979,"lng":-73.608398,"name":"Nassau","org":"Nassau Resource Center","address":"15 Church Street, Nassau, NY 12123","city":"Nassau","state":"NY","zip":"12123","phone":"(518) 766-9014","website":"http://netministries.org/see/churches.exe/ch27948","email":"","description":"Will serve guest twice or more dependent on needs. No appt necessary."},{"id":"52e70488-68d9-42a6-9920-3d1e41b7ccac","lat":42.516709,"lng":-73.612425,"name":"Nassau","org":"The Gathering Place","address":"24 Albany Avenue, Nassau, NY 12123","city":"Nassau","state":"NY","zip":"12123","phone":"(518) 766-4164","website":"http://www.newhopeforlife.org/the-gathering-place/","email":"","description":"Guests can visit once a month. Walk in Emergency food available by appointment."},{"id":"3b13ca64-8140-4e57-842a-d5e3412a3d64","lat":40.707645,"lng":-73.94509,"name":"New York","org":"Act of Faith Ministries","address":"141 Manhattan Avenue, New York, NY UNKNOWN","city":"New York","state":"NY","zip":"UNKNOWN","phone":"516-852-5934","website":"","email":"","description":"Food pantry operating first and third week of each month"},{"id":"cced30fa-c67f-447d-a6c3-4921fa2cc6cc","lat":40.81338,"lng":-73.95449,"name":"New York","org":"African Services Committee","address":"429 West 127th Street, New York, NY 10027","city":"New York","state":"NY","zip":"10027","phone":"212-222-3882","website":"","email":"","description":"Food Pantry - All Other - NYS Food Pantries. Call to verify hours of operation and to see if an appointment is required"},{"id":"8f54e133-186f-43c5-8e6f-3cd1c9227047","lat":40.75009,"lng":-73.98666,"name":"New York","org":"AIDS Service Center of Lower Manhattan, Inc.","address":"64 W 35th St, 3rd Floor, New York, NY 10001","city":"New York","state":"NY","zip":"10001","phone":"212-645-0875","website":"","email":"","description":"Food pantry service providing assistance to the community"},{"id":"a9522983-9a6a-46be-8202-6c2c34b5fdb2","lat":40.620101,"lng":-74.076899,"name":"New York","org":"All Peoples Church Of Apostolic","address":"182 Tompkins Avenue, New York, NY UNKNOWN","city":"New York","state":"NY","zip":"UNKNOWN","phone":"718-782-3703","website":"","email":"","description":"Food pantry providing services to the community"},{"id":"8d276e2f-6a09-4e80-a933-66afd241581b","lat":41.49828,"lng":-74.0117,"name":"Newburgh","org":"AME Zion Church of Newburgh Food Pantry","address":"109 Washington St, Newburgh, NY 12550","city":"Newburgh","state":"NY","zip":"12550","phone":"(845)569-8114","website":"","email":"","description":"Food pantry operated by AME Zion Church of Newburgh providing food assistance services."},{"id":"ec3ceb50-838b-4f2f-b89a-f14399f40afa","lat":42.795504,"lng":-73.894201,"name":"Niskayuna","org":"Villa Fusco Food Pantry","address":"955 Balltown Rd, Niskayuna, NY 12309","city":"Niskayuna","state":"NY","zip":"12309","phone":"(518) 280-2749","website":"","email":"","description":"Food pantry providing food assistance. No appointment necessary, walk-in welcome. New guests should call ahead before their first visit."},{"id":"a6d0c249-47d2-4897-bd90-0db619bdb24d","lat":42.68913742541533,"lng":-73.56485082057708,"name":"Poestenkill","org":"Bread of Life Food Pantry","address":"776 Route 351, Poestenkill, NY 12140","city":"Poestenkill","state":"NY","zip":"12140","phone":"518-283-6045","website":"https://evangelicallutheranchurch.wordpress.com/food-pantry/","email":"","description":"Any questions call (518) 283-6045 and leave your name and phone number. Serves low-income individuals and families in and around the Poestenkill area."},{"id":"4ef118e1-e661-4600-8431-86ab643f9f5a","lat":42.4733363,"lng":-73.8023108,"name":"Ravena","org":"St. Patrick","address":"21 Main Street, Ravena, NY 12143","city":"Ravena","state":"NY","zip":"12143","phone":"(518) 756-3145","website":"https://churchofsaintpatrick.wixsite.com/church-ravena","email":"","description":"Food pantry offering assistance to community members. Can visit once a month unless they are in need. Walk in no appointment necessary. If a client is in need of food they will open to accommodate them."},{"id":"2abd2d94-b8c9-4731-afa2-3e0b7c5780e3","lat":42.6384789982218,"lng":-73.74633197116405,"name":"Rensselaer","org":"CONSERNS-U","address":"201 Academy Street, Rensselaer, NY 12144","city":"Rensselaer","state":"NY","zip":"12144","phone":"(518) 463-8571","website":"","email":"","description":"Food pantry serving the Capital District. Guests can visit once a month. Call to schedule with availability to help walk-ins. Wait in entryway."},{"id":"60acc7f3-8411-4a60-8645-f1144b0537e2","lat":42.69010460209182,"lng":-73.37089491485543,"name":"Rensselaer","org":"Berlin Food Closet","address":"17 South Main Street, Rensselaer, NY 12022","city":"Rensselaer","state":"NY","zip":"12022","phone":"518-658-2942","website":"","email":"","description":"Food pantry providing food assistance services"},{"id":"92671f24-590f-4b84-ba91-da1bba77fe4e","lat":42.867777,"lng":-73.890242,"name":"Rexford","org":"Faith Food Pantry","address":"11 Glenridge Road, Rexford, NY 12148","city":"Rexford","state":"NY","zip":"12148","phone":"(518) 399-2220","website":"http://faithcrossroads.org/","email":"","description":"Guests can visit once a week walk ins. In building service and menu driven"},{"id":"d6076248-af91-4d76-9cda-5ec7a65f2435","lat":43.1703,"lng":-77.602088,"name":"Rochester","org":"Abraham Lincoln School No. 22","address":"595 Upper Falls Blvd., Rochester, NY 14605","city":"Rochester","state":"NY","zip":"14605","phone":"(585) 467-7160","website":"","email":"","description":"Food pantry operated by Abraham Lincoln School No. 22. Call to verify hours of operation and to see if an appointment is required."},{"id":"ff19e06a-2f37-4949-9bc7-02d7a09c40f7","lat":40.808087,"lng":-73.121523,"name":"Ronkonkoma","org":"AMHW/Charlotte's Table","address":"939 Johnson Ave., Ronkonkoma, NY 11779","city":"Ronkonkoma","state":"NY","zip":"11779","phone":"631-471-7242 x1329","website":"","email":"","description":"Food pantry providing food assistance services in Ronkonkoma, NY"},{"id":"30723d5c-c7d2-479b-b0ff-10e2cb197b6d","lat":43.11415144266115,"lng":-73.73586424555644,"name":"Saratoga Springs","org":"Perry Road Food Pantry","address":"150 Perry Road, Saratoga Springs, NY 12866","city":"Saratoga Springs","state":"NY","zip":"12866","phone":"518-587-0711","website":"","email":"","description":"Guests can visit twice a month online order and walk ins., client choice"},{"id":"a47d21bc-8b61-4ba6-9e61-eacb2d0a359c","lat":43.083734,"lng":-73.777003,"name":"Saratoga Springs","org":"St. Paul's Food Pantry","address":"149 Lake Avenue, Saratoga Springs, NY 12866","city":"Saratoga Springs","state":"NY","zip":"12866","phone":"(518) 584-0904 ext. 6","website":"http://www.spalutheran.org/home","email":"","description":"Walk-ins, client choice"},{"id":"93146e3f-f5fd-4d68-8e61-2be51bf8a2a7","lat":43.079969,"lng":-73.790765,"name":"Saratoga Springs","org":"Franklin Community Center Food Pantry","address":"10 Franklin Street, Saratoga Springs, NY 12866","city":"Saratoga Springs","state":"NY","zip":"12866","phone":"(518) 587-9826 ext 224","website":"http://www.franklincommunitycenter.org/programs-services/food-pantry/","email":"","description":"Food pantry serving all of Saratoga County. Clients pick up inside building."},{"id":"8dc8d1ec-2d01-4781-a080-0c811823bbd8","lat":43.082512,"lng":-73.787027,"name":"Saratoga Springs","org":"Salvation Army","address":"27 Woodlawn Avenue, Saratoga Springs, NY 12866","city":"Saratoga Springs","state":"NY","zip":"12866","phone":"(518) 346-0222","website":"http://empire.salvationarmy.org/empireny/schenectady","email":"","description":"Organization operating food pantry services"},{"id":"ea18d1b0-b9f3-4d73-b359-d4e3ee3cbea0","lat":43.085299,"lng":-73.766247,"name":"Saratoga Springs","org":"St. Clement's Outreach","address":"231 Lake Avenue, Saratoga Springs, NY 12866","city":"Saratoga Springs","state":"NY","zip":"12866","phone":"518-584-6122","website":"http://stclementschurch.com/ministries-outreach/outreach-ministry/","email":"","description":"Food pantry offering weekly visits with appointment preferred but accepting walk-ins, online ordering, and client choice options"},{"id":"5f2145e7-e5e5-4b3e-af70-01aed5c0f7cb","lat":42.896494159281325,"lng":-73.5871593514185,"name":"Schaghticoke","org":"Schaghticoke Food Pantry","address":"165 Main Street, Schaghticoke, NY 12154","city":"Schaghticoke","state":"NY","zip":"12154","phone":"207-319-5307","website":"","email":"","description":"Guests can visit 1-2 times a month walk ins. arrive- ring bell stay outside food brought out to cars"},{"id":"6b54c337-0985-49fb-9f17-c695b7b83ea1","lat":42.8106155,"lng":-73.9411784,"name":"Schenectady","org":"Salvation Army","address":"222 Lafayette St, Schenectady, NY 12305","city":"Schenectady","state":"NY","zip":"12305","phone":"(518) 346-0222","website":"http://empire.salvationarmy.org/empireny/schenectady","email":"","description":"Organization operating food pantry services"},{"id":"0ed32f4b-b634-4833-92c4-b6ade3ac87d5","lat":42.8050589,"lng":-73.9342297,"name":"Schenectady","org":"Harmony Fellowship Food Pantry","address":"888 Albany St, Schenectady, NY 12307","city":"Schenectady","state":"NY","zip":"12307","phone":"(518) 280-5028","website":"","email":"","description":"Food pantry operated by Harmony Fellowship. Call to verify hours of operation and to see if an appointment is required."},{"id":"f2436297-385e-42b3-ad01-96ed984d6721","lat":42.773257147095634,"lng":-73.82553917947654,"name":"Schenectady","org":"Capital Church Food Pantry","address":"1222 Troy-Schenectady Road, Schenectady, NY 12309","city":"Schenectady","state":"NY","zip":"12309","phone":"(518) 456-3022","website":"http://colonielife.org/help-center-food-pantry/","email":"","description":"Guest can visit once a month. call ahead walk in. Limited amount of guest in building"},{"id":"e24c6999-0dca-4516-bd05-f35d55bbe391","lat":42.7959075,"lng":-73.9206136,"name":"Schenectady","org":"Grace and Mercy Food Pantry","address":"1401 State St, Schenectady, NY 12304","city":"Schenectady","state":"NY","zip":"12304","phone":"(518) 630-8404","website":"","email":"","description":"Food pantry operated by Grace and Mercy Church of God in Christ. Call to verify hours of operation and to see if an appointment is required."},{"id":"d2e21f67-6d57-4031-baf9-6373edb749a4","lat":42.81680546993578,"lng":-73.94968543221424,"name":"Schenectady","org":"YWCA Food Pantry","address":"44 Washington Ave, Schenectady, NY 12305","city":"Schenectady","state":"NY","zip":"12305","phone":"(518) 374-3394","website":"https://www.ywca-neny.org/","email":"","description":"Not a regular pantry but some food is available for walk-ins."},{"id":"9deee0a4-ad7b-4d6b-b170-d065f15ad049","lat":42.798481,"lng":-73.92384,"name":"Schenectady","org":"St. Luke's Daily Bread Food Pantry","address":"1243 State St, Schenectady, NY 12304","city":"Schenectady","state":"NY","zip":"12304","phone":"(518) 347-1385","website":"http://www.stlukesschenectady.org/food-pantry-urban-ministry/","email":"","description":"Food pantry operated by St. Luke's Roman Catholic Church. Pantry entrance is off of Division St. NO WALK-INS ALLOWED - must call before 10:00 AM to place an order. May use pantry every 28 days. First-time users need proof of identity for all household members and proof of qualification (SSI, SSDI, SNAP, Medicaid, WIC, NYS Benefit card, or income eligible). Must provide proof of Schenectady County address."},{"id":"d9b5cbbd-13de-44cf-bf3c-e3f91ff37ce3","lat":42.8268455,"lng":-73.9219374,"name":"Schenectady","org":"Bethel Northside","address":"1840 Van Vranken Ave, Schenectady, NY 12308","city":"Schenectady","state":"NY","zip":"12308","phone":"518-901-0040","website":"","email":"","description":"Food Pantry within the Capital District. Call to verify hours of operation and to see if an appointment is required."},{"id":"27ac8753-a846-4770-8bf3-2c96cf29a5ff","lat":42.793582,"lng":-73.9435985,"name":"Schenectady","org":"Daily Bread Food Pantry","address":"1040 Pearl St, Schenectady, NY 12303","city":"Schenectady","state":"NY","zip":"12303","phone":"(518) 347-1385","website":"https://www.holynamencc.org/daily-bread-food-pantry/","email":"","description":"Food pantry providing food assistance services"},{"id":"35c87d0c-e027-4d66-9ab5-4a6d1aee811f","lat":42.806232,"lng":-73.9336114,"name":"Schenectady","org":"Bethesda House Food Pantry","address":"834 State St, Schenectady, NY 12307","city":"Schenectady","state":"NY","zip":"12307","phone":"(518) 374-7873","website":"https://www.bethesdahs.org/page/bethesda-house---state-street-food-pantry-40.html","email":"","description":"Food pantry operated by Bethesda House of Schenectady. Call to verify hours of operation and to see if an appointment is required. Walk-ins welcome. Daily meals 1:30pm. Clients are encouraged to bring their own bags. Visit once a month."},{"id":"8c62a100-b0ee-4605-82dc-8039604ccef3","lat":42.8263032,"lng":-73.9629609,"name":"Scotia","org":"Scotia-Glenville Food Pantry","address":"132 Mohawk Ave, Scotia, NY 12302","city":"Scotia","state":"NY","zip":"12302","phone":"(518) 588-8214","website":"https://villageofscotia.org/news/scotia-glenville-food-pantry-open/","email":"","description":"Walk-in, for residents of Scotia and Glenville only, once/month, ID required for every family member. Call to verify hours of operation."},{"id":"5ea43df4-31c5-40d7-ac4d-4c3cff923dcf","lat":42.562214,"lng":-73.805855,"name":"Selkirk","org":"Venture Churches Food Pantry","address":"38 Church Road - off of Rt 9W, Selkirk, NY 12158","city":"Selkirk","state":"NY","zip":"12158","phone":"(518) 767-2243","website":"","email":"","description":"Food pantry serving the Capital District. Can visit once a month. Walk in, limited amount of people in building."},{"id":"5acab879-a044-4e6d-8194-3f4f5cb09994","lat":43.297186,"lng":-73.63387,"name":"South Glens Falls","org":"Moreau Community Center Pantry","address":"144 Main Street, South Glens Falls, NY 12803","city":"South Glens Falls","state":"NY","zip":"12803","phone":"518-792-6007 x19","website":"https://moreaucommunitycenter.org/services/","email":"","description":"Food pantry operated by Moreau Community Center. Thrift store open 9am-3pm. For info about Senior Lunch Program, call 518-792-6007 ext. 11. Call at least the day before, before noon to make an appointment for lunch. Lunch served at noon."},{"id":"2a3c29ad-416d-478f-af4e-1c079a4f19ca","lat":40.61307,"lng":-74.12025,"name":"Staten Island","org":"ACT Care Foundation","address":"1698 Victory Blvd, Staten Island, NY 10314","city":"Staten Island","state":"NY","zip":"10314","phone":"347-621-6174","website":"","email":"","description":"Food pantry providing services twice per month on Wednesdays from 1:30PM to 4:30PM. Call to verify hours of operation and to see if an appointment is required."},{"id":"77d89bbd-14e7-41d4-86e0-779f1f071ced","lat":42.938656,"lng":-73.653902,"name":"Stillwater","org":"Stillwater Food Pantry","address":"747 Hudson Avenue, Stillwater, NY 12170","city":"Stillwater","state":"NY","zip":"12170","phone":"(518) 664-1231","website":"http://stillwaterfoodpantry.com/","email":"","description":"Food pantry serving Stillwater School District and greater Stillwater area."},{"id":"c775134b-7468-4daa-a9d6-0acf28d73af2","lat":43.06899,"lng":-76.15741,"name":"Syracuse","org":"All Faiths Food Pantry","address":"406 Court Street, Syracuse, NY 13208","city":"Syracuse","state":"NY","zip":"13208","phone":"(315) 569-1275","website":"","email":"","description":"Food pantry providing assistance to community members"},{"id":"46d73e0a-a9d5-4be7-bdf4-badb75362034","lat":42.740205,"lng":-73.6838903,"name":"Troy","org":"Unity House of Troy, Inc","address":"2431 Sixth Avenue, Troy, NY 12180","city":"Troy","state":"NY","zip":"12180","phone":"(518) 274-2607 ext. 4105","website":"http://www.unityhouseny.org/services/community-resources/","email":"","description":"Food pantry serving the Capital District. Guests can visit twice a month. Walk-ins wait in lobby, limited guests in the building at a time. Mixture of client choice on protein selection. Community lunch Monday-Friday 12pm-1pm."},{"id":"f6448845-0be2-4959-b9d8-5d364c617d51","lat":42.732203,"lng":-73.687951,"name":"Troy","org":"Provisions Community Food and Storehouse","address":"461 Fulton Street, Troy, NY 12180","city":"Troy","state":"NY","zip":"12180","phone":"(518) 272-4237","website":"https://www.vlcctroy.org/missions-work/provisions","email":"","description":"Serves all of Rensselaer county. Bring ID, no appointment necessary. Community meal hosted by Amazing Grace Assembly of God Wednesdays 4-6pm. Serves Watervliet and Cohoes as well."},{"id":"cd0bab56-4162-4491-8075-d72d0699053f","lat":42.73551,"lng":-73.68738,"name":"Troy","org":"The Salvation Army Troy","address":"410 River Street, Troy, NY 12180","city":"Troy","state":"NY","zip":"12180","phone":"518-732-5444","website":"","email":"","description":"Serves all of Rensselaer County. Walk in's welcome. Check-in at front. Wait until name is called and then go to the back door to receive pantry. Feeding Program: Monday and Friday 4pm-5pm"},{"id":"8a9eb1c3-7219-470b-8901-748e4e1cbb31","lat":42.734696,"lng":-73.561315,"name":"Troy","org":"Brunswick Cares Community Food Pantry","address":"42 White Church Lane, Troy, NY 12180","city":"Troy","state":"NY","zip":"12180","phone":"(518) 279-3792","website":"https://brunswickchurch.org/","email":"","description":"Emergency bags are available if church office is open. Guests can visit once a month for full orders, 3x/month for partials"},{"id":"6cbd93b6-edfe-46be-a494-c25939871f0b","lat":42.774309,"lng":-73.674425,"name":"Troy","org":"St. Augustine's Food Pantry","address":"25 115th Street, Troy, NY 12182","city":"Troy","state":"NY","zip":"12182","phone":"(518) 235-3861","website":"https://staugchurchtroy.com/contact/","email":"","description":"Serves Lansingburgh. Emergency food available by appointment."},{"id":"085baed3-9132-4b50-b334-a8ef1b4830dd","lat":42.715943,"lng":-73.693215,"name":"Troy","org":"St. Joseph's Food Pantry","address":"416 Third Street, Troy, NY 12180","city":"Troy","state":"NY","zip":"12180","phone":"(518) 244-3347","website":"http://stjosephcatholicchurch-troy.org/","email":"","description":"Food pantry providing prepacked bags to guests who can visit once a month. Clients can walk-in and receive bags inside."},{"id":"d783aebd-83b2-4c90-913e-3e829e6f009d","lat":42.7295533,"lng":-73.6896093,"name":"Troy","org":"Roarke Center Food Pantry","address":"107 Fourth Street, Troy, NY 12180","city":"Troy","state":"NY","zip":"12180","phone":"(518) 273-8351","website":"https://www.facebook.com/RoarkeCenter/","email":"","description":"Food pantry serving the Capital District. Guests can visit once a month. Call ahead for appointment, client comes in and picks own food. Limited amount of people in building."},{"id":"06493bc6-8705-4629-a14d-f78d9003719d","lat":42.72175,"lng":-73.67714,"name":"Troy","org":"Mt. Ida Community Food Pantry","address":"548 Congress Street, Troy, NY 12180","city":"Troy","state":"NY","zip":"12180","phone":"(518) 272-1115","website":"","email":"","description":"Guests can visit once a month for pantry but can come in weekly for produce. Walk ins, client choice or online."},{"id":"dc9cb706-6459-499e-9630-de4d66e12a73","lat":42.739803,"lng":-73.679714,"name":"Troy","org":"Oakwood Community Center","address":"313 Tenth Street, Troy, NY 12180","city":"Troy","state":"NY","zip":"12180","phone":"(518) 272-2434","website":"http://www.oakwoodcommunitycenter.org/tlp-food-pantry/","email":"","description":"Community center providing food pantry services. Guest can visit twice a month. Walk ins, prepacked with choice of meat, produce and free items."},{"id":"e5eb76c9-1975-4a11-8e40-0e8b8724489b","lat":42.730011155122604,"lng":-73.68825131683047,"name":"Troy","org":"Sidewalk Warriors Troy","address":"35 State Street, Troy, NY 12180","city":"Troy","state":"NY","zip":"12180","phone":"5182657026","website":"https://www.sidewalkwarriorstroy.com/copy-of-receive-help","email":"","description":"Food Pantry organization providing food assistance services"},{"id":"6dce2f56-d1c0-4085-a942-adc153c7a86d","lat":42.738499,"lng":-73.68487,"name":"Troy","org":"Commission on Economic Opportunity","address":"2328 Fifth Avenue, Troy, NY 12180","city":"Troy","state":"NY","zip":"12180","phone":"(518) 272-6012 ext 350","website":"http://www.ceoempowers.org/services/health-wellness/food-pantry/","email":"","description":"Food pantry serving all of Rensselaer County. Appointments by phone only. Guests can visit every 14 days, will take walk-ins as time permits."},{"id":"96332d54-914d-44a9-b95d-f57478917911","lat":42.730172,"lng":-73.6932461,"name":"Troy","org":"YWCA","address":"21 First St, Troy, NY 12180","city":"Troy","state":"NY","zip":"12180","phone":"(518) 274-7100","website":"https://www.ywca-gcr.org/services/#pantry","email":"","description":"YWCA Food Pantry - Guests can visit once a month. Walk-ins are welcome. Limited amount of people in the building, wait in lobby. Selection is client choice. Community meal: Tuesday 5:00pm - 7:00pm."},{"id":"7e9a5738-a4f0-4101-9b71-301792acbabf","lat":42.733509,"lng":-73.686983,"name":"Troy","org":"REACT Inc.","address":"501 Grand Street, Troy, NY 12180","city":"Troy","state":"NY","zip":"12180","phone":"(518) 272-8974","website":"https://troyhousing.org/react/","email":"","description":"Serves Troy Housing Authority"},{"id":"703209a0-7c3c-4c01-a7af-d483a03a82c0","lat":42.869633,"lng":-73.547808,"name":"Valley Falls","org":"Pittstown Area Food Pantry","address":"97 Tomhannock Road, Valley Falls, NY 12185","city":"Valley Falls","state":"NY","zip":"12185","phone":"(518) 258-8213","website":"http://pittstownareafoodpantry.weebly.com/","email":"","description":"Once a month for full order, partial order any other time no limit Guests enter for client choice, no restrictions"},{"id":"5ce2c494-f409-4237-a9a7-978b084f3d5e","lat":42.647639,"lng":-73.932414,"name":"Voorheesville","org":"New Scotland Community Food Pantry","address":"25 Mountainview Street, Voorheesville, NY 12186","city":"Voorheesville","state":"NY","zip":"12186","phone":"(518) 765-3806 ext 31","website":"http://www.townofnewscotland.com/182/Community-Food-Pantry","email":"","description":"Food pantry providing emergency food assistance. All pantry visits by appointment. Home delivery available on a case-by-case basis."},{"id":"e2f0950e-e0e9-4e45-8e68-d337a32c5a8b","lat":42.811488,"lng":-73.6864399,"name":"Waterford","org":"Living Hope United Methodist Church","address":"126 Middletown Rd, Waterford, NY 12188","city":"Waterford","state":"NY","zip":"12188","phone":"(518) 235-6498","website":"","email":"","description":"Food pantry serving Waterford residents with scheduled appointments and walk-in fresh food options. Guests call ahead to schedule appointments and give their choices for their food pantry bag."},{"id":"239de68c-e584-4045-983a-6db77ebc3392","lat":42.78961,"lng":-73.67865,"name":"Waterford","org":"Grace Church","address":"34 Third Street, Waterford, NY 12188","city":"Waterford","state":"NY","zip":"12188","phone":"(518) 237-7370","website":"","email":"","description":"Food pantry service where guests can visit once a month but twice if emergency. Call for appointment but walk-ins accepted. People ring bell and food is brought to them."},{"id":"53da3f54-bad3-49e7-9275-3829e15a4212","lat":42.735282,"lng":-73.706397,"name":"Watervliet","org":"Immaculate Heart of Mary","address":"2416 Seventh Avenue, Watervliet, NY 12189","city":"Watervliet","state":"NY","zip":"12189","phone":"(518) 273-6020","website":"https://careandshare.org/locations/immaculate-heart-of-mary/","email":"","description":"Food pantry in Archuleta and La Plata"},{"id":"6e530764-42c0-4d70-8c82-441cfe9cac1f","lat":42.726875,"lng":-73.706484,"name":"Watervliet","org":"Redemption Church Food Pantry","address":"1511 6th Avenue, Watervliet, NY 12189","city":"Watervliet","state":"NY","zip":"12189","phone":"(518) 272-7848","website":"","email":"","description":"Food pantry operated by Redemption Church of Christ Watervliet. Hot Meals: Tuesdays 4:00 pm-6:00 pm. Will serve emergency basis when pantry is closed. Guest can visit twice a month Drive through registration, drive through pick up, prepacked"},{"id":"b1ca33d7-1a25-4d94-a605-f6aba05df30a","lat":43.06626,"lng":-73.922301,"name":"West Rock City Falls","org":"Echo Food Pantry, in St. Paul's Roman Catholic Church","address":"771 Route 29 - St. Paul's Church, West Rock City Falls, NY 12863","city":"West Rock City Falls","state":"NY","zip":"12863","phone":"(518) 893-7680","website":"https://www.stjosephschurchgreenfieldcenter.org/food-pantires","email":"","description":"Food pantry located in St. Paul's Roman Catholic Church. Walk ins welcome."},{"id":"0b8217b4-b7a9-46f1-86d0-d25f20daf0e6","lat":42.64605,"lng":-73.606018,"name":"West Sand Lake","org":"Doors of Hope","address":"12 Mall Way Suite 12, West Sand Lake, NY 12196","city":"West Sand Lake","state":"NY","zip":"12196","phone":"(518) 674-4048","website":"https://www.facebook.com/Doors-of-Hope-203159600130157/","email":"","description":"Food pantry serving the Capital District. Guests can visit once a month. Call ahead, come inside and pick up, client choice from menu."},{"id":"19cac5f6-ffaa-4c21-96d4-3479a537fba3","lat":42.514607,"lng":-74.047448,"name":"Westerlo","org":"Catholic Charities","address":"556 State Route 143, Westerlo, NY 12193","city":"Westerlo","state":"NY","zip":"12193","phone":"(518)-966-7380","website":"","email":"","description":"Organization operating food pantry services in the Capital District"},{"id":"fa6dd695-4446-4959-be5e-69acae7880ee","lat":40.691585,"lng":-73.86224,"name":"Woodhaven","org":"All Nations Baptist Church of Woodhaven","address":"86-76 80th St, Woodhaven, NY 11421","city":"Woodhaven","state":"NY","zip":"11421","phone":"347-679-3562","website":"","email":"","description":"Food pantry operated by All Nations Baptist Church of Woodhaven. Call to verify hours of operation and to see if an appointment is required."},{"id":"8681dd44-9d42-46f6-b6e9-8a745c0fe63e","lat":40.744651,"lng":-73.902186,"name":"Woodside","org":"AIDS Center of Queens County","address":"62-07 Woodside Avenue, Woodside, NY 11377","city":"Woodside","state":"NY","zip":"11377","phone":"718-896-2500","website":"","email":"","description":"Food pantry providing services in Queens County"},{"id":"8e48e5e5-dfb7-4d4c-9ae4-6bfaab7cfcc0","lat":40.57604,"lng":-73.98842,"name":"brooklyn","org":"ACTS COMMUNITY DEVELOPMENT CORPORATION","address":"2114 mermaid avenue, brooklyn, NY 11224","city":"brooklyn","state":"NY","zip":"11224","phone":"718-415-1170","website":"","email":"","description":"Food pantry providing food assistance services. Call to verify hours of operation and to see if an appointment is required."}]}