{"metadata":{"generated":"2025-08-06T08:53:24.999905+00:00","total_locations":394,"states_covered":42,"coverage":"42 US states/territories","source":"HAARRRvest - Pantry Pirate Radio Database","database_path":"pantry_pirate_radio.sqlite","format_version":"1.0","filtered_by":"state = OH"},"locations":[{"id":"39ecd244-dd37-452d-9035-a03b42c5a8b9","lat":41.06348,"lng":-81.52018,"name":"AKRON","org":"St. Paul Holiness Church of God","address":"745 WOLF LEDGES PKWY, AKRON, OH 44311","city":"AKRON","state":"OH","zip":"44311","phone":"330-221-3343","website":"","email":"","description":"A church organization providing food pantry services to the community through their Prepack Pantry program."},{"id":"221e0a50-2014-41f7-bec9-150f554399fb","lat":41.07058,"lng":-81.47265,"name":"AKRON","org":"JoAnn's Pantry","address":"1424 SPRAGUE ST, AKRON, OH 44305","city":"AKRON","state":"OH","zip":"44305","phone":"234-571-5444","website":"","email":"","description":"A food pantry providing choice pantry services to the Akron community"},{"id":"3c9ee53d-9283-4d83-9c5d-5b184d7a7236","lat":41.05494,"lng":-81.57981,"name":"AKRON","org":"The Salvation Army (Akron) Direct Distribution","address":"2207 ROMIG RD, AKRON, OH 44320","city":"AKRON","state":"OH","zip":"44320","phone":"330-762-8481","website":"","email":"","description":"The Salvation Army food distribution center providing pantry services to the Akron community"},{"id":"d2b13895-b65f-4997-ba82-6f55647e9ed6","lat":40.4752257,"lng":-80.92349899,"name":"AMSTERDAM","org":"WEBA Outreach Food Pantry","address":"348 N MAIN ST, AMSTERDAM, OH 43903","city":"AMSTERDAM","state":"OH","zip":"43903","phone":"740-946-0146","website":"","email":"","description":"Food pantry providing prepackaged food assistance and fresh produce distribution to community members in need."},{"id":"e351efe6-0001-4e6b-8d87-c2ba951fcf21","lat":41.508318,"lng":-84.306843,"name":"ARCHBOLD","org":"Archbold Fish Pantry","address":"1309 S. Defiance Street, ARCHBOLD, OH 43502","city":"ARCHBOLD","state":"OH","zip":"43502","phone":"(419)445-0366","website":"https://archboldfish.org/","email":"","description":"Community food pantry providing food assistance to local residents"},{"id":"238a85aa-e00c-4979-89a2-3603cbc528ba","lat":39.33012,"lng":-82.09992,"name":"Athens County Food Pantry Main Location","org":"Athens County Food Pantry","address":"9 N COLLEGE ST, ATHENS, OH 45701","city":"ATHENS","state":"OH","zip":"45701","phone":"800-338-4484","website":"","email":"","description":"Food pantry providing emergency food assistance to individuals and families in Athens County, Ohio."},{"id":"355e7fe1-3229-458a-9249-a64f2cf5c731","lat":41.06711012,"lng":-82.88900149,"name":"ATTICA","org":"Attica Food Pantry","address":"25 Venice, ATTICA, OH 44807","city":"ATTICA","state":"OH","zip":"44807","phone":"419-230-3283","website":"","email":"","description":"Community food pantry providing choice pantry services to residents in need"},{"id":"2656e919-8694-4336-8959-078298e029d9","lat":40.99496,"lng":-81.4558,"name":"Akron","org":"Word of Life Outreach Center","address":"1878 Killian Rd, Akron, OH 44312","city":"Akron","state":"OH","zip":"44312","phone":"330-645-9330","website":"","email":"","description":"Community outreach center providing food pantry services and meals to those in need."},{"id":"c2a3fb8f-08fc-4f4b-9e6d-fca40837a90b","lat":41.07012,"lng":-81.49099,"name":"Akron","org":"Middlebury Assembly","address":"82 S Arlington St, Akron, OH 44306","city":"Akron","state":"OH","zip":"44306","phone":"330-253-1921","website":"","email":"","description":"Community organization providing food pantry services to residents of Akron, Ohio area."},{"id":"7b0e43d5-12d7-46f6-8ec9-3f8739a43b4d","lat":41.0635711,"lng":-81.5196129,"name":"Akron","org":"St. Paul Holiness Church of God","address":"196 E Voris St, Akron, OH 44311","city":"Akron","state":"OH","zip":"44311","phone":"330-221-3343","website":"","email":"","description":"A church organization providing food pantry services to the community through their Prepack Pantry program."},{"id":"f52151f3-09b0-489d-b544-00529d5a55f2","lat":41.07881,"lng":-81.51865,"name":"Akron","org":"St. Bernard Food Pantry","address":"44 University Ave, Akron, OH 44308","city":"Akron","state":"OH","zip":"44308","phone":"330-253-5161","website":"","email":"","description":"Food pantry providing choice pantry services to the community"},{"id":"758e7c72-b72d-4950-b4eb-6bb2dfc282ab","lat":41.0772,"lng":-81.52933,"name":"Akron","org":"Sarah's House Inc","address":"414 Pine St, Akron, OH 44307","city":"Akron","state":"OH","zip":"44307","phone":"330-535-7272","website":"","email":"","description":"Community organization providing food pantry services and meal programs to support local families in need."},{"id":"44a924e5-83fd-4f2d-abb8-e8616ea255f0","lat":41.06153,"lng":-81.51511,"name":"Akron","org":"Akron Bible Church/Hope Cafe","address":"340 E South St, Akron, OH 44311","city":"Akron","state":"OH","zip":"44311","phone":"","website":"","email":"","description":"Faith-based organization providing food pantry services and meals to the Akron community"},{"id":"76aa4e34-567a-40b6-b455-9dcfafe35312","lat":41.08816,"lng":-81.46363,"name":"Akron","org":"Heart 4 the City","address":"954 Eastland Ave, Akron, OH 44305","city":"Akron","state":"OH","zip":"44305","phone":"330-784-1350","website":"","email":"","description":"Community organization providing food pantry services to residents in Akron, Ohio area"},{"id":"9dc9fe6f-8bb0-483c-9792-c059c1468314","lat":41.05615,"lng":-81.55695,"name":"Akron","org":"The Sanctuary","address":"847 Lakewood Blvd, Akron, OH 44314","city":"Akron","state":"OH","zip":"44314","phone":"(301) 752-0778","website":"","email":"mscharander@gmail.com","description":"Food pantry serving the Upper Marlboro community through the Capital Area Food Bank network"},{"id":"cfa3e66c-e344-4353-81a8-1437bf4b3bea","lat":41.044124,"lng":-81.55088758,"name":"Akron","org":"C.O.B. Outreach","address":"754 Kenmore Blvd, Akron, OH 44314","city":"Akron","state":"OH","zip":"44314","phone":"330-745-8634","website":"","email":"","description":"Community outreach organization providing food pantry services and meals to residents in the Kenmore School District area."},{"id":"ae8ebca0-f848-4f91-88c2-e396676ade0b","lat":41.07926,"lng":-81.50883,"name":"Akron","org":"Greek Orthodox Church of Annunciation","address":"129 S Union St, Akron, OH 44304","city":"Akron","state":"OH","zip":"44304","phone":"330-434-0000","website":"","email":"","description":"Greek Orthodox church providing food pantry and meal services to the community"},{"id":"75551395-2a2c-4bb4-9f96-a121834ebeea","lat":41.0729858,"lng":-81.4645616,"name":"Akron","org":"JoAnn's Pantry","address":"1690 Hillside Ter Ste A, Akron, OH 44305","city":"Akron","state":"OH","zip":"44305","phone":"234-571-5444","website":"","email":"","description":"A food pantry providing choice pantry services to the Akron community"},{"id":"a2030991-9a26-4289-b8b4-8ac15e85eaa9","lat":41.09527,"lng":-81.53827,"name":"Akron","org":"Akron Christian Reformed Church","address":"50 Marshall Ave, Akron, OH 44303","city":"Akron","state":"OH","zip":"44303","phone":"330-360-9627","website":"","email":"","description":"Christian Reformed Church providing food pantry services to the Akron community"},{"id":"f3e1a441-1d52-4797-91a9-8b87bbaeae5e","lat":41.08159,"lng":-81.50946,"name":"Akron","org":"Feeding Hope Food Pantry","address":"292 E Market St, Akron, OH 44308","city":"Akron","state":"OH","zip":"44308","phone":"330-666-5238","website":"","email":"","description":"Community food pantry providing choice pantry services to families and individuals in need in the Akron area."},{"id":"1f5d306c-edaa-42f1-a9f8-d074d5bebb0d","lat":41.09976,"lng":-81.51578,"name":"Akron","org":"He Brought Us Out Ministry","address":"526 N Howard St, Akron, OH 44310","city":"Akron","state":"OH","zip":"44310","phone":"330-375-5065","website":"","email":"","description":"Community food pantry providing choice pantry services to local residents"},{"id":"597f65a8-bb7d-418a-a582-83764237b09c","lat":41.05347,"lng":-81.49363,"name":"Akron","org":"Faith Temple Church","address":"701 Sylvan Ave, Akron, OH 44306","city":"Akron","state":"OH","zip":"44306","phone":"330-724-6823","website":"","email":"","description":"Faith Temple Church providing food pantry services to the community"},{"id":"5f0b70d4-b8b1-41fe-a1ea-e6700ee38b71","lat":41.07786,"lng":-81.5657,"name":"Akron","org":"Mt. Olive Baptist Church","address":"1180 Slosson St, Akron, OH 44320","city":"Akron","state":"OH","zip":"44320","phone":"UNKNOWN","website":"","email":"","description":"Baptist church providing food pantry services to the community"},{"id":"f8ab1e44-3596-46cc-8a9c-93d2635a443d","lat":41.04445,"lng":-81.56327,"name":"Akron","org":"Unity Holiness Ministries","address":"1019 Harpster Ave, Akron, OH 44314","city":"Akron","state":"OH","zip":"44314","phone":"330-753-1509","website":"","email":"","description":"Religious organization providing food pantry services to the community"},{"id":"e9615144-9e6c-4139-8639-f251c3119736","lat":41.0243,"lng":-81.54859,"name":"Akron","org":"Calvary Apostolic/ Love Thy Neighbor","address":"2693 Nesbitt Ave, Akron, OH 44319","city":"Akron","state":"OH","zip":"44319","phone":"330-745-7248","website":"","email":"","description":"Community organization providing food pantry services to local residents in need"},{"id":"a5169670-8d0b-44ca-8519-cf227d1786d0","lat":41.02556,"lng":-81.41961,"name":"Akron","org":"Kings Kitchen","address":"1551 Canton Rd, Akron, OH 44312","city":"Akron","state":"OH","zip":"44312","phone":"330-733-8701","website":"","email":"","description":"Community food pantry providing prepack pantry services to local residents"},{"id":"56c66455-c2af-41ed-b423-d0ffed23eee3","lat":41.08618,"lng":-81.52886,"name":"Akron","org":"The Salvation Army (Akron)","address":"190 S Maple St, Akron, OH 44302","city":"Akron","state":"OH","zip":"44302","phone":"330-762-8481","website":"","email":"","description":"The Salvation Army provides food pantry services and community assistance to residents of Summit County, Ohio."},{"id":"9da2446a-2629-4143-9bc3-564c31c423d7","lat":41.10176,"lng":-81.50365,"name":"Akron","org":"Christ the King","address":"300 E Tallmadge Ave, Akron, OH 44310","city":"Akron","state":"OH","zip":"44310","phone":"330-807-7180","website":"","email":"","description":"Food pantry organization providing prepackaged food distribution services to the Akron community"},{"id":"7d9e5fc3-bd1c-4602-bcd8-fb988c0af058","lat":41.081,"lng":-81.51698,"name":"Akron","org":"Zion Lutheran Church - Lord's Pantry","address":"139 S High St, Akron, OH 44308","city":"Akron","state":"OH","zip":"44308","phone":"330-253-3615","website":"","email":"","description":"A food pantry operated by Zion Lutheran Church providing choice pantry services to residents in specific zip code areas of Akron, Ohio."},{"id":"9b247f4f-21ca-4dbf-9014-51e9597bc2a2","lat":41.06114,"lng":-81.53403,"name":"Open M Main Location","org":"Open M","address":"941 Princeton St, Akron, OH 44311","city":"Akron","state":"OH","zip":"44311","phone":"330-434-0110","website":"","email":"","description":"Community food pantry providing prepack pantry services to residents of Akron and surrounding areas"},{"id":"7b997945-c663-4f10-8996-04c03d6a11b4","lat":41.0549887,"lng":-81.5193541,"name":"Pantry Location","org":"The Salvation Army (Akron)","address":"1033 Bellows St, Akron, OH 44311","city":"Akron","state":"OH","zip":"44311","phone":"330-762-8481","website":"","email":"","description":"The Salvation Army provides food pantry services and community assistance to residents of Summit County, Ohio."},{"id":"f88fc189-5a0a-4174-a191-0ee01402df2e","lat":40.92085,"lng":-81.10211,"name":"Alliance","org":"Alliance Community Pantry","address":"215 E Market St, Alliance, OH 44601","city":"Alliance","state":"OH","zip":"44601","phone":"330-680-8130","website":"","email":"","description":"Community food pantry providing choice pantry services to families in need in Alliance, Ohio."},{"id":"5cb9eb58-ad06-4153-a9d9-8e2322878445","lat":40.92177,"lng":-81.10675,"name":"Alliance","org":"The Salvation Army (Alliance)","address":"57 W Main St, Alliance, OH 44601","city":"Alliance","state":"OH","zip":"44601","phone":"330-823-5188","website":"","email":"","description":"The Salvation Army location in Alliance providing food pantry services and meals to local residents"},{"id":"67338c0b-16f5-44fc-930d-64891bb03892","lat":39.22710442,"lng":-83.26816239,"name":"BAINBRIDGE","org":"Paint Valley Ministries Pantry","address":"204 E 2ND ST, BAINBRIDGE, OH 45612","city":"BAINBRIDGE","state":"OH","zip":"45612","phone":"740-634-3791","website":"","email":"","description":"Food pantry operated by Paint Valley Ministries providing pre-packaged food assistance to community members"},{"id":"87f16f54-cdc5-407d-8eb1-30955711ca70","lat":41.321074,"lng":-82.857951,"name":"BELLEVUE","org":"Worship Alive Church-Keystone Ministry","address":"829 County Road 308, BELLEVUE, OH 44811","city":"BELLEVUE","state":"OH","zip":"44811","phone":"(419)463-6258","website":"","email":"","description":"A church-based ministry providing food pantry services to the Bellevue community through their Keystone Ministry program."},{"id":"e5c15098-3a68-482a-a557-021ac7561d7d","lat":41.366855,"lng":-83.656639,"name":"BOWLING GREEN","org":"Brown Bag Food Project","address":"530 Sand Ridge Road, BOWLING GREEN, OH 43402","city":"BOWLING GREEN","state":"OH","zip":"43402","phone":"(419)960-5345","website":"https://www.brownbagfoodproject.org/","email":"","description":"Community food pantry providing food assistance to individuals and families in need"},{"id":"9c936293-b6fd-4b73-9c59-b9a83593f008","lat":41.373293,"lng":-83.647271,"name":"BOWLING GREEN","org":"St. Vincent De Paul-St. Aloysius Church","address":"150 South Enterprise St., BOWLING GREEN, OH 43402","city":"BOWLING GREEN","state":"OH","zip":"43402","phone":"(419)352-4195","website":"","email":"","description":"Catholic church operating a food pantry to serve the Bowling Green community"},{"id":"51764364-a42a-4816-856d-5af5da0d212f","lat":39.920211,"lng":-82.832104,"name":"BRICE","org":"New Faith Ministries Food Pantry","address":"2879 BRICE Rd, BRICE, OH 43109","city":"BRICE","state":"OH","zip":"43109","phone":"614-432-4357","website":"","email":"","description":"Food pantry providing emergency food assistance through prepack pantry services"},{"id":"7e1ed229-9935-465d-8396-fa9e53f5b7da","lat":39.913745,"lng":-82.83250762,"name":"Brice UMC Food Pantry Location","org":"Brice UMC Food Pantry","address":"3160 Brice Road, BRICE, OH 43109","city":"BRICE","state":"OH","zip":"43109","phone":"614-866-3025","website":"","email":"","description":"United Methodist Church food pantry providing choice pantry services to the Brice, Ohio community."},{"id":"f3b22acd-d86b-41d1-8898-ccad0a85a56d","lat":41.46462,"lng":-84.564564,"name":"BRYAN","org":"Wesley U.M.C. Mission Council","address":"903 Center Street, BRYAN, OH 43506","city":"BRYAN","state":"OH","zip":"43506","phone":"(419)636-6721","website":"","email":"","description":"United Methodist Church mission council operating a food pantry to serve the Bryan community"},{"id":"6b9168f8-bb8f-4cb6-a39d-e770a8781e5b","lat":40.98011,"lng":-81.55009,"name":"Barberton","org":"River of Life Assembly of God","address":"133 5th St SE, Barberton, OH 44203","city":"Barberton","state":"OH","zip":"44203","phone":"234-718-3328","website":"","email":"","description":"Assembly of God church providing food pantry services and meal programs to the Barberton community"},{"id":"6059bc03-e896-4dfe-9fad-623f8a2c8ec4","lat":41.02564168,"lng":-81.62353814,"name":"Barberton","org":"Barberton Area Community Ministries","address":"939 Norton Ave, Barberton, OH 44203","city":"Barberton","state":"OH","zip":"44203","phone":"330-745-3693","website":"","email":"","description":"Community organization providing food pantry services to residents of Barberton, Ohio"},{"id":"91a4acf7-a7b2-4100-8f91-f5a5b64ca9d7","lat":41.2782901,"lng":-82.8487854,"name":"Bellevue","org":"Bellevue Fish and Loaves","address":"203 Maple St., Bellevue, OH 44811","city":"Bellevue","state":"OH","zip":"44811","phone":"419-484-2814","website":"","email":"","description":"Food pantry providing prepack pantry services to families in the Bellevue School District area"},{"id":"27629b05-5c3d-4ee2-a019-e958c2729e53","lat":39.27975,"lng":-81.62378,"name":"Belpre","org":"Belpre Church of Christ","address":"2932 Washington Blvd, Belpre, OH 45714","city":"Belpre","state":"OH","zip":"45714","phone":"740-350-6301","website":"","email":"","description":"Community church providing food pantry services to local residents in Belpre, Ohio."},{"id":"79910727-01c7-4166-beff-df97029cc9bd","lat":40.51906957,"lng":-80.8805188,"name":"Bergholz","org":"Northeast Jefferson Food Pantry","address":"245 2nd St, Bergholz, OH 43908","city":"Bergholz","state":"OH","zip":"43908","phone":"330-627-4080","website":"","email":"","description":"Food pantry providing emergency food assistance and regular food distribution services to the community."},{"id":"611e0aea-4880-4cec-95ae-56653fcc6f90","lat":39.54964668,"lng":-81.63530281,"name":"Beverly","org":"Beverly Waterford Food Pantry","address":"307 7th Street, Beverly, OH 45715","city":"Beverly","state":"OH","zip":"45715","phone":"740-984-4651","website":"","email":"","description":"Community food pantry serving Waterford & Watertown Townships, providing food assistance to families in need"},{"id":"5b072e35-3dc6-4f24-8825-b5ac06b5c2cf","lat":41.37141,"lng":-83.645385,"name":"Bowling Green","org":"Bowling Green Christian Food Pantry","address":"419 Gould Street#5, Bowling Green, OH 43402","city":"Bowling Green","state":"OH","zip":"43402","phone":"(419)353-5174","website":"https://www.facebook.com/BGChristianFoodPantry/","email":"","description":"Christian-based food pantry providing food assistance to individuals and families in the Bowling Green, Ohio community."},{"id":"8bfb9815-d316-4fd6-a83f-192863c93e24","lat":41.374659,"lng":-83.6376,"name":"Bowling Green","org":"Falcon Food Pantry (BGSU Students Only)","address":"1001 E Wooster St, Bowling Green, OH 43403","city":"Bowling Green","state":"OH","zip":"43403","phone":"","website":"","email":"foodpantry@bgsu.edu","description":"Student food pantry exclusively serving currently enrolled Bowling Green State University students"},{"id":"bc7d5e86-4b88-4d01-9754-e3e1c75b8789","lat":41.374407,"lng":-83.627259,"name":"Bowling Green","org":"First United Methodist Church","address":"1526 E. Wooster Street, Bowling Green, OH 43402","city":"Bowling Green","state":"OH","zip":"43402","phone":"(551) 221-7950","website":"https://www.facebook.com/ParrisMLKG","email":"","description":"Methodist church providing food pantry services to the Bowling Green community"},{"id":"dd831898-6de2-4011-bcae-45e6d13960a7","lat":41.379087,"lng":-83.643139,"name":"Bowling Green","org":"St. Vincent De Paul-St. Thomas More Church","address":"425 Thurstin Ave., Bowling Green, OH 43402","city":"Bowling Green","state":"OH","zip":"43402","phone":"(419)352-7555","website":"","email":"","description":"Catholic charitable organization providing food assistance through their food pantry program"},{"id":"4f1323e4-fd3e-4982-a2cf-024512f429c3","lat":40.07087,"lng":-80.75447,"name":"Bridgeport","org":"Bridgeport Council of Churches Pantry","address":"630 Main St, Bridgeport, OH 43912","city":"Bridgeport","state":"OH","zip":"43912","phone":"740-635-9063","website":"","email":"","description":"Community food pantry operated by Bridgeport Council of Churches providing food assistance through choice pantry services."},{"id":"ba783432-75a7-4020-bbfb-b5cc322accf0","lat":41.24118,"lng":-81.8048,"name":"Brunswick","org":"Brunswick Food Pantry Inc.","address":"1255 N Carpenter Rd, Brunswick, OH 44212","city":"Brunswick","state":"OH","zip":"44212","phone":"330-220-8299","website":"","email":"","description":"Food pantry providing prepack pantry services to the Brunswick, Ohio community"},{"id":"7e0d1768-6ffe-41e9-95dc-c71330154b4b","lat":41.2524781,"lng":-81.8404583,"name":"Brunswick","org":"Brunswick Food Pantry Inc.","address":"835 Pearl Rd Rolling Hills Plaza, Brunswick, OH 44212","city":"Brunswick","state":"OH","zip":"44212","phone":"330-220-8299","website":"","email":"","description":"Food pantry providing prepack pantry services to the Brunswick, Ohio community"},{"id":"8e4c1047-b4a2-43f5-8cae-e7a2e4ff546a","lat":41.456461,"lng":-84.543785,"name":"Bryan","org":"New Life Worship Center","address":"14451 County Road C, Bryan, OH 43506","city":"Bryan","state":"OH","zip":"43506","phone":"(419)636-3526","website":"","email":"","description":"Religious organization operating a food pantry to serve the community"},{"id":"2c6f7b95-5e49-44e0-b226-318b7197d01e","lat":39.74678,"lng":-81.51509,"name":"Lutheran Social Services Choice Pantry - Noble Location","org":"Lutheran Social Services Choice Pantry - Noble","address":"49014 Outpost Rd, CALDWELL, OH 43724","city":"CALDWELL","state":"OH","zip":"43724","phone":"18777043663","website":"","email":"","description":"Lutheran Social Services food pantry providing choice pantry services and produce distribution to the Noble community"},{"id":"8388e7ec-48d8-4381-af3f-68e95555e80a","lat":40.02601,"lng":-81.5824,"name":"CAMBRIDGE","org":"Grace Pantry","address":"1101 STEUBENVILLE AVE, CAMBRIDGE, OH 43725","city":"CAMBRIDGE","state":"OH","zip":"43725","phone":"740-705-2171","website":"","email":"","description":"A food pantry providing prepack pantry services to the community"},{"id":"5a79dcf8-e4c3-481b-85e7-cfaeb6d032da","lat":40.01926,"lng":-81.5909,"name":"CAMBRIDGE","org":"Faith United Methodist Church Produce Market","address":"518 S 8TH ST, CAMBRIDGE, OH 43725","city":"CAMBRIDGE","state":"OH","zip":"43725","phone":"740-584-1402","website":"","email":"","description":"Methodist church providing produce market services to the community"},{"id":"e90b1e0d-fcf5-4506-9316-bf9965262c6e","lat":39.89181,"lng":-82.83471,"name":"Dayspring Community Church Food Pantry Location","org":"Dayspring Community Church Food Pantry","address":"3919 BRICE RD, CANAL WINCHESTER, OH 43110","city":"CANAL WINCHESTER","state":"OH","zip":"43110","phone":"614-834-5831","website":"","email":"","description":"Community church food pantry providing food assistance through choice pantry services by appointment"},{"id":"ce1c41b5-618e-41ae-bb9b-aea805b9562f","lat":38.43297,"lng":-82.42912,"name":"Community Mission Outreach Main Location","org":"Community Mission Outreach","address":"3748 STATE ROUTE 7, CHESAPEAKE, OH 45619","city":"CHESAPEAKE","state":"OH","zip":"45619","phone":"740-867-6628","website":"","email":"","description":"Community food pantry providing prepackaged food assistance to families in need"},{"id":"2a0d46ed-af10-47ba-8217-ff8816644f72","lat":39.37456,"lng":-83.02337,"name":"CHILLICOTHE","org":"Brookside Church Pantry","address":"2215 EGYPT PIKE, CHILLICOTHE, OH 45601","city":"CHILLICOTHE","state":"OH","zip":"45601","phone":"740.775.2884","website":"","email":"","description":"Food pantry providing prepack pantry services to community members"},{"id":"21806766-b4e2-4d87-88bf-d766abb57023","lat":39.3344704,"lng":-83.0042998,"name":"Good Samaritan Food Network","org":"Good Samaritan Food Network","address":"255 North Woodbridge Avenue, CHILLICOTHE, OH 45601","city":"CHILLICOTHE","state":"OH","zip":"45601","phone":"740-774-6303","website":"","email":"","description":"Food pantry providing emergency food assistance to individuals and families in need"},{"id":"6fd30b1d-859e-4f9a-95a7-48d474df4995","lat":39.59274311,"lng":-82.93983721,"name":"Emergency Clearing House Main Location","org":"Emergency Clearing House","address":"722 Clinton St, CIRCLEVILLE, OH 43113","city":"CIRCLEVILLE","state":"OH","zip":"43113","phone":"(740) 412-1538","website":"","email":"","description":"Emergency food assistance organization providing choice pantry services to the community"},{"id":"fc5a583c-704d-436d-97c2-0084f0d7bae2","lat":41.312864,"lng":-82.985458,"name":"CLYDE","org":"Clyde Food Pantry","address":"803 W. McPherson Hwy, CLYDE, OH 43410","city":"CLYDE","state":"OH","zip":"43410","phone":"(419)547-9555","website":"","email":"","description":"Food pantry providing food assistance to individuals and families in need"},{"id":"b4cad8e9-159f-40da-9f76-af688dc3f528","lat":41.3086,"lng":-83.008466,"name":"CLYDE","org":"Friendship Baptist Church","address":"1283 County Road 236, CLYDE, OH 43410","city":"CLYDE","state":"OH","zip":"43410","phone":"(419)307-5530","website":"","email":"","description":"Baptist church providing food pantry services to the local community"},{"id":"a9c82886-27ba-49ef-a2df-8646decef664","lat":40.01933,"lng":-82.92719,"name":"COLUMBUS","org":"Columbus Christian Center Food Pantry","address":"2300 N CASSADY AVE, COLUMBUS, OH 43219","city":"COLUMBUS","state":"OH","zip":"43219","phone":"614-256-5175","website":"","email":"","description":"Food pantry providing choice pantry services to the Columbus community"},{"id":"ba77cde3-0a43-45d6-a4ff-85c909e1af1f","lat":39.94437,"lng":-82.98285,"name":"COLUMBUS","org":"All Peoples Fresh Market","address":"945 PARSONS AVE, COLUMBUS, OH 43206","city":"COLUMBUS","state":"OH","zip":"43206","phone":"614-445-7342","website":"","email":"","description":"Fresh market providing produce services to the community"},{"id":"e47ef89e-d64e-4ffe-92fb-9bda7386c5e0","lat":39.97228,"lng":-82.97134,"name":"COLUMBUS","org":"Mt. Vernon AME Food Pantry","address":"1147 MOUNT VERNON AVE, COLUMBUS, OH 43203","city":"COLUMBUS","state":"OH","zip":"43203","phone":"614-253-4323","website":"","email":"","description":"Food pantry operated by Mt. Vernon AME Church providing prepack pantry services to the community"},{"id":"4bf857b0-1040-42b8-97a8-47c02c5bbd29","lat":39.96564,"lng":-82.97989,"name":"COLUMBUS","org":"Broad Street Presbyterian Pantry","address":"760 E BROAD ST, COLUMBUS, OH 43205","city":"COLUMBUS","state":"OH","zip":"43205","phone":"614-908-3901","website":"","email":"","description":"Presbyterian church food pantry providing choice pantry services and produce distribution to the Columbus community, serving approximately 50 customers daily."},{"id":"2a3f64fa-d642-4607-82a4-63e7e0be653e","lat":39.95301,"lng":-82.99323,"name":"COLUMBUS","org":"Livingston Avenue UMC Food Pantry","address":"200 E LIVINGSTON AVE, COLUMBUS, OH 43215","city":"COLUMBUS","state":"OH","zip":"43215","phone":"614-746-4023","website":"","email":"","description":"Food pantry operated by Livingston Avenue United Methodist Church providing choice pantry services to the community"},{"id":"b732aff0-9eba-4065-bfbe-cef7f4007bf9","lat":40.0277774,"lng":-82.9619821,"name":"COLUMBUS","org":"Bread of Life Choice Pantry (New Salem Baptist)","address":"1880 AGLER RD, COLUMBUS, OH 43224","city":"COLUMBUS","state":"OH","zip":"43224","phone":"614-804-6200","website":"","email":"","description":"A choice food pantry operated by New Salem Baptist Church providing food assistance to community members in Columbus, Ohio."},{"id":"df77f8b8-5d31-44a4-aeb0-c1f811a3e9e9","lat":39.95634,"lng":-82.89343,"name":"COLUMBUS","org":"Victory Ministries Pantry","address":"3964 E MAIN ST, COLUMBUS, OH 43213","city":"COLUMBUS","state":"OH","zip":"43213","phone":"614-252-2500","website":"","email":"","description":"Faith-based food pantry providing food assistance to individuals and families in need"},{"id":"d93b88ec-4549-4989-a0cd-c6cf26c8a601","lat":40.02783,"lng":-83.01646,"name":"COLUMBUS","org":"CRC Clintonville/Beechwold","address":"14 W LAKEVIEW AVE, COLUMBUS, OH 43202","city":"COLUMBUS","state":"OH","zip":"43202","phone":"6142683539","website":"","email":"","description":"Community resource center providing choice pantry food assistance services in the Clintonville/Beechwold area of Columbus, Ohio."},{"id":"100663e5-134d-4d28-930b-40047f1a8676","lat":39.93007,"lng":-83.09989,"name":"COLUMBUS","org":"Garden City Church Pantry","address":"3880 CLIME RD, COLUMBUS, OH 43228","city":"COLUMBUS","state":"OH","zip":"43228","phone":"614-272-6818","website":"","email":"","description":"Food pantry providing prepack pantry services to the community"},{"id":"d5a94681-b674-4f8c-aa62-0304fd1b0cc4","lat":40.0727,"lng":-82.92501,"name":"COLUMBUS","org":"Creekside Christian Pantry","address":"4938 WESTERVILLE RD, COLUMBUS, OH 43231","city":"COLUMBUS","state":"OH","zip":"43231","phone":"614-882-6623","website":"","email":"","description":"Christian food pantry providing prepackaged food assistance to families in need"},{"id":"e967dcb2-4752-4653-a0c1-12901a8d526e","lat":39.99369,"lng":-82.98812,"name":"COLUMBUS","org":"NNEMAP","address":"677 E 11TH AVE, COLUMBUS, OH 43211","city":"COLUMBUS","state":"OH","zip":"43211","phone":"614-297-0533","website":"","email":"","description":"Food pantry providing weekly food assistance to families and individuals in Columbus, Ohio, with limited delivery service for homebound customers."},{"id":"ba6d1b77-81bd-4cdd-a6a3-cac45093a466","lat":39.96886,"lng":-82.96057,"name":"COLUMBUS","org":"St. Philip Lutheran Church Pantry","address":"1506 E LONG ST, COLUMBUS, OH 43203","city":"COLUMBUS","state":"OH","zip":"43203","phone":"6142538745","website":"","email":"","description":"Lutheran church pantry providing prepackaged food assistance to individuals and families in need in the Columbus area."},{"id":"c00a879c-3c9f-445c-9669-614ea422b855","lat":40.0514212,"lng":-82.9783817,"name":"COLUMBUS","org":"Helping Hands Food Pantry-Christian Assembly","address":"4099 KARL RD, COLUMBUS, OH 43224","city":"COLUMBUS","state":"OH","zip":"43224","phone":"614-261-8440","website":"","email":"","description":"Food pantry providing prepack food assistance to community members in need"},{"id":"f3e1d883-5b7f-42eb-be70-2fbd2e261269","lat":40.01757,"lng":-82.85317,"name":"COLUMBUS","org":"St. Matthew Catholic Church","address":"807 HAVENS CORNERS RD, COLUMBUS, OH 43230","city":"COLUMBUS","state":"OH","zip":"43230","phone":"614-471-5320","website":"","email":"","description":"Catholic church providing food pantry services to the community"},{"id":"954075b3-66ab-444a-babc-dd1df1b97b99","lat":40.03188,"lng":-82.9691,"name":"COLUMBUS","org":"St JAMES THE LESS FOOD PANTRY","address":"1652 OAKLAND PARK AVE, COLUMBUS, OH 43224","city":"COLUMBUS","state":"OH","zip":"43224","phone":"6144471074","website":"","email":"","description":"Food pantry providing prepack pantry services with hands-on appointments recommended"},{"id":"73bf0385-d1ae-48d0-b6ea-ea770b1dd817","lat":39.916,"lng":-82.90492,"name":"COLUMBUS","org":"New Birth Christian Ministries Pantry","address":"3475 REFUGEE RD, COLUMBUS, OH 43232","city":"COLUMBUS","state":"OH","zip":"43232","phone":"614-236-9080","website":"","email":"","description":"Christian ministry providing food pantry services to the Columbus community"},{"id":"dd58e69d-3fc9-4116-b357-8b8c101d5098","lat":40.06461,"lng":-82.95221,"name":"COLUMBUS","org":"Northside Food Pantry/Vineyard Church","address":"4664 CLEVELAND AVE, COLUMBUS, OH 43231","city":"COLUMBUS","state":"OH","zip":"43231","phone":"614-361-0356","website":"","email":"","description":"Food pantry operated by Vineyard Church providing choice pantry services to the Columbus community"},{"id":"b6c6dee8-dd8a-44ac-bceb-b50c8440f92f","lat":39.98597,"lng":-82.94629,"name":"COLUMBUS","org":"Total Life Ministries Food Pantry","address":"2260 E 5TH AVE, COLUMBUS, OH 43219","city":"COLUMBUS","state":"OH","zip":"43219","phone":"6142512142","website":"","email":"","description":"Food pantry providing prepack pantry services to the community"},{"id":"fec8f32f-5233-4895-9fc7-151fe81d1254","lat":39.95156,"lng":-83.02714,"name":"COLUMBUS","org":"Lower Lights Community Church Food Pantry","address":"1066 BELLOWS AVE, COLUMBUS, OH 43223","city":"COLUMBUS","state":"OH","zip":"43223","phone":"614-228-1262","website":"","email":"","description":"A community food pantry operated by Lower Lights Community Church providing food assistance services including choice pantry options."},{"id":"3ad72cfe-60d0-425c-bc4a-b514cee6d276","lat":40.01379892,"lng":-82.9684542,"name":"COLUMBUS","org":"ST AUGUSTINE & GABRIEL/ST.VINCENT DEPAUL","address":"1550 E HUDSON ST, COLUMBUS, OH 43211","city":"COLUMBUS","state":"OH","zip":"43211","phone":"614-975-8537","website":"","email":"","description":"Food pantry operated by St. Augustine and Gabriel parishes through St. Vincent de Paul, providing prepackaged food assistance to community members."},{"id":"d4c22003-e6eb-4f55-9044-69789fa27a33","lat":39.9326,"lng":-83.07574,"name":"COLUMBUS","org":"Crossroads UMC Food Pantry","address":"1100 S HAGUE AVE, COLUMBUS, OH 43204","city":"COLUMBUS","state":"OH","zip":"43204","phone":"614-275-0677","website":"","email":"","description":"United Methodist Church food pantry providing choice pantry services to the Columbus community"},{"id":"72c016af-6e0e-4bc1-b836-e7c46819dd8d","lat":39.9846,"lng":-82.91922,"name":"COLUMBUS","org":"Corinthian Missionary Baptist Choice FP","address":"3161 E 5TH AVE, COLUMBUS, OH 43219","city":"COLUMBUS","state":"OH","zip":"43219","phone":"614-371-7627","website":"","email":"","description":"Baptist church offering choice food pantry services to the community"},{"id":"2fdcf2e9-5bd8-4cfa-beb4-255f4097e7ac","lat":39.95597,"lng":-82.96794,"name":"COLUMBUS","org":"Macedonia Baptist Church","address":"492 OAKWOOD AVE, COLUMBUS, OH 43205","city":"COLUMBUS","state":"OH","zip":"43205","phone":"518-598-2419","website":"","email":"","description":"Baptist church providing food assistance and produce distribution services to the Columbus community"},{"id":"b2e00b0b-4eb1-460d-9c9b-5182f142733f","lat":39.96903,"lng":-82.97698,"name":"COLUMBUS","org":"Bread Basket Food Pantry","address":"186 N 17TH ST, COLUMBUS, OH 43203","city":"COLUMBUS","state":"OH","zip":"43203","phone":"614-253-4313","website":"","email":"","description":"Community food pantry providing prepack food assistance to local families and individuals in need."},{"id":"b071b632-e783-4b4a-a768-aa28f21ce22c","lat":39.96048,"lng":-83.01542,"name":"COLUMBUS","org":"Franklin Station Food Pantry","address":"524 W BROAD ST, COLUMBUS, OH 43215","city":"COLUMBUS","state":"OH","zip":"43215","phone":"614-622-1020","website":"","email":"","description":"Community food pantry providing choice-based food assistance to local residents in Columbus, Ohio."},{"id":"d6fb3ab1-1498-463b-901c-1e781f621b78","lat":39.86412,"lng":-82.98329,"name":"COLUMBUS","org":"Leave a Mark Church Food Pantry","address":"4818 PARSONS AVE, COLUMBUS, OH 43207","city":"COLUMBUS","state":"OH","zip":"43207","phone":"614-940-0211","website":"","email":"","description":"Food pantry providing prepackaged food assistance to families in need"},{"id":"0b27e9fc-7f60-4385-8c66-68b0c1bd59a7","lat":40.00325,"lng":-82.99841,"name":"COLUMBUS","org":"Neighborhood Services Inc. (NSI)","address":"1950 N 4TH ST, COLUMBUS, OH 43201","city":"COLUMBUS","state":"OH","zip":"43201","phone":"614-297-0592","website":"","email":"","description":"Community organization providing food pantry services to residents in Columbus, Ohio"},{"id":"a7484a0e-3891-4b2e-acd9-df2d5802e7c8","lat":39.958,"lng":-82.98798,"name":"COLUMBUS","org":"Mt.Olivet Food Pantry","address":"428 E MAIN ST, COLUMBUS, OH 43215","city":"COLUMBUS","state":"OH","zip":"43215","phone":"614-235-7745","website":"","email":"","description":"Food pantry providing prepack pantry services to the Columbus community"},{"id":"63369b2e-0b5b-443b-b9e3-0a26e0a20022","lat":39.93534,"lng":-82.9708,"name":"Champion Pantry Location","org":"Lutheran Social Services Choice Pantry - Franklin","address":"1460 S CHAMPION AVE, COLUMBUS, OH 43206","city":"COLUMBUS","state":"OH","zip":"43206","phone":"614-443-5130","website":"https://www.lssfoodpantries.org","email":"","description":"Lutheran Social Services food pantry providing choice pantry services and fresh produce to the Columbus community."},{"id":"302df1c8-a90c-49ad-b48c-3190eca3681d","lat":40.01917774,"lng":-82.9287181,"name":"Columbus Christian Center Food Pantry Location","org":"Columbus Christian Center Food Pantry","address":"2300 N CASSADY AVE, COLUMBUS, OH 43219","city":"COLUMBUS","state":"OH","zip":"43219","phone":"614-256-5175","website":"","email":"","description":"Food pantry providing choice pantry services to the Columbus community"},{"id":"292a1730-7474-4260-bb9b-e261d889d717","lat":39.91695974,"lng":-82.9046222,"name":"First Church of God Pantry Location","org":"First Church of God","address":"3480 REFUGEE RD, COLUMBUS, OH 43232","city":"COLUMBUS","state":"OH","zip":"43232","phone":"614-338-8338","website":"","email":"","description":"Faith-based organization providing food assistance through pantry services to the Columbus community."},{"id":"c68ebc24-fb39-4541-ae5c-90ab12bf31bf","lat":39.95539,"lng":-83.04595,"name":"Friendship Missionary Baptist Church Main Location","org":"Friendship Missionary Baptist Church","address":"1775 W BROAD ST, COLUMBUS, OH 43223","city":"COLUMBUS","state":"OH","zip":"43223","phone":"614-2790008","website":"","email":"","description":"Baptist church providing food pantry services to the community"},{"id":"49300a91-44e9-4107-88f5-390e7cb87df1","lat":39.95375,"lng":-83.02911,"name":"Gladden Pantry Location","org":"Gladden Pantry","address":"318 S GLENWOOD AVE, COLUMBUS, OH 43223","city":"COLUMBUS","state":"OH","zip":"43223","phone":"614-228-2498","website":"","email":"","description":"Choice pantry providing food assistance to families in Columbus, Ohio. Families may shop once a month and return for fresh produce any day during open hours."},{"id":"7d34dd18-5b15-47dd-9d52-67ee2ab8ec95","lat":39.98545,"lng":-83.05747,"name":"Heart To Heart Pantry","org":"Heart To Heart Pantry","address":"1320 CAMBRIDGE BLVD, COLUMBUS, OH 43212","city":"COLUMBUS","state":"OH","zip":"43212","phone":"614-488-0681 ext 203","website":"","email":"","description":"Community food pantry providing choice-based food assistance to individuals and families in need"},{"id":"175bbca1-6b56-4849-be97-f75ba138acba","lat":39.96332,"lng":-83.08966,"name":"Our Lady of Guadalupe Center","org":"Our Lady of Guadalupe Center","address":"3631 Soldano Blvd, COLUMBUS, OH 43204","city":"COLUMBUS","state":"OH","zip":"43204","phone":"614-340-7061","website":"","email":"","description":"Community center providing food pantry services and emergency food assistance to families in need in the Columbus area."},{"id":"5fb26620-53c8-4a88-b82d-5b65668e8a3c","lat":39.9054048,"lng":-82.9565209,"name":"Produce Market Location","org":"Southside Community Ministries","address":"2935 BULEN AVE, COLUMBUS, OH 43207","city":"COLUMBUS","state":"OH","zip":"43207","phone":"","website":"","email":"","description":"Community organization providing food assistance through choice pantry and produce distribution services in Columbus, Ohio."},{"id":"41d34625-5afd-4f30-aae9-233372925f04","lat":39.93738,"lng":-82.98953,"name":"Southside Community Ministries Main Location","org":"Southside Community Ministries","address":"225 E GATES ST, COLUMBUS, OH 43206","city":"COLUMBUS","state":"OH","zip":"43206","phone":"","website":"","email":"","description":"Community organization providing food assistance through choice pantry and produce distribution services in Columbus, Ohio."},{"id":"c3a30ac3-86bd-4e82-9235-ab07415acde7","lat":39.95189,"lng":-82.97092,"name":"St John's Food Pantry Location","org":"St John's Food Pantry","address":"640 S OHIO AVE, COLUMBUS, OH 43205","city":"COLUMBUS","state":"OH","zip":"43205","phone":"614-252-5926 X108","website":"","email":"","description":"Food pantry providing prepack pantry services to the community"},{"id":"f13f17bb-76bf-48f2-b330-e81d32c9e9d0","lat":39.94212,"lng":-82.88587,"name":"St Philip Catholic Church Pantry Location","org":"St Philip Catholic Church Pantry","address":"1573 ELAINE RD, COLUMBUS, OH 43227","city":"COLUMBUS","state":"OH","zip":"43227","phone":"614-237-1745","website":"","email":"","description":"Catholic church food pantry providing prepack food distribution services to the community"},{"id":"f2abca80-c244-40f0-b7e5-c539281861d8","lat":39.23854,"lng":-81.74317,"name":"Torch - Feed my Sheep Food Pantry","org":"Torch - Feed my Sheep Food Pantry","address":"29023 TORCH RD, COOLVILLE, OH 45723","city":"COOLVILLE","state":"OH","zip":"45723","phone":"740-667-0507","website":"","email":"","description":"Food pantry providing prepackaged food assistance to community members in need"},{"id":"acc365df-cceb-4ff6-8f85-aa7f50f26a0d","lat":40.30107,"lng":-81.83766,"name":"COSHOCTON","org":"Canal Lewisville Church","address":"198 E CHURCH ST, COSHOCTON, OH 43812","city":"COSHOCTON","state":"OH","zip":"43812","phone":"740-502-4468","website":"","email":"","description":"Community church providing fresh produce distribution services to local residents"},{"id":"23223293-c34d-4c84-8e72-2b1709c7de1c","lat":41.639089,"lng":-83.319993,"name":"CURTICE","org":"Jerusalem Township Food Pantry","address":"9501 Jerusalem Road, CURTICE, OH 43412","city":"CURTICE","state":"OH","zip":"43412","phone":"(419)836-1210","website":"","email":"","description":"Food pantry providing emergency food assistance to individuals and families in need"},{"id":"1d5333be-b14f-4853-8a95-8125ed8423e2","lat":39.3514591,"lng":-81.79265538,"name":"3-C Food Pantry Main Location","org":"3-C Food Pantry","address":"4554 Two Mile Run Rd., CUTLER, OH 45724","city":"CUTLER","state":"OH","zip":"45724","phone":"740.516.1707","website":"","email":"","description":"Community food pantry providing food assistance and prepack pantry services to residents of Wesley, Fairfield & Decatur Townships."},{"id":"f025ca39-e0cd-49bc-a47d-996634b5b4ba","lat":41.23899,"lng":-83.645724,"name":"CYGNET","org":"Victory Chapel Fellowship","address":"280 Union St., CYGNET, OH 43416","city":"CYGNET","state":"OH","zip":"43416","phone":"(419)806-9617","website":"","email":"","description":"Faith-based organization providing food pantry services to the community"},{"id":"1ae3f6ff-f907-456e-87d5-70730f3ccaee","lat":40.27092,"lng":-80.99751,"name":"Cadiz","org":"Harcatus Pantry","address":"122 S Main St, Cadiz, OH 43907","city":"Cadiz","state":"OH","zip":"43907","phone":"740-942-8886","website":"","email":"","description":"Food pantry providing choice pantry services to the local community"},{"id":"babcedc2-16c6-4c96-bcaf-72a3e79fecfb","lat":40.26295,"lng":-80.98128,"name":"Cadiz","org":"Cadiz Food Pantry","address":"730 Peppard Ave, Cadiz, OH 43907","city":"Cadiz","state":"OH","zip":"43907","phone":"740-942-4300","website":"","email":"","description":"Food pantry providing emergency food assistance to individuals and families in need in the Cadiz, Ohio community."},{"id":"2819c132-61b5-4e9b-aced-5dd203973d4a","lat":40.27110213,"lng":-80.99777939,"name":"Cadiz","org":"Cadiz Food Pantry","address":"142 E Warren St, Cadiz, OH 43907","city":"Cadiz","state":"OH","zip":"43907","phone":"740-942-4300","website":"","email":"","description":"Food pantry providing emergency food assistance to individuals and families in need in the Cadiz, Ohio community."},{"id":"7abfa504-1492-4cc0-8c23-21e0521f809d","lat":39.85154,"lng":-82.81668,"name":"Canal Winchester Human Services","org":"Canal Winchester Human Services","address":"80 Covenant Way, Canal Winchester, OH 43110","city":"Canal Winchester","state":"OH","zip":"43110","phone":"614-834-4700","website":"","email":"","description":"Human services organization providing food pantry services to the Canal Winchester community"},{"id":"7f9db145-4473-456d-b33d-713b6448f79e","lat":40.7923,"lng":-81.38024,"name":"Canton","org":"Stark County Hunger Task Force","address":"408 9th St SW, Canton, OH 44707","city":"Canton","state":"OH","zip":"44707","phone":"330-455-6667","website":"","email":"","description":"Food pantry organization providing emergency food assistance and choice pantry services to families in need in Stark County, Ohio."},{"id":"a2c8d736-4aba-4be7-8c04-77b91f51437a","lat":40.7984,"lng":-81.3789,"name":"Canton","org":"Community Drop In Center","address":"1492 Cherry Ave SE, Canton, OH 44707","city":"Canton","state":"OH","zip":"44707","phone":"330-456-7692","website":"","email":"","description":"Community organization providing food pantry services to local residents"},{"id":"d62618a6-a67e-4e18-87b7-d68d9c3cb624","lat":40.882563,"lng":-81.346759,"name":"Canton","org":"First Christian Church - Canton","address":"6852 Market Ave N Behind Church, Canton, OH 44721","city":"Canton","state":"OH","zip":"44721","phone":"330-456-2600 X2170","website":"","email":"","description":"Faith-based organization providing food assistance through pantry services to the Canton community."},{"id":"7896b6cf-c395-4cac-b921-56d08da79fd2","lat":40.88263,"lng":-81.36358,"name":"Canton","org":"First Christian Church - Canton","address":"6900 Market Ave N, Canton, OH 44721","city":"Canton","state":"OH","zip":"44721","phone":"330-456-2600 X2170","website":"","email":"","description":"Faith-based organization providing food assistance through pantry services to the Canton community."},{"id":"d35a4f9c-bb9c-4964-876b-f2e13af94ce7","lat":40.79617,"lng":-81.37545,"name":"Canton","org":"The Salvation Army (Canton)","address":"420 Market Ave S, Canton, OH 44702","city":"Canton","state":"OH","zip":"44702","phone":"330-453-0158","website":"","email":"","description":"The Salvation Army location in Canton, Ohio providing food pantry services and meals to the community."},{"id":"a8709d57-4ad0-4178-99c8-7029f992560c","lat":40.78519,"lng":-81.36661,"name":"Canton","org":"Sherrick Road Church of God","address":"1121 Sherrick Rd SE, Canton, OH 44707","city":"Canton","state":"OH","zip":"44707","phone":"330-456-1165","website":"","email":"","description":"Church-based food pantry providing prepackaged food assistance to community members in Canton, Ohio."},{"id":"1b12ddb4-5382-4574-9129-38691a436505","lat":40.49762,"lng":-82.89411,"name":"Cardington","org":"Cardington Food Pantry","address":"128 Flint St, Cardington, OH 43315","city":"Cardington","state":"OH","zip":"43315","phone":"1-419-408-4201","website":"","email":"","description":"Food pantry providing choice pantry services and produce distribution to residents of Morrow County and Cardington Lincoln School District."},{"id":"2cedd76e-758b-4f58-ac3e-670d932d3cd3","lat":39.334888,"lng":-82.99146549999999,"name":"Chillicothe","org":"St. Vincent de Paul Society","address":"285 West Water Street, Chillicothe, OH 45601","city":"Chillicothe","state":"OH","zip":"45601","phone":"(740) 772-2812","website":"","email":"webmaster@stvincentdepaulsantafe.org","description":"St. Vincent de Paul Society"},{"id":"e0735640-ae58-454b-88a0-86b451898881","lat":39.59265,"lng":-82.93792,"name":"Circleville","org":"Emergency Clearing House","address":"722 Clinton St, Circleville, OH 43113","city":"Circleville","state":"OH","zip":"43113","phone":"(740) 412-1538","website":"","email":"","description":"Emergency food assistance organization providing choice pantry services to the community"},{"id":"9d2bbb1c-100e-4396-8b34-cecd52d73ec5","lat":40.0878377,"lng":-82.9907671,"name":"Columbus","org":"mRelief SNAP Screener - Columbus","address":", Columbus, OH UNKNOWN","city":"Columbus","state":"OH","zip":"UNKNOWN","phone":"","website":"https://apply.mrelief.com/screener","email":"","description":"Families need to complete the 2024-25 school meal & summer EBT application to receive summer benefits ($120 per eligible child)- name spelling, address, etc. all need to be up to date and accurate! Summer EBT Outreach Toolkit\"https://sebt.ohio.gov/apply/\nGo to https://apply.mrelief.com/screener or text \"Food\" to 74544 to check eligibility."},{"id":"bdda6a26-51e8-47ad-9e7c-b730c09d6c45","lat":39.9949669,"lng":-82.9796379,"name":"Columbus","org":"Linden Market Pantry","address":"1464 Cleveland Avenue, Columbus, OH 43211","city":"Columbus","state":"OH","zip":"43211","phone":"(614) 298-4192","website":"https://callingallconnectors.org/lindenfreshmarket/","email":"","description":"Households can get food from the Market once a day every day we are open."},{"id":"9cc60090-3e9c-4ee5-bc01-22766121a1ef","lat":39.91696,"lng":-82.90644,"name":"Columbus","org":"First Church of God","address":"3480 Refugee Rd, Columbus, OH 43232","city":"Columbus","state":"OH","zip":"43232","phone":"614-338-8338","website":"","email":"","description":"Faith-based organization providing food assistance through pantry services to the Columbus community."},{"id":"1145200c-c549-4f3c-844d-55386d720ab9","lat":40.07147,"lng":-82.95254,"name":"Columbus","org":"Crossroads Baptist Church/Measure of Manna","address":"5075 Cleveland Ave, Columbus, OH 43231","city":"Columbus","state":"OH","zip":"43231","phone":"614-895-5683","website":"","email":"","description":"Faith-based organization providing food pantry services through their Measure of Manna program."},{"id":"a0b2f289-b14b-4bd7-96b7-7d708cd08413","lat":39.94537,"lng":-82.98253,"name":"Columbus","org":"Salvation Army Southside Pantry","address":"888 Parsons Ave, Columbus, OH 43206","city":"Columbus","state":"OH","zip":"43206","phone":"614-449-8066","website":"","email":"","description":"Food pantry operated by The Salvation Army providing food assistance to families and individuals in need in the Columbus area"},{"id":"fc74a97a-9365-41ca-b8cb-fbf4bcbdb287","lat":39.95998,"lng":-83.01801,"name":"Columbus","org":"Church Triumphant","address":"1001 Vera Place, Columbus, OH 43204","city":"Columbus","state":"OH","zip":"43204","phone":"(614) 272-6256","website":"https://tctoc.org/","email":"","description":"Community church providing food assistance and emergency services to local families"},{"id":"4ee4e04a-3dba-4335-a024-b9d25eaee4df","lat":40.08533,"lng":-82.97552,"name":"Columbus","org":"INPREM Holistic Community Resource Center Food Pantry","address":"5757 Karl Rd, Columbus, OH 43229","city":"Columbus","state":"OH","zip":"43229","phone":"614-516-1812","website":"","email":"","description":"Community resource center providing food assistance including pantry services and fresh produce distribution in Columbus, Ohio."},{"id":"9246c2b1-38ee-4499-9409-2d9029c8a658","lat":39.93031,"lng":-82.96421,"name":"Columbus","org":"Common Ground Food Pantry","address":"2330 Briggs Rd, Columbus, OH 43223","city":"Columbus","state":"OH","zip":"43223","phone":"614-696-4298","website":"","email":"","description":"Food pantry providing choice pantry services to the Columbus, Ohio community"},{"id":"1d80a741-059b-4b5f-8aff-5f2ab6464957","lat":41.10073987,"lng":-84.26595596,"name":"Continental","org":"Circle Of Friends Food Pantry","address":"300 N. Main St, Continental, OH 45831","city":"Continental","state":"OH","zip":"45831","phone":"419-596-3909","website":"","email":"","description":"Food pantry providing prepackaged food assistance to community members"},{"id":"9d269b13-4468-4f32-bf77-0d21d5667239","lat":41.01597,"lng":-81.55551,"name":"Coventry Township","org":"Eagle Ministries Chapel, Inc.","address":"830 Rood Dr, Coventry Township, OH 44319","city":"Coventry Township","state":"OH","zip":"44319","phone":"330-753-5700","website":"","email":"","description":"Community organization providing food pantry services through choice pantry programs in Coventry Township, Ohio."},{"id":"3c8c91fe-0a04-4ef0-ba4c-146e93efb975","lat":40.99943,"lng":-81.55746,"name":"Coventry Township","org":"Lockwood United Methodist Church","address":"3680 Manchester Rd, Coventry Township, OH 44319","city":"Coventry Township","state":"OH","zip":"44319","phone":"330-644-2227","website":"","email":"","description":"United Methodist Church providing food pantry services to the community"},{"id":"6d070e88-c292-4dce-af3e-a9ca33a837d3","lat":41.14993,"lng":-81.47333,"name":"Cuyahoga Falls","org":"United Presbyterian Church Food Pantry","address":"2819 Hudson Dr, Cuyahoga Falls, OH 44221","city":"Cuyahoga Falls","state":"OH","zip":"44221","phone":"330-923-9735","website":"","email":"","description":"Food pantry operated by United Presbyterian Church providing food assistance to residents of Cuyahoga Falls and surrounding areas."},{"id":"b0ac3f9e-63b0-4c5a-a5a4-c6fa144bf599","lat":41.14308,"lng":-81.50815,"name":"Cuyahoga Falls","org":"Harvest Food Pantry","address":"2543 State Rd, Cuyahoga Falls, OH 44223","city":"Cuyahoga Falls","state":"OH","zip":"44223","phone":"330-928-5134","website":"","email":"","description":"Food pantry providing prepack pantry services to the Cuyahoga Falls community"},{"id":"9ed2451d-94a0-48c7-8f10-2555d9b7683e","lat":41.13753,"lng":-81.48473,"name":"Cuyahoga Falls","org":"Cuyahoga Falls Good Neighbors","address":"1742 2nd St, Cuyahoga Falls, OH 44221","city":"Cuyahoga Falls","state":"OH","zip":"44221","phone":"330-928-8057","website":"","email":"","description":"Community food pantry providing food assistance and clothing items to residents of Cuyahoga Falls and surrounding areas"},{"id":"d36b6570-613f-4e75-9381-7294dc7e7271","lat":41.280234,"lng":-84.363058,"name":"DEFIANCE","org":"Catholic Food Pantry","address":"715 Jefferson Avenue, DEFIANCE, OH 43512","city":"DEFIANCE","state":"OH","zip":"43512","phone":"(419)782-2776","website":"https://www.stmarydefiance.com/","email":"","description":"Catholic food pantry providing food assistance to individuals and families in need in the Defiance, Ohio community."},{"id":"e5d6829b-656e-40be-940f-fd91c5a9e13f","lat":41.273602,"lng":-84.347192,"name":"DEFIANCE","org":"Hebron Ministries","address":"1123 Ayersville Avenue, DEFIANCE, OH 43512","city":"DEFIANCE","state":"OH","zip":"43512","phone":"(419)980-0269","website":"","email":"","description":"Faith-based organization providing food assistance services to the community"},{"id":"68149e47-d46f-4df8-a554-95434878bd46","lat":41.28538,"lng":-84.368092,"name":"DEFIANCE","org":"Local Vocal Ministries-New Jerusalem Church","address":"600 Division St., DEFIANCE, OH 43512","city":"DEFIANCE","state":"OH","zip":"43512","phone":"(419)782-1851","website":"","email":"","description":"Community food pantry operated by Local Vocal Ministries-New Jerusalem Church providing food assistance to local residents."},{"id":"d406efc7-9dd9-44c8-baaf-e73dffa45f44","lat":41.281753,"lng":-84.325067,"name":"DEFIANCE","org":"N.W.O. Community Action Commission","address":"1939 E. Second Street, DEFIANCE, OH 43512","city":"DEFIANCE","state":"OH","zip":"43512","phone":"(419)782-6962","website":"https://nocac.org/","email":"","description":"Community action commission providing food assistance services including soup kitchen and food pantry programs to residents of northwestern Ohio."},{"id":"74e0ace4-9722-425f-b676-3ea54f3571b4","lat":41.310092,"lng":-84.379929,"name":"DEFIANCE","org":"Restoration Tabernacle Church","address":"9119 Christy Road, DEFIANCE, OH 43512","city":"DEFIANCE","state":"OH","zip":"43512","phone":"(419)784-2408","website":"","email":"","description":"A church organization that operates a food pantry to serve the local community in Defiance, Ohio."},{"id":"9b25753c-c11f-492f-88cb-c4b1bb301b9e","lat":41.284841,"lng":-84.361891,"name":"DEFIANCE","org":"St. Paul's United - Defiance","address":"400 Wayne Street, DEFIANCE, OH 43512","city":"DEFIANCE","state":"OH","zip":"43512","phone":"(419)782-3751","website":"","email":"","description":"Food pantry providing emergency food assistance to individuals and families in need in the Defiance community."},{"id":"ac6efd5d-1c8e-4a2a-afce-cd9cc704b024","lat":41.294188,"lng":-84.364383,"name":"DEFIANCE","org":"Temple Of Praise Assembly","address":"505 Elbert St., DEFIANCE, OH 43512","city":"DEFIANCE","state":"OH","zip":"43512","phone":"(419)784-6386","website":"","email":"","description":"Religious organization providing food pantry services to the community"},{"id":"48436eb1-e528-4244-b219-c83c8495cb30","lat":40.28575,"lng":-83.06873,"name":"Delaware City Vineyard - FEED Food Pantry","org":"Delaware City Vineyard","address":"32 Troy Rd STE 3, DELAWARE, OH 43015","city":"DELAWARE","state":"OH","zip":"43015","phone":"740-362-6383","website":"https://delawarecityvineyard.org","email":"","description":"Food pantry providing prepack pantry services to the community"},{"id":"9b20d3a8-4bad-4daa-86ae-6b4ce66907dc","lat":40.2904,"lng":-83.07373,"name":"LSS Delaware Location","org":"LSS Delaware","address":"32 Troy Rd., DELAWARE, OH 43015","city":"DELAWARE","state":"OH","zip":"43015","phone":"877-577-6325","website":"","email":"","description":"Food pantry providing choice pantry services with points-based system for families"},{"id":"f103edfb-843a-4dfb-9c8c-da45a66e5084","lat":41.281916,"lng":-84.363472,"name":"Defiance","org":"St. John's Lutheran - Defiance","address":"655 Wayne Avenue, Defiance, OH 43512","city":"Defiance","state":"OH","zip":"43512","phone":"(419)782-5766","website":"","email":"","description":"Lutheran church in Defiance, Ohio providing food pantry services to the local community"},{"id":"1f5d583a-2e52-492c-9fb7-78bf2604b449","lat":40.3076,"lng":-83.05639,"name":"Delaware","org":"Salvation Army Delaware","address":"89 Cheshire St., Delaware, OH 43015","city":"Delaware","state":"OH","zip":"43015","phone":"740-993-0144","website":"","email":"","description":"The Salvation Army providing food pantry services to the Delaware, Ohio community with choice pantry options available by appointment."},{"id":"ea252976-fd0e-4936-b541-72d31bf6ec75","lat":41.572419,"lng":-84.022716,"name":"Delta","org":"Delta Assembly Of God","address":"405 W. Main Street, Delta, OH 43515","city":"Delta","state":"OH","zip":"43515","phone":"(419)822-4975","website":"","email":"","description":"Faith-based organization providing soup kitchen services to the community."},{"id":"7119e29a-4b0c-4fd3-ad37-5ba4b87d5655","lat":40.51842,"lng":-81.4804,"name":"Dover","org":"Greater Dover New Philadelphia Food Pantry","address":"422 W 3rd St, Dover, OH 44622","city":"Dover","state":"OH","zip":"44622","phone":"234-801-8198","website":"","email":"","description":"Food pantry providing choice-based food assistance to individuals and families in the Dover area"},{"id":"de3a0ff6-8dbf-4a7b-b6b4-fedc0d6f837f","lat":39.9546314,"lng":-82.9974008,"name":"Downtown","org":"St John's United Church of Christ  The Largest Table","address":"59 East Mound Street, Downtown, OH 43215","city":"Downtown","state":"OH","zip":"43215","phone":"(614) 224-8634","website":"https://www.stjohnschurchcolumbus.org/the-largest-table.html","email":"","description":"Food pantry service"},{"id":"938ffa36-133d-4052-ae66-ac4c34b4d09f","lat":40.09895,"lng":-83.11599,"name":"Dublin","org":"Dublin Food Pantry","address":"6608 Dublin Center Drive, Dublin, OH 43017","city":"Dublin","state":"OH","zip":"43017","phone":"614-889-6590","website":"","email":"","description":"Food pantry providing choice-based food assistance to families in the Dublin, Ohio area"},{"id":"e848b94e-e854-4572-a456-1ea745d8b244","lat":39.8510081,"lng":-82.12216263,"name":"EAST FULTONHAM","org":"Limestone Valley FP-E. Fultonham UMC","address":"6939 ELM ST, EAST FULTONHAM, OH 43735","city":"EAST FULTONHAM","state":"OH","zip":"43735","phone":"740-849-0156","website":"","email":"","description":"Food pantry operated by East Fultonham United Methodist Church providing prepack pantry services to the local community."},{"id":"d960ac4d-4efc-4be5-a981-bdb3b33805e3","lat":40.56057,"lng":-82.87174,"name":"EDISON","org":"Edison Baptist Church","address":"3055 STATE ROUTE 95, EDISON, OH 43320","city":"EDISON","state":"OH","zip":"43320","phone":"419-947-7231","website":"","email":"","description":"Baptist church providing food pantry services to the community"},{"id":"73173a71-8d82-489c-811b-340930db1143","lat":41.558539,"lng":-84.767662,"name":"EDON","org":"Edon Area Ministerial - E.A.M.A.","address":"301 N. Church Street, EDON, OH 43518","city":"EDON","state":"OH","zip":"43518","phone":"(419)272-3341","website":"","email":"","description":"Community food pantry operated by local ministerial association providing food assistance services to area residents."},{"id":"5ff8649b-1d96-4c62-997b-a389a8f03a3d","lat":39.98480440000001,"lng":-82.8215874,"name":"East Broad","org":"Brice United Methodist Church","address":"Brice Road North, East Broad, OH UNKNOWN","city":"East Broad","state":"OH","zip":"UNKNOWN","phone":"(614) 866-3025","website":"","email":"","description":"Must be in these zip codes: 43068, 43147, 43110, 43109, 43125 and 43207"},{"id":"5c7890ba-7f1c-4383-97a1-e115ab8dd2de","lat":41.15663,"lng":-83.41415,"name":"FOSTORIA","org":"Pantry Plus of Seneca County","address":"115 S MAIN ST, FOSTORIA, OH 44830","city":"FOSTORIA","state":"OH","zip":"44830","phone":"419-619-0183","website":"","email":"","description":"A food pantry organization providing choice pantry services to the Fostoria community in Seneca County, Ohio."},{"id":"ac4d3ae8-1272-4d4b-8c63-100df954e74e","lat":41.362699,"lng":-83.120894,"name":"FREMONT","org":"Bridge Of Hope-Lift Food Pantry","address":"1441 Fangboner Road, FREMONT, OH 43420","city":"FREMONT","state":"OH","zip":"43420","phone":"(419)332-1558","website":"http://www.liftchurches.org/bridge-of-hope.html","email":"","description":"Food pantry providing emergency food assistance to individuals and families in need in the Fremont, Ohio area."},{"id":"c5c4cac0-29f7-4f66-898e-1b80e1db4dee","lat":41.346858,"lng":-83.110387,"name":"FREMONT","org":"Family Worship Center","address":"120 E. State Street, FREMONT, OH 43420","city":"FREMONT","state":"OH","zip":"43420","phone":"970-560-7056","website":"https://careandshare.org/locations/family-worship-center/","email":"","description":"Faith-based organization providing food pantry services to the community"},{"id":"6faba12c-352c-4b8c-8f44-c1e7c8e01c34","lat":41.345278,"lng":-83.112389,"name":"FREMONT","org":"Sandusky County Food Pantry","address":"129 Bidwell Ave., FREMONT, OH 43420","city":"FREMONT","state":"OH","zip":"43420","phone":"(419)334-8158","website":"","email":"","description":"Community food pantry providing food assistance to individuals and families in need in Sandusky County"},{"id":"90d3692e-d067-4f1b-9970-a9855fd7403c","lat":41.673352,"lng":-84.328467,"name":"Fayette","org":"Fayette's Helping Hands","address":"125 W. Main St., Fayette, OH 43521","city":"Fayette","state":"OH","zip":"43521","phone":"(419)357-7457","website":"","email":"","description":"A food pantry organization providing food assistance to the community in Fayette, Ohio."},{"id":"be2ed8ae-a257-478e-9820-6db89c1b9660","lat":41.330594,"lng":-83.069721,"name":"Fremont","org":"Fremont Baptist Temple","address":"1150 South County Road 198, Fremont, OH 43420","city":"Fremont","state":"OH","zip":"43420","phone":"(419)332-7623","website":"","email":"","description":"Faith-based organization providing food pantry services to the Fremont community"},{"id":"8717c3df-e010-49a1-8d99-b90e4b9852da","lat":38.81476,"lng":-82.19346,"name":"First Church of the Nazarene","org":"First Church of the Nazarene","address":"1110 1ST AVE, GALLIPOLIS, OH 45631","city":"GALLIPOLIS","state":"OH","zip":"45631","phone":"740.446.1260","website":"","email":"","description":"A church organization providing food pantry services to the community through prepack pantry programs."},{"id":"cbfbe303-6fad-464b-a590-1bf72bbea1a0","lat":38.81156,"lng":-82.21233,"name":"The Outreach Center Main Location","org":"The Outreach Center","address":"275 STATE, GALLIPOLIS, OH 45631","city":"GALLIPOLIS","state":"OH","zip":"45631","phone":"7404467555","website":"","email":"","description":"Community outreach organization providing food assistance through a prepack pantry program in Gallipolis, Ohio."},{"id":"fc7a4ba2-0df0-485a-81dd-1e4c357a3c2e","lat":39.51277,"lng":-82.04686,"name":"Bishopville Church of Christ Food Pantry","org":"Bishopville Church of Christ Food Pantry","address":"6555 S STATE ROUTE 78, GLOUSTER, OH 45732","city":"GLOUSTER","state":"OH","zip":"45732","phone":"7407672866","website":"","email":"","description":"Food pantry providing prepack food assistance to community members"},{"id":"f09cab56-620a-425e-a492-2e7ab96bdaac","lat":41.548799,"lng":-83.281054,"name":"GRAYTOWN","org":"Elliston Zion UMC - The L.I.G.H.T Pantry","address":"18045 W. William St., GRAYTOWN, OH 43432","city":"GRAYTOWN","state":"OH","zip":"43432","phone":"(419)862-3166","website":"https://www.ellistonzion.com/","email":"","description":"Food pantry operated by Elliston Zion United Methodist Church providing food assistance to the local community."},{"id":"1e09ac42-1705-46c3-8df7-18172c527cad","lat":39.88162,"lng":-83.07623,"name":"Grove City Food Pantry Main Location","org":"Grove City Food Pantry and Emergency Services","address":"2710 COLUMBUS ST, GROVE CITY, OH 43123","city":"GROVE CITY","state":"OH","zip":"43123","phone":"","website":"","email":"","description":"Community food pantry providing emergency food assistance and services to residents in Grove City and surrounding areas."},{"id":"449273aa-8622-4bd5-b5e0-eb129ae17ad7","lat":41.505124,"lng":-82.870932,"name":"GYPSUM","org":"Community Church-Seed Faith Missions","address":"974 S. Lake St., GYPSUM, OH 43433","city":"GYPSUM","state":"OH","zip":"43433","phone":"(419)732-2399","website":"","email":"","description":"Faith-based community organization operating a food pantry to serve local families in need"},{"id":"3bf1a082-0165-47d5-aa12-25558381b0b8","lat":40.02372889999999,"lng":-82.8641311,"name":"Gahanna","org":"Peace Lutheran Church, Gahanna Ohio","address":"455 Clark State Road, Gahanna, OH 43230","city":"Gahanna","state":"OH","zip":"43230","phone":"(614) 337-1000","website":"https://www.peacegahanna.org/service-groups.html","email":"","description":"Peace Lutheran Church food pantry service"},{"id":"16f2f96f-25a5-419b-8f85-229b8a12516c","lat":39.9501932,"lng":-83.1994067,"name":"Galloway","org":"West Broad Church of the Nazarene","address":"7430 West Broad Street, Galloway, OH 43119","city":"Galloway","state":"OH","zip":"43119","phone":"(614) 465-2766","website":"https://westbroadnazarene.org/","email":"","description":"Food service organization: West Broad Church of the Nazarene"},{"id":"ce6b7de5-fba0-42aa-8a0b-6e97b21d08a9","lat":39.93494,"lng":-83.15948,"name":"Galloway","org":"Westland Ecumenical Community Food Pantry","address":"775 Galloway Rd, Galloway, OH 43119","city":"Galloway","state":"OH","zip":"43119","phone":"","website":"","email":"","description":"Community food pantry providing delivery-only food assistance services by appointment through the Westland Ecumenical Community."},{"id":"0ef342b7-a834-4735-9808-07f86629f085","lat":41.2805,"lng":-81.09602,"name":"Garrettsville","org":"Nelson Garrettsville Community Cupboard","address":"8233 Park Ave, Garrettsville, OH 44231","city":"Garrettsville","state":"OH","zip":"44231","phone":"330-527-2011","website":"","email":"","description":"Community food pantry providing choice pantry services and delivery options to residents of Garrettsville and surrounding areas."},{"id":"ed7a0f30-51f3-454e-888c-922ca9a4ea61","lat":39.939027,"lng":-82.274937,"name":"Glenford","org":"Hopewell/Madison Food Pantry","address":"11742 Gower Rd, Glenford, OH 43739","city":"Glenford","state":"OH","zip":"43739","phone":"740-659-1056","website":"","email":"","description":"Food pantry serving Hopewell & Madison Township communities with choice pantry services"},{"id":"f779b14d-e256-4dd6-afa3-e5cce2d16558","lat":40.51997,"lng":-82.09686,"name":"Glenmont","org":"St. John's United Church of Christ - Glenmont Food Pantry","address":"108 Main St, Glenmont, OH 44628","city":"Glenmont","state":"OH","zip":"44628","phone":"330-575-4914","website":"","email":"","description":"Food pantry providing choice pantry services to the community"},{"id":"caad2b23-b826-4388-88fb-6bfabc399a8c","lat":39.8802158,"lng":-83.0565945,"name":"Mid-Ohio Market at Gantz Rd","org":"Mid-Ohio Market at Gantz Rd","address":"4041 Gantz Rd, Grove City, OH 43123","city":"Grove City","state":"OH","zip":"43123","phone":"614-317-9487","website":"","email":"","description":"Food pantry providing choice pantry services to community members in Grove City, Ohio"},{"id":"60e18041-9c60-4bb4-b878-f6bcc6925bc1","lat":39.87714,"lng":-82.88311,"name":"Groveport","org":"Greater Groveport Human Needs Food Pantry","address":"595 Cherry St., Groveport, OH 43125","city":"Groveport","state":"OH","zip":"43125","phone":"614-836-7652","website":"","email":"","description":"A choice food pantry serving the Groveport community with appointment-based food distribution services."},{"id":"edf1298f-5e9c-4b17-b71a-e4a7e222371e","lat":39.16087,"lng":-82.524305,"name":"Hamden Mobile","org":"St. Francis Center","address":"Corner of Buffalo and Railroad streets. Gravel lot of the Village Hall, HAMDEN, OH 45634","city":"HAMDEN","state":"OH","zip":"45634","phone":"7405965820","website":"","email":"info@sfcla.org","description":"Since 1972, St. Francis Center has provided hunger-relief and supportive services to our community. In order to recieve our pantry, you must first register on our website or in person (Fridays 12 - 1 pm)."},{"id":"3ea50e60-a46f-417e-bfd5-5bc742794fc0","lat":41.296081,"lng":-84.749012,"name":"HICKSVILLE","org":"Lifeline Connect Baptist Church","address":"411 Defiance Ave., HICKSVILLE, OH 43526","city":"HICKSVILLE","state":"OH","zip":"43526","phone":"(260)493-2994","website":"","email":"","description":"Baptist church providing food pantry services to the community"},{"id":"997b85e3-0968-4420-8858-707920aa9930","lat":41.296669,"lng":-84.116684,"name":"HOLGATE","org":"St. John's Ucc - Shalom Food Pantry","address":"I-946 State Route 108, HOLGATE, OH 43527","city":"HOLGATE","state":"OH","zip":"43527","phone":"(419)264-4401","website":"","email":"","description":"Food pantry providing food assistance to community members in need"},{"id":"3bbfbec2-b304-4eff-86fb-47804bc95966","lat":40.96821,"lng":-81.34842,"name":"Hartville","org":"Lake Township FISH","address":"1117 Sunnyside St., Hartville, OH 44632","city":"Hartville","state":"OH","zip":"44632","phone":"330-877-1845","website":"","email":"","description":"Community food pantry providing food assistance to local residents in Lake Township and surrounding areas."},{"id":"c472cb35-7c29-4d35-890c-66b92e249144","lat":41.293735,"lng":-84.761932,"name":"Hicksville","org":"Christ's Cupboard Ministries","address":"121 E. High Street, Hicksville, OH 43526","city":"Hicksville","state":"OH","zip":"43526","phone":"(419)487-1324","website":"","email":"","description":"Food pantry ministry providing food assistance to community members in need"},{"id":"9079a564-c67d-442c-a7ae-b0577d8fe6d8","lat":40.03503,"lng":-83.15957,"name":"Hilliard","org":"Hilliard Food Pantry Plus","address":"3691 Main Street At Hilliard United Methodist Church, Warehouse 839, Hilliard, OH 43026","city":"Hilliard","state":"OH","zip":"43026","phone":"","website":"","email":"","description":"Food pantry providing food assistance to families in the Hilliard area"},{"id":"c0483adb-77fc-47c5-8bc4-056743e41211","lat":41.2519,"lng":-84.13289,"name":"Holgate","org":"Blackburn Ministries","address":"300 Kaufman St., Holgate, OH 43527","city":"Holgate","state":"OH","zip":"43527","phone":"(419)599-1896","website":"","email":"","description":"Faith-based organization providing food pantry services to the local community"},{"id":"2abffde5-276f-42a1-90bb-ad253a62c60c","lat":41.624822,"lng":-83.738157,"name":"Holland","org":"The Dwelling Place","address":"8201 Angola Rd., Holland, OH 43528","city":"Holland","state":"OH","zip":"43528","phone":"(419)867-7794","website":"","email":"","description":"Community organization providing food pantry services to residents in Holland, Ohio area"},{"id":"9b076125-53fb-4e04-a2ed-8729f56670ef","lat":41.38806,"lng":-82.53685,"name":"Huron","org":"Huron Helping Hands Food Pantry","address":"820 Cleveland Rd E, Huron, OH 44839","city":"Huron","state":"OH","zip":"44839","phone":"419-433-8889","website":"","email":"","description":"Food pantry providing emergency food assistance and choice pantry services to individuals and families in need."},{"id":"b1397791-a7d3-4486-b968-3419731407d4","lat":38.53719,"lng":-82.68368,"name":"Harvest For The Hungry Main Location","org":"Harvest For The Hungry","address":"101 N 5TH ST, IRONTON, OH 45638","city":"IRONTON","state":"OH","zip":"45638","phone":"740-532-1196","website":"","email":"","description":"Food pantry providing prepack food assistance to community members in need"},{"id":"2408ab15-62fa-489f-8556-25868b075317","lat":38.5369738,"lng":-82.68393585,"name":"Harvest for the Hungry Distribution Site","org":"Harvest For The Hungry","address":"120 N 5TH ST, IRONTON, OH 45638","city":"IRONTON","state":"OH","zip":"45638","phone":"740-532-1196","website":"","email":"","description":"Food pantry providing prepack food assistance to community members in need"},{"id":"13d00702-427f-4205-bd94-e0b56b007639","lat":0.0,"lng":0.0,"name":"Agape Distribution Location","org":"Agape Distribution","address":"44 Savageville Road, JACKSON, OH 45640","city":"JACKSON","state":"OH","zip":"45640","phone":"7409884171","website":"","email":"","description":"Food distribution organization providing choice pantry services to the community"},{"id":"2d1e3ace-1957-4677-a260-c2ab340a0fc7","lat":39.05521332,"lng":-82.7253047,"name":"Pantry Service Location","org":"Jesus in the Hills, LLC","address":"12400 BEAVER PIKE, JACKSON, OH 45640","city":"JACKSON","state":"OH","zip":"45640","phone":"7409884171","website":"","email":"","description":"Community organization providing food assistance through pantry services in Jackson, Ohio"},{"id":"d1a44cc4-4bed-4e87-8987-4341b0cb7018","lat":39.0515459,"lng":-82.6361638,"name":"The Food Program and Clothesline of Jackson","org":"The Food Program and Clothesline of Jackson","address":"323 E. Broadway St., JACKSON, OH 45640","city":"JACKSON","state":"OH","zip":"45640","phone":"7402865937","website":"","email":"","description":"Food assistance program providing pantry services and clothing assistance to the Jackson, Ohio community"},{"id":"8f3ebb05-6308-419a-be1f-33f000649f43","lat":39.04634,"lng":-82.6309,"name":"Jackson","org":"The Food Program and Clothesline of Jackson","address":"323 E. Broadway St., Jackson, OH 45640","city":"Jackson","state":"OH","zip":"45640","phone":"7402865937","website":"","email":"","description":"Food assistance program providing pantry services and clothing assistance to the Jackson, Ohio community"},{"id":"029d1e78-651d-4986-93e0-d87645c5f286","lat":39.43845,"lng":-82.87418,"name":"KINGSTON","org":"Church Triumphant","address":"4496 STATE ROUTE 180, KINGSTON, OH 45644","city":"KINGSTON","state":"OH","zip":"45644","phone":"(614) 272-6256","website":"https://tctoc.org/","email":"","description":"Community church providing food assistance and emergency services to local families"},{"id":"24c26317-f194-47ce-b17d-7d7187a36559","lat":41.14755,"lng":-81.3588,"name":"Kent","org":"The Lord's Pantry at Trinity Lutheran Church","address":"600 S Water St, Kent, OH 44240","city":"Kent","state":"OH","zip":"44240","phone":"330-673-5445","website":"","email":"","description":"Community food assistance program providing choice pantry services and meals through Trinity Lutheran Church"},{"id":"5f8c1ab2-2758-499f-a32b-9f927893a1c3","lat":41.14375,"lng":-81.3589,"name":"Kent","org":"Kent Social Services","address":"1066 S Water St, Kent, OH 44240","city":"Kent","state":"OH","zip":"44240","phone":"330-673-6963","website":"","email":"","description":"Social services organization providing food pantry and meal services to the Kent, Ohio community"},{"id":"2af70b39-475e-4d3e-b65c-e33112ff66be","lat":41.16766,"lng":-81.38953,"name":"Kent","org":"Riverwood Community Chapel","address":"1407 Fairchild Ave, Kent, OH 44240","city":"Kent","state":"OH","zip":"44240","phone":"330-678-7000","website":"","email":"","description":"Community chapel providing food pantry services including prepack pantry distribution."},{"id":"f6bfa4ff-4457-4fac-b116-839b54579e54","lat":39.9738032,"lng":-82.9631797,"name":"King-Lincoln Bronzeville","org":"Alumni Chapter of Kappa Alpha Psi Fraternity, Inc.","address":"1461 Mount Vernon Avenue, King-Lincoln Bronzeville, OH 43203","city":"King-Lincoln Bronzeville","state":"OH","zip":"43203","phone":"","website":"https://kappacolumbusalumni.com/chapter.html","email":"","description":"Food service organization: Alumni Chapter of Kappa Alpha Psi Fraternity, Inc."},{"id":"3a75ac6e-a207-484e-9d28-cc631098f3f6","lat":39.9707407,"lng":-82.9825644,"name":"King-Lincoln Bronzeville","org":"Shiloh Baptist Church","address":"720 Mount Vernon Avenue, King-Lincoln Bronzeville, OH 43203","city":"King-Lincoln Bronzeville","state":"OH","zip":"43203","phone":"(614) 253-7946","website":"","email":"","description":"Food pantry services"},{"id":"873a2cea-0ca1-4edd-812c-a4193b51c6b3","lat":39.71469,"lng":-82.56536,"name":"LANCASTER","org":"Lancaster Fairfield CAA","address":"1743 E MAIN ST, LANCASTER, OH 43130","city":"LANCASTER","state":"OH","zip":"43130","phone":"740-653-4146","website":"","email":"","description":"Community Action Agency providing food pantry services to the Lancaster, Ohio community"},{"id":"6a094415-37c4-40a5-bb3e-078209cbbf16","lat":39.71527,"lng":-82.60943,"name":"LANCASTER","org":"Lancaster Vineyard Food Pantry","address":"423 W WHEELING ST, LANCASTER, OH 43130","city":"LANCASTER","state":"OH","zip":"43130","phone":"740-654-0964","website":"","email":"","description":"Community food pantry providing choice pantry services to individuals and families in need"},{"id":"e9a17a6b-8a48-414b-97da-4186589024eb","lat":39.70956,"lng":-82.59496,"name":"LANCASTER","org":"St. Vincent depaul Society- Lancaster","address":"424 E LOCUST ST, LANCASTER, OH 43130","city":"LANCASTER","state":"OH","zip":"43130","phone":"740-653-6037","website":"","email":"","description":"Catholic charity organization providing food assistance and social services to individuals and families in need in Lancaster, Ohio."},{"id":"0a993c41-40f2-4ea7-924f-453b5733c5a3","lat":39.69956,"lng":-82.60343,"name":"LANCASTER","org":"Maywood Mission Pantry","address":"1025 S BROAD ST, LANCASTER, OH 43130","city":"LANCASTER","state":"OH","zip":"43130","phone":"740-901-3027","website":"","email":"","description":"Community food pantry providing prepack food assistance to families and individuals in need"},{"id":"aa70b46b-6ceb-4370-aa4e-eb726057a707","lat":39.71569,"lng":-82.55336,"name":"LSS Lancaster","org":"LSS Fairfield County Food Pantry","address":"2045 E MAIN ST, LANCASTER, OH 43130","city":"LANCASTER","state":"OH","zip":"43130","phone":"740-687-5130","website":"","email":"","description":"Food pantry providing choice pantry services with full shop-through and produce-only options"},{"id":"0c743e48-f55f-4984-9fcd-b915f5b46b49","lat":39.69744,"lng":-82.63943,"name":"New Hope Assembly of God Food Pantry Location","org":"New Hope Assembly of God Food Pantry","address":"2020 CINCINNATI ZANESVILLE RD SW, LANCASTER, OH 43130","city":"LANCASTER","state":"OH","zip":"43130","phone":"740-687-3553","website":"","email":"","description":"Food pantry providing choice pantry services to the Lancaster community"},{"id":"ae26dbd6-9a0e-49f0-802c-a300b91b76e2","lat":39.71239,"lng":-82.63162,"name":"St. Mary/St. Mark Pantry","org":"St. Mary/St. Mark Pantry","address":"331 GAY ST, LANCASTER, OH 43130","city":"LANCASTER","state":"OH","zip":"43130","phone":"740-681-9634","website":"","email":"","description":"A choice pantry providing food assistance to community members. Customers can shop once a month with walk-in service available."},{"id":"4f2b1acd-ec5f-4f66-9f4a-dcf8802c45c1","lat":39.46856,"lng":-82.73732,"name":"Laurelville Food Pantry Main Location","org":"Laurelville Community Food Pantry Inc.","address":"16138 PIKE ST, LAURELVILLE, OH 43135","city":"LAURELVILLE","state":"OH","zip":"43135","phone":"740-332-6516","website":"","email":"","description":"Community food pantry providing emergency food assistance through weekly food distribution events in Laurelville, Ohio."},{"id":"cdbe1fbc-bb4d-4751-98a8-189ebfe642fd","lat":41.09984,"lng":-83.987,"name":"LEIPSIC","org":"Leipsic Food Pantry","address":"7 W MAIN ST, LEIPSIC, OH 45856","city":"LEIPSIC","state":"OH","zip":"45856","phone":"419-538-6737","website":"","email":"","description":"Community food pantry providing choice pantry services to residents in need"},{"id":"d6037b34-f7b8-441d-a442-4ceebc356f85","lat":40.74161,"lng":-84.08028,"name":"In Faith Ministries Food Pantry Location","org":"In Faith Ministries Food Pantry","address":"1575 E HIGH ST, LIMA, OH 45804","city":"LIMA","state":"OH","zip":"45804","phone":"419225-8871","website":"","email":"","description":"Food pantry ministry providing prepack food assistance to community members in Lima, Ohio."},{"id":"a3a5e775-d7e4-46a5-8b8b-c4fbf7a105a0","lat":40.73272,"lng":-84.10539,"name":"LIMA","org":"St. Vincent Depaul Food Pantry","address":"928 S Main Street, LIMA, OH 45801","city":"LIMA","state":"OH","zip":"45801","phone":"419-979-9638","website":"","email":"","description":"Food pantry providing prepack food assistance to community members"},{"id":"a9ed851c-cf06-4783-ae80-410221798c6f","lat":39.54307,"lng":-82.40857,"name":"LOGAN","org":"St. Vincent de Paul (Logan)","address":"351 N MARKET ST, LOGAN, OH 43138","city":"LOGAN","state":"OH","zip":"43138","phone":"740-385-2549","website":"","email":"","description":"Catholic charitable organization providing food assistance through a prepack pantry to families in need in Logan, Ohio."},{"id":"898a1e99-e7a3-4845-9e17-85d2427cedee","lat":39.53569,"lng":-82.39155,"name":"SE Ohio Foodbank Main Location","org":"SE Ohio Foodbank","address":"1005 C I C DR, LOGAN, OH 43138","city":"LOGAN","state":"OH","zip":"43138","phone":"740-385-6813","website":"","email":"","description":"Food bank providing emergency food assistance and mobile market services to residents in southeastern Ohio"},{"id":"221a29c9-9620-41cd-b5db-a9bec2963eed","lat":39.53342,"lng":-82.38629,"name":"Smith Chapel Food and Clothing Mission","org":"Smith Chapel Food and Clothing Mission","address":"1333 E FRONT ST, LOGAN, OH 43138","city":"LOGAN","state":"OH","zip":"43138","phone":"740-380-6132","website":"","email":"","description":"Food pantry and clothing mission serving the Logan, OH community"},{"id":"c676a88b-0712-4cd5-8d47-3da82d8cebdc","lat":39.88471,"lng":-83.4397,"name":"LONDON","org":"H.E.L.P. House","address":"122 E CENTER ST, LONDON, OH 43140","city":"LONDON","state":"OH","zip":"43140","phone":"740-852-1980","website":"","email":"","description":"Community food pantry providing food assistance through choice pantry services"},{"id":"41dbecd9-85d3-414f-b33b-c4aaae394a94","lat":39.08407804,"lng":-81.76590886,"name":"Monthly Giveaway Location","org":"Golden Harvest","address":"54120 FELLOWSHIP DR, LONG BOTTOM, OH 45743","city":"LONG BOTTOM","state":"OH","zip":"45743","phone":"7403786447","website":"","email":"","description":"Food pantry organization providing monthly food assistance through prepack pantry services in the Reedsville, Ohio area."},{"id":"f067b964-096f-4ca7-8db4-94ea6e7bac17","lat":41.42306,"lng":-82.28148,"name":"LORAIN","org":"Second Harvest Food Bank of NCO- LORAIN CO","address":"5510 BAUMHART RD, LORAIN, OH 44053","city":"LORAIN","state":"OH","zip":"44053","phone":"440.960.2265","website":"","email":"","description":"Food bank serving Lorain County, Ohio, providing emergency food assistance and grocery distributions to income-eligible families."},{"id":"40dbab4d-b905-4aaa-aed8-05ae61e6c474","lat":41.45939565,"lng":-82.16833489,"name":"LORAIN","org":"Second Harvest Food Bank of NCO- LORAIN CO","address":"421 BLACK RIVER RD, LORAIN, OH 44052","city":"LORAIN","state":"OH","zip":"44052","phone":"440.960.2265","website":"","email":"","description":"Food bank serving Lorain County, Ohio, providing emergency food assistance and grocery distributions to income-eligible families."},{"id":"b6078c37-c2e6-4be7-a3a9-7f29c554a3da","lat":41.4444714,"lng":-82.14135183,"name":"LORAIN","org":"We Care We Share","address":"1888 E.31st, LORAIN, OH 44055","city":"LORAIN","state":"OH","zip":"44055","phone":"440-714-2690","website":"","email":"","description":"Community food pantry providing prepackaged food assistance to families in need in the Lorain, Ohio area."},{"id":"76b17625-40b0-4a9a-bbe0-65be310f89f6","lat":39.56123466,"lng":-81.3971455,"name":"LOWER SALEM","org":"Tri-County Food Pantry","address":"101 Main Street, LOWER SALEM, OH 45745","city":"LOWER SALEM","state":"OH","zip":"45745","phone":"740-585-2143","website":"","email":"","description":"Food pantry providing prepackaged food assistance to community members in need"},{"id":"28c5879f-9b54-4c45-97a2-9a6aa3598c5c","lat":39.71441,"lng":-82.56793,"name":"Lancaster","org":"Victory Center Lancaster Pantry","address":"625 Garfield Ave, Lancaster, OH 43130","city":"Lancaster","state":"OH","zip":"43130","phone":"740-756-7563","website":"","email":"","description":"Community food pantry providing choice-based food distribution services in Lancaster, Ohio."},{"id":"b2d6982f-09a8-4ee8-93d9-79d61c80a10d","lat":39.9422425,"lng":-82.88639239999999,"name":"Leawood","org":"St. Philip the Apostle Catholic Church","address":"1573 Elaine Road, Leawood, OH 43227","city":"Leawood","state":"OH","zip":"43227","phone":"(614) 237-1745","website":"","email":"","description":"Residents of 43227, 43232 or 43213"},{"id":"6406322c-2e6d-4208-a8d3-95bd21389c0d","lat":39.76408194,"lng":-81.2173979,"name":"Lewisville","org":"Lewisville Community Center Food Pantry","address":"33261 Back Street, Lewisville, OH 43754","city":"Lewisville","state":"OH","zip":"43754","phone":"740-567-4106","website":"","email":"","description":"Community food pantry providing choice pantry services and fresh produce distribution to families in need"},{"id":"ba4b811b-4920-44ef-a635-12a558069bce","lat":40.73957,"lng":-84.10928,"name":"Lima","org":"C.U.P. Food Pantry","address":"129 S Pierce St, Lima, OH 45801","city":"Lima","state":"OH","zip":"45801","phone":"419-221-3243","website":"","email":"","description":"Choice pantry food assistance program providing food distribution services to the community in Lima, Ohio."},{"id":"80ee03f6-366f-4676-803a-26e62ebea4d9","lat":41.03339,"lng":-82.00768,"name":"Lodi","org":"Lodi Family Center","address":"301 Mill St, Lodi, OH 44254","city":"Lodi","state":"OH","zip":"44254","phone":"330-302-4182","website":"","email":"","description":"Community organization providing food pantry and meal services to families in Lodi, Ohio"},{"id":"90884b38-9631-4d3e-9f28-dcf29845ad35","lat":39.88675,"lng":-83.43835,"name":"London","org":"Madison County Food Pantry","address":"125 S. Oak Street, London, OH 43140","city":"London","state":"OH","zip":"43140","phone":"740-852-5822","website":"","email":"","description":"Food service organization: Madison County Food Pantry"},{"id":"74d3bcdd-3949-4909-8c18-eaf20679b5ab","lat":39.64711,"lng":-81.85975,"name":"Event Location","org":"Morgan County United Ministries Food Pantry","address":"401 FRONT ST NW, MALTA, OH 43758","city":"MALTA","state":"OH","zip":"43758","phone":"7409622679","website":"","email":"","description":"Food pantry providing prepackaged food assistance to community members in Morgan County, Ohio"},{"id":"9e7c926d-e961-4059-8165-2c30b8b87ec2","lat":40.40240343,"lng":-82.81073068,"name":"MARENGO","org":"Angel Food Pantry","address":"8 N MAIN ST, MARENGO, OH 43334","city":"MARENGO","state":"OH","zip":"43334","phone":"419-253-5642","website":"","email":"","description":"Community food pantry providing food assistance to individuals and families in need in the Marengo, Ohio area."},{"id":"890bbc2d-64d5-44da-aaa0-d68fb497f528","lat":39.42529,"lng":-81.43634,"name":"MARIETTA","org":"Marietta Church of God","address":"501 COLEGATE DR, MARIETTA, OH 45750","city":"MARIETTA","state":"OH","zip":"45750","phone":"740-374-9910","website":"","email":"","description":"Church organization providing food pantry services to the community within a 25-minute radius"},{"id":"332e84e0-1039-456e-97ae-7f1b5cb2e007","lat":40.59415,"lng":-83.12875,"name":"MARION","org":"St.Vincent de Paul-Marion","address":"342 N MAIN ST, MARION, OH 43302","city":"MARION","state":"OH","zip":"43302","phone":"740-386-6422","website":"","email":"","description":"St. Vincent de Paul food pantry serving the Marion community with scheduled food distribution services"},{"id":"ca2d2242-64b2-4072-9b87-43797e51dd06","lat":40.5856,"lng":-83.30594,"name":"MARION","org":"Johnson/Rudd Community Pantry","address":"6342 MARION AGOSTA RD, MARION, OH 43302","city":"MARION","state":"OH","zip":"43302","phone":"","website":"","email":"","description":"Community pantry providing food assistance through choice pantry and mobile market services in Marion, Ohio."},{"id":"f651508a-2480-40be-ad7e-8291c2d91e37","lat":40.5862514,"lng":-83.2987785,"name":"MARION","org":"Johnson/Rudd Community Pantry","address":"3200 Smeltzer Rd, MARION, OH 43302","city":"MARION","state":"OH","zip":"43302","phone":"","website":"","email":"","description":"Community pantry providing food assistance through choice pantry and mobile market services in Marion, Ohio."},{"id":"dce5766f-5d2f-485a-8ff1-a3c18320262f","lat":40.58591,"lng":-83.13766,"name":"MARION","org":"Life Link Food Pantry","address":"248 OLNEY AVE, MARION, OH 43302","city":"MARION","state":"OH","zip":"43302","phone":"740-789-0703","website":"","email":"","description":"Food pantry providing choice pantry services to the community in Marion, Ohio."},{"id":"e6c412e3-c507-45e9-8f77-4a6b5575bf71","lat":40.09552,"lng":-80.7248,"name":"The Daily Bread Center","org":"The Daily Bread Center","address":"100 N Zane Hwy, MARTINS FERRY, OH 43935","city":"MARTINS FERRY","state":"OH","zip":"43935","phone":"7406093063","website":"","email":"","description":"Food assistance organization providing choice pantry and produce market services to the community"},{"id":"e77ef513-2a6c-4cc5-844d-5ed4b7d5fa39","lat":40.23351,"lng":-83.37155,"name":"MARYSVILLE","org":"Marysville Food Pantry","address":"333 ASH ST, MARYSVILLE, OH 43040","city":"MARYSVILLE","state":"OH","zip":"43040","phone":"937-644-3248","website":"","email":"","description":"Food pantry providing food assistance to community members in Marysville, Ohio. Customers can visit once a month."},{"id":"2e94ad07-3660-48d2-b945-913a9f8a42af","lat":41.562028,"lng":-83.652831,"name":"MAUMEE","org":"St. Paul's Lutheran-Maumee","address":"112 E. Wayne St., MAUMEE, OH 43537","city":"MAUMEE","state":"OH","zip":"43537","phone":"(419)893-0205","website":"","email":"","description":"A Lutheran church in Maumee providing food pantry services to the community"},{"id":"6551e651-3271-410a-9ce2-8e2a82cf4aff","lat":39.24433,"lng":-82.48418,"name":"St. Francis Center - Main Location","org":"St. Francis Center","address":"404 W SOUTH ST, MC ARTHUR, OH 45651","city":"MC ARTHUR","state":"OH","zip":"45651","phone":"7405965820","website":"","email":"info@sfcla.org","description":"Since 1972, St. Francis Center has provided hunger-relief and supportive services to our community. In order to recieve our pantry, you must first register on our website or in person (Fridays 12 - 1 pm)."},{"id":"d7f1a808-03b8-442d-ab7d-111300e865ed","lat":41.711431,"lng":-83.910041,"name":"METAMORA","org":"Metamora U.M.C","address":"116 E. Main St., METAMORA, OH 43540","city":"METAMORA","state":"OH","zip":"43540","phone":"(419)344-7280","website":"","email":"","description":"United Methodist Church providing food pantry services to the Metamora community"},{"id":"f80dde1e-40d8-45df-8c19-eecc9298d5dc","lat":39.90056,"lng":-82.53809,"name":"Millersport Community Food Pantry","org":"Millersport Community Food Pantry","address":"2315 WEAKLY AVE, MILLERSPORT, OH 43046","city":"MILLERSPORT","state":"OH","zip":"43046","phone":"","website":"","email":"","description":"Community food pantry providing food assistance to residents of Walnut Township and surrounding areas in Millersport, Ohio."},{"id":"5bae7c5f-ed09-4f51-8692-350adeee591b","lat":39.42704,"lng":-82.080598,"name":"Amesville Presbyterian","org":"Athens County Food Pantry","address":"Athens County Jobs and Family Services 13183 OH-13, MILLFIELD, OH 45761","city":"MILLFIELD","state":"OH","zip":"45761","phone":"800-338-4484","website":"","email":"","description":"Food pantry providing emergency food assistance to individuals and families in Athens County, Ohio."},{"id":"5a91b88c-067d-4321-83d3-53905bb1bace","lat":41.585623,"lng":-84.610186,"name":"MONTPELIER","org":"Hands Helping Hands Food Pantry","address":"309 W. Washington Street, MONTPELIER, OH 43543","city":"MONTPELIER","state":"OH","zip":"43543","phone":"(419)485-5575","website":"","email":"","description":"Community food pantry providing food assistance to individuals and families in need"},{"id":"dce90f11-b998-43c2-be97-7144c92a8ad9","lat":41.685097,"lng":-84.713021,"name":"MONTPELIER","org":"Nettle Lake Church","address":"18422 County Road 5-75, MONTPELIER, OH 43543","city":"MONTPELIER","state":"OH","zip":"43543","phone":"(419)459-4348","website":"https://www.facebook.com/profile.php?id=100068929664919&fref=ts","email":"","description":"Community church providing food pantry services to residents in the Montpelier area"},{"id":"bedc188c-5ee8-4f3b-b52f-9640f047561d","lat":40.54909,"lng":-82.84832,"name":"MOUNT GILEAD","org":"Morrow County Food Pantry","address":"619 W MARION RD, MOUNT GILEAD, OH 43338","city":"MOUNT GILEAD","state":"OH","zip":"43338","phone":"419-946-2620","website":"","email":"","description":"Food pantry providing emergency food assistance to residents of Morrow County, Ohio. Customers can visit once per month with emergency services available during extended hours."},{"id":"fa3c5f39-2e6f-436b-ad4f-385559b656e3","lat":39.72198,"lng":-83.26308,"name":"MOUNT STERLING","org":"Mt. Sterling Community Food Pantry","address":"164 E MAIN ST, MOUNT STERLING, OH 43143","city":"MOUNT STERLING","state":"OH","zip":"43143","phone":"740-869-2453","website":"","email":"","description":"Community food pantry providing food assistance through prepack pantry services to individuals and families in the Mount Sterling, Ohio area."},{"id":"b0039ee9-fdc3-4cb8-acaa-a8aee61fa585","lat":40.41178,"lng":-82.47027,"name":"MOUNT VERNON","org":"ACTS Community Center","address":"474 WOOSTER RD, MOUNT VERNON, OH 43050","city":"MOUNT VERNON","state":"OH","zip":"43050","phone":"7403971065","website":"","email":"","description":"Community center providing food pantry services including choice pantry options for local residents."},{"id":"44c7182f-8f77-4b75-99e8-5e3a19db1fb3","lat":40.34495368,"lng":-82.46965844,"name":"MOUNT VERNON","org":"Church on the Rise Food Pantry","address":"7512 Newark RD, MOUNT VERNON, OH 43050","city":"MOUNT VERNON","state":"OH","zip":"43050","phone":"740-397-9022","website":"","email":"","description":"Food pantry providing emergency food assistance to families in need"},{"id":"7bcdce01-48b9-42b6-a85a-2af6070cee91","lat":40.39855,"lng":-82.46331,"name":"MOUNT VERNON","org":"Father's Pantry","address":"723 COSHOCTON AVE, MOUNT VERNON, OH 43050","city":"MOUNT VERNON","state":"OH","zip":"43050","phone":"740-392-8466","website":"","email":"","description":"A food pantry providing prepackaged food assistance to community members in need."},{"id":"3ac9ecf6-1731-4536-8de4-85250287de95","lat":39.355999,"lng":-84.317398,"name":"Mason","org":"Mason Food Pantry","address":"406 4th Ave, Mason, OH 45040","city":"Mason","state":"OH","zip":"45040","phone":"(513) 229-3191","website":"www.masonfoodpantry.org","email":"","description":"Mason Food Pantry"},{"id":"a2fe25e3-d25c-41de-8d9d-2aefa38d1d09","lat":40.79998,"lng":-81.52042,"name":"Massillon","org":"SVDP /St. Joseph's Catholic Church","address":"322 3rd St SE, Massillon, OH 44646","city":"Massillon","state":"OH","zip":"44646","phone":"330-832-5858","website":"","email":"","description":"Catholic church providing food pantry and meal services through the Society of St. Vincent de Paul"},{"id":"a0b9e9ae-1444-4faf-a072-258fbaae1c9f","lat":41.563472,"lng":-83.649851,"name":"Maumee","org":"St. Paul's Episcopal Church","address":"310 Elizabeth St., Maumee, OH 43537","city":"Maumee","state":"OH","zip":"43537","phone":"(419)794-0111","website":"","email":"","description":"Episcopal church providing food pantry services to the community"},{"id":"e59d256f-03f5-45fa-961f-1621e68ab918","lat":41.16746,"lng":-81.92386,"name":"Medina","org":"York United Methodist Church","address":"6566 Norwalk Rd, Medina, OH 44256","city":"Medina","state":"OH","zip":"44256","phone":"330-725-8147","website":"","email":"","description":"United Methodist Church providing food pantry services to the community"},{"id":"348ffdd8-9fae-431b-a59c-345e58315fa5","lat":41.10491,"lng":-81.93148,"name":"Medina","org":"Lafayette United Methodist Church","address":"6201 Lafayette Rd, Medina, OH 44256","city":"Medina","state":"OH","zip":"44256","phone":"330-725-6176","website":"","email":"","description":"Methodist church providing food pantry services to the community through choice pantry programs."},{"id":"df8c5566-de7d-479a-830f-f0ab4c6fcb39","lat":41.1732864,"lng":-81.8586454,"name":"Medina","org":"Helping Hands Ministry","address":"3721 Pearl Rd., Medina, OH 44256","city":"Medina","state":"OH","zip":"44256","phone":"330-336-4622","website":"","email":"","description":"Community food assistance organization providing choice pantry services to families in need"},{"id":"9d6c51ab-eb95-45e6-b11c-3f3f64e31514","lat":40.5671444,"lng":-81.9031856,"name":"Millersburg","org":"Love Center Food Pantry","address":"1291 Massillon Rd #A, Millersburg, OH 44654","city":"Millersburg","state":"OH","zip":"44654","phone":"330-674-2504","website":"","email":"","description":"Food pantry providing choice pantry services to the community with regular distribution hours Monday, Wednesday, and Friday afternoons. Currently operating as a drive-through program."},{"id":"27324038-1abf-4a1a-a101-0a7111b6c450","lat":40.72782,"lng":-81.09695,"name":"Minerva","org":"Minerva Community Outreach","address":"515 E Line St, Minerva, OH 44657","city":"Minerva","state":"OH","zip":"44657","phone":"330-686-4918","website":"","email":"","description":"Community organization providing food assistance through pantry services and direct distribution to residents in need."},{"id":"6e3911a4-f586-484a-8bee-7f092f48f0ba","lat":40.7293843,"lng":-81.1046978,"name":"Minerva Methodist Church","org":"Minerva Methodist Church","address":"204 N Main St, Minerva, OH 44657","city":"Minerva","state":"OH","zip":"44657","phone":"330-868-4940","website":"","email":"","description":"Methodist church providing food assistance through pantry services to the local community"},{"id":"b2e70bae-58eb-4371-88ce-39ce4da68f92","lat":41.456431,"lng":-84.174074,"name":"NAPOLEON","org":"St. John's Lutheran - Napoleon","address":"16035 County Road U, NAPOLEON, OH 43545","city":"NAPOLEON","state":"OH","zip":"43545","phone":"(419)598-8961","website":"","email":"","description":"Lutheran church in Napoleon, Ohio providing food pantry services to the local community"},{"id":"dc85eb87-7110-4e1e-8da2-0f63eb744bc5","lat":39.45646,"lng":-82.22736,"name":"Mary Hill Center","org":"The Nelsonville Food Cupboard","address":"Mary Hill Center 1950 Mount Saint Marys Drive, NELSONVILLE, OH 45764","city":"NELSONVILLE","state":"OH","zip":"45764","phone":"740.753.2034","website":"","email":"","description":"Community food pantry providing emergency food assistance through prepack pantry services in Nelsonville, Ohio."},{"id":"b58107da-4cfa-4d57-bc16-6abf77aaa455","lat":39.603478,"lng":-81.082854,"name":"New Matamoras Food Pantry","org":"New Matamoras Food Pantry","address":"100 Stover Drive, NEW MATAMORAS, OH 45767","city":"NEW MATAMORAS","state":"OH","zip":"45767","phone":"740-568-8679","website":"","email":"","description":"Community food pantry serving the New Matamoras area with prepack food assistance"},{"id":"f6e6ad74-3de7-4f51-8eac-8b34941d8956","lat":39.40993,"lng":-82.358584,"name":"New Plymouth Mobile","org":"St. Francis Center","address":"Brown Twp Service Building, NEW PLYMOUTH, OH 45654","city":"NEW PLYMOUTH","state":"OH","zip":"45654","phone":"7405965820","website":"","email":"info@sfcla.org","description":"Since 1972, St. Francis Center has provided hunger-relief and supportive services to our community. In order to recieve our pantry, you must first register on our website or in person (Fridays 12 - 1 pm)."},{"id":"01bb72e8-cdc9-4ad1-96db-dd2e5b8318fd","lat":39.39143465,"lng":-81.22949824,"name":"Newport Community Food Pantry Location","org":"Newport Community Food Pantry","address":"245 Greene Street, NEWPORT, OH 45768","city":"NEWPORT","state":"OH","zip":"45768","phone":"7406823474","website":"","email":"","description":"Community food pantry providing food assistance to residents within a 7-mile radius of Newport, Ohio."},{"id":"3d6a0d75-bafc-45c2-99c0-0336bf00c81a","lat":41.603218,"lng":-83.466488,"name":"NORTHWOOD","org":"Foundation Stone Christian Center","address":"4532 Woodville Road, NORTHWOOD, OH 43619","city":"NORTHWOOD","state":"OH","zip":"43619","phone":"(419)693-5102","website":"","email":"","description":"Christian center providing food pantry services to the community"},{"id":"dfeda88e-aadd-4ff7-9142-2e7d4d0a23ad","lat":41.61739,"lng":-83.512727,"name":"NORTHWOOD","org":"Unity United Methodist Church","address":"1910 E. Broadway St., NORTHWOOD, OH 43619","city":"NORTHWOOD","state":"OH","zip":"43619","phone":"(419)693-5170","website":"","email":"","description":"Methodist church providing food pantry services to the community"},{"id":"e8c76f5d-9789-4245-b79b-8fcb3ded78d0","lat":40.27308,"lng":-81.60872,"name":"Newcomerstown","org":"Journey's End Ministries","address":"205 S River St, Newcomerstown, OH 43832","city":"Newcomerstown","state":"OH","zip":"43832","phone":"740-498-5772","website":"","email":"","description":"Community ministry providing food assistance and meal services to individuals and families in need"},{"id":"656965ef-0a16-4271-b097-74aa6de41c24","lat":40.2668,"lng":-81.61223,"name":"Newcomerstown","org":"Journey's End Ministries","address":"648 Oak St, Newcomerstown, OH 43832","city":"Newcomerstown","state":"OH","zip":"43832","phone":"740-498-5772","website":"","email":"","description":"Community ministry providing food assistance and meal services to individuals and families in need"},{"id":"8cb9cf8c-b5fa-43d2-907a-f959d6594110","lat":40.0323891,"lng":-82.9757983,"name":"North Linden","org":"God's Hygiene","address":"1402 Oakland Park Avenue, North Linden, OH 43224","city":"North Linden","state":"OH","zip":"43224","phone":"(614) 696-0024","website":"https://www.facebook.com/godshygiene/","email":"","description":"They help with laundry, hygiene"},{"id":"97a353f2-13ea-4ccf-9525-78414ec94fc0","lat":41.3164823,"lng":-81.5382337,"name":"Northfield","org":"The Emergency Assistance Center","address":"9433 Olde Eight Rd Ste B, Northfield, OH 44067","city":"Northfield","state":"OH","zip":"44067","phone":"330-467-7945","website":"","email":"","description":"Emergency assistance organization providing food pantry services to residents in multiple Ohio zip codes"},{"id":"9c74af42-6ba3-4a15-ad99-d593fd84b7fa","lat":41.04795,"lng":-81.67447,"name":"Norton","org":"The Father's House","address":"4061 Wadsworth Rd, Norton, OH 44203","city":"Norton","state":"OH","zip":"44203","phone":"(330) 813-3591","website":"","email":"","description":"Community food pantry providing prepackaged food assistance to families in need"},{"id":"54e5456f-1422-4c0f-94ba-ec06fddc3a62","lat":41.6500642,"lng":-83.5677858,"name":"ONYX","org":"Frederick Douglass Community Association","address":"1001 Indiana Avenue, ONYX, OH 43607","city":"ONYX","state":"OH","zip":"43607","phone":"(419) 244-6722","website":"http://TheDoug419.org","email":"","description":"Community association organization"},{"id":"7f0bb4ef-e739-46cc-b4f9-afd8669c5ba6","lat":41.64423,"lng":-83.479011,"name":"OREGON","org":"Echo Meadows Church Of Christ","address":"2905 Starr Ave., OREGON, OH 43616","city":"OREGON","state":"OH","zip":"43616","phone":"(419)693-9928","website":"https://www.echomeadowschurchofchrist.org/","email":"","description":"Faith-based organization providing food pantry services to the community"},{"id":"58cb3329-fd8a-4033-963e-0e6e2eac68cf","lat":41.01957,"lng":-84.03787,"name":"OTTAWA","org":"Ottawa Food Pantry","address":"137 N PRATT ST, OTTAWA, OH 45875","city":"OTTAWA","state":"OH","zip":"45875","phone":"419-523-6496","website":"","email":"","description":"Food pantry providing choice pantry services to the Ottawa, OH community"},{"id":"d967fdc0-2c90-4492-a0e5-8e0c38b611c2","lat":41.0272,"lng":-84.07705,"name":"OTTAWA","org":"Putnam County Community Thrift Pantry","address":"101 W MAIN ST, OTTAWA, OH 45875","city":"OTTAWA","state":"OH","zip":"45875","phone":"419-523-3032","website":"","email":"","description":"Community thrift pantry providing food assistance through choice pantry services in Ottawa, Ohio."},{"id":"5c890c49-403f-416c-adc2-82baf8d876e6","lat":41.509746,"lng":-83.152176,"name":"Oak Harbor","org":"St. Paul's United - BCS Food Pantry","address":"165 N. Toussaint St., Oak Harbor, OH 43449","city":"Oak Harbor","state":"OH","zip":"43449","phone":"(419)898-7131","website":"https://stpauluccoh.org/bcs-food-pantry/","email":"","description":"Food pantry providing food assistance services to the Oak Harbor community"},{"id":"d54c5498-0ab6-43a9-aa0b-9dab6a62094b","lat":40.84368,"lng":-81.76848,"name":"Orrville","org":"The Salvation Army (Orrville)","address":"401 W High St, Orrville, OH 44667","city":"Orrville","state":"OH","zip":"44667","phone":"330-683-3138","website":"","email":"","description":"The Salvation Army provides food assistance through their pantry program, serving residents of Orrville, Marshallville, Dalton, Kidron, and North Lawrence areas."},{"id":"6836f9e5-a563-45dd-a748-dbf32f83dcdc","lat":39.97813,"lng":-82.68195,"name":"PATASKALA","org":"Storehouse for Jesus Pataskala Nazarene Church","address":"8100 HAZELTON ETNA RD SW, PATASKALA, OH 43062","city":"PATASKALA","state":"OH","zip":"43062","phone":"740-739-4974","website":"","email":"","description":"Food pantry operated by Pataskala Nazarene Church providing choice pantry services to residents of Licking, Fairfield, and Franklin counties"},{"id":"ebf8fcfa-2677-4705-9025-6454a50fbd23","lat":41.13699,"lng":-84.57941,"name":"PAULDING","org":"Caring & Sharing Food Pantry","address":"119 S MAIN ST, PAULDING, OH 45879","city":"PAULDING","state":"OH","zip":"45879","phone":"419-399-2979","website":"","email":"","description":"Food pantry providing choice pantry services to community members in need"},{"id":"6e778b42-d18b-4103-ad7c-22871e6e062a","lat":41.527683,"lng":-83.631588,"name":"Moms Mobile Mission","org":"Moms Mobile Mission","address":"12282 Jefferson St., PERRYSBURG, OH 43551","city":"PERRYSBURG","state":"OH","zip":"43551","phone":"(419)349-0457","website":"","email":"","description":"Mobile food pantry service providing food assistance to the community"},{"id":"d677af4f-2f2f-4580-8b33-89b6451230d1","lat":41.551128,"lng":-83.644338,"name":"PERRYSBURG","org":"Bethel Assembly Of God Church","address":"665 W. Indiana Avenue, PERRYSBURG, OH 43551","city":"PERRYSBURG","state":"OH","zip":"43551","phone":"(419)874-2255","website":"http://bethelperrysburg.com/","email":"","description":"A church that operates a food pantry providing food assistance to the community."},{"id":"fb1d7b06-2988-4237-9cd3-c78cc77e456c","lat":41.538978,"lng":-83.567786,"name":"PERRYSBURG","org":"Perrysburg Township Fire Department","address":"26711 Lime City Road, PERRYSBURG, OH 43552","city":"PERRYSBURG","state":"OH","zip":"43552","phone":"(419)874-5684","website":"","email":"","description":"Fire department providing food pantry services to the Perrysburg community"},{"id":"37144960-5e88-4d0a-a73e-75d12752c826","lat":39.88586,"lng":-82.7558,"name":"Pickerington Food Pantry Location","org":"Pickerington Food Pantry","address":"70 CROSS ST Suite B, PICKERINGTON, OH 43147","city":"PICKERINGTON","state":"OH","zip":"43147","phone":"614-834-0079","website":"http://www.pickpantry.com","email":"","description":"Food pantry providing choice-based food assistance to families in the Pickerington School District area through appointment-based service."},{"id":"98df2238-9315-4abe-9525-71529e774b6a","lat":39.8083177,"lng":-82.5214868,"name":"PLEASANTVILLE","org":"Outreach Mission Pantry","address":"112 LINCOLN AVE, PLEASANTVILLE, OH 43148","city":"PLEASANTVILLE","state":"OH","zip":"43148","phone":"740-468-3257","website":"","email":"","description":"Food pantry providing prepack pantry services to Pleasantville Township residents through drive-thru distribution."},{"id":"f54461ff-ee04-43c3-89fa-2de0622df1b3","lat":41.515135,"lng":-82.912435,"name":"PORT CLINTON","org":"Oak House Club House","address":"62 Grande Lake Dr., PORT CLINTON, OH 43452","city":"PORT CLINTON","state":"OH","zip":"43452","phone":"(419)734-4417","website":"","email":"","description":"Community organization providing food assistance through soup kitchen and food pantry services in Port Clinton, Ohio."},{"id":"6812808f-f683-4bf6-af5f-71fc2768b104","lat":41.512842,"lng":-82.919198,"name":"PORT CLINTON","org":"St. Vincent De Paul-Immaculate Conception","address":"129 Maple St., PORT CLINTON, OH 43452","city":"PORT CLINTON","state":"OH","zip":"43452","phone":"(419)732-1870","website":"","email":"","description":"Food pantry operated by St. Vincent De Paul providing food assistance to community members in need."},{"id":"ff9b05e9-36a6-46c8-95e2-68563922618f","lat":41.326554,"lng":-83.652573,"name":"PORTAGE","org":"Christ United Methodist Church","address":"301 W. Main Street, PORTAGE, OH 43451","city":"PORTAGE","state":"OH","zip":"43451","phone":"(419)686-2621","website":"","email":"","description":"Methodist church providing food pantry services to the community"},{"id":"8f9d7cf8-63c6-468e-bbf0-a2483d5e00a9","lat":39.9654053,"lng":-82.88642709999999,"name":"Pinewood","org":"Victory Ministries Center of Hope - Mobile Food Pantry","address":"441 South Yearling Road, Pinewood, OH 43213","city":"Pinewood","state":"OH","zip":"43213","phone":"","website":"","email":"","description":"Mobile food pantry service"},{"id":"6497acdb-2ccc-4fae-b012-d3431ad632ea","lat":40.45060165,"lng":-83.18825216,"name":"Prospect","org":"St. Paul's Lutheran Church - Prospect","address":"200 E. Water Street, Prospect, OH 43342","city":"Prospect","state":"OH","zip":"43342","phone":"740-494-2885","website":"","email":"","description":"Lutheran church providing food pantry services to the community"},{"id":"b33e9c01-24b7-459a-8f0f-5220e50150a6","lat":39.96972394,"lng":-81.29461663,"name":"QUAKER CITY","org":"Living Water Food Pantry","address":"287 Fair Street, QUAKER CITY, OH 43773","city":"QUAKER CITY","state":"OH","zip":"43773","phone":"740-679-2781","website":"","email":"","description":"Food pantry providing choice pantry services to community members in need."},{"id":"22a04802-ecca-4111-a588-137bf1c8c31f","lat":39.175482,"lng":-82.709789,"name":"Ratcliffburg Mobile","org":"St. Francis Center","address":"Boblett Church, RAY, OH 45672","city":"RAY","state":"OH","zip":"45672","phone":"7405965820","website":"","email":"info@sfcla.org","description":"Since 1972, St. Francis Center has provided hunger-relief and supportive services to our community. In order to recieve our pantry, you must first register on our website or in person (Fridays 12 - 1 pm)."},{"id":"66a6725d-18c0-4f59-8088-952f904ae930","lat":39.10367,"lng":-81.74892,"name":"Golden Harvest Main Location","org":"Golden Harvest","address":"64936 STATE ROUTE 124, REEDSVILLE, OH 45772","city":"REEDSVILLE","state":"OH","zip":"45772","phone":"7403786447","website":"","email":"","description":"Food pantry organization providing monthly food assistance through prepack pantry services in the Reedsville, Ohio area."},{"id":"762841c8-adc3-4909-9e0d-5a5b056fac7f","lat":39.95484,"lng":-82.80552,"name":"REYNOLDSBURG","org":"Mid-Ohio Market at HEART","address":"6475 E MAIN ST STE 101, REYNOLDSBURG, OH 43068","city":"REYNOLDSBURG","state":"OH","zip":"43068","phone":"614-653-8792","website":"","email":"","description":"Choice pantry providing food assistance services in the Mid-Ohio region"},{"id":"8010f609-acf9-406a-99d4-1b72f458385b","lat":39.94883,"lng":-82.79663,"name":"REYNOLDSBURG","org":"Reynoldsburg Community of Care","address":"1649 GRAHAM RD, REYNOLDSBURG, OH 43068","city":"REYNOLDSBURG","state":"OH","zip":"43068","phone":"614-634-8572","website":"","email":"","description":"Community organization providing food assistance services to residents of Reynoldsburg, Ohio through their prepack pantry program."},{"id":"eafeb3d1-7bac-4d40-bf06-2efa90f3a184","lat":39.80668,"lng":-82.0722,"name":"ROSEVILLE","org":"Roseville Community Food Pantry","address":"146 N MAIN ST, ROSEVILLE, OH 43777","city":"ROSEVILLE","state":"OH","zip":"43777","phone":"740-453-2743","website":"","email":"","description":"Community food pantry serving residents of the 43777 zip code area with prepackaged food assistance."},{"id":"6171c06e-0523-4fd8-8bad-13d9e1d678da","lat":41.1586,"lng":-81.2609,"name":"Ravenna","org":"Christian Cupboard/Center of Hope","address":"1081 W Main St, Ravenna, OH 44266","city":"Ravenna","state":"OH","zip":"44266","phone":"330-297-5454","website":"","email":"","description":"Christian organization providing food pantry services and meals to the community in Ravenna, Ohio."},{"id":"6ed7fe3b-38ea-4564-a059-81ec5356a07a","lat":41.10042,"lng":-81.25968,"name":"Rootstown","org":"Community Bible Church","address":"3671 Tallmadge Rd, Rootstown, OH 44272","city":"Rootstown","state":"OH","zip":"44272","phone":"330-325-9449","website":"","email":"","description":"Community Bible Church provides food assistance through a choice pantry program serving the Rootstown, Ohio community."},{"id":"0f539336-399b-4f11-bd2b-1432c50b37c4","lat":40.07939777,"lng":-80.90273753,"name":"SAINT CLAIRSVILLE","org":"St. Clairsville Food Pantry","address":"102 ST Patrick, SAINT CLAIRSVILLE, OH 43950","city":"SAINT CLAIRSVILLE","state":"OH","zip":"43950","phone":"740-310-0223","website":"","email":"","description":"Food pantry providing choice pantry services to the community"},{"id":"8fa2bcba-7a05-4a27-9248-6d2500e3232b","lat":40.542,"lng":-84.3897,"name":"SAINT MARYS","org":"Agape Ministries Food Pantry","address":"1220 E SPRING ST, SAINT MARYS, OH 45885","city":"SAINT MARYS","state":"OH","zip":"45885","phone":"(484) 844-1755","website":"Northchesterbaptist.org","email":"","description":"everyone's welcome. No ID necessary. weekly shopping. Outside produce stand available, outside canned goods available. Indoor produce and food pantry also a Freestore available."},{"id":"bb1dd320-db82-4057-8629-fa852e0c2a71","lat":39.62268,"lng":-80.91141,"name":"SARDIS","org":"Sardis Manna","address":"37240 5TH AVE, SARDIS, OH 43946","city":"SARDIS","state":"OH","zip":"43946","phone":"740-483-1734","website":"","email":"","description":"Food pantry organization providing prepackaged food assistance to community members in need."},{"id":"dd383514-c532-4f3d-8b81-6890870a39bb","lat":40.39942866,"lng":-81.08984417,"name":"SCIO","org":"Scio Community Food Pantry","address":"117 MAPLE AVENUE, SCIO, OH 43988","city":"SCIO","state":"OH","zip":"43988","phone":"740-945-9115","website":"","email":"","description":"Community food pantry providing food assistance to residents of Scio, Jewett, and Bowerston areas through choice pantry services."},{"id":"085f620b-5d20-4542-a344-6d950108f61a","lat":39.97195,"lng":-80.74587,"name":"SHADYSIDE","org":"Shadyside Fellowship Pantry","address":"3838 LINCOLN AVE, SHADYSIDE, OH 43947","city":"SHADYSIDE","state":"OH","zip":"43947","phone":"740-338-8278","website":"","email":"","description":"Food pantry providing emergency food assistance through prepack pantry services in Shadyside, Ohio."},{"id":"fa142375-8d73-43e7-a786-4eda7e3fec5a","lat":40.3645072,"lng":-80.6156942,"name":"God's Pantry","org":"Urban Mission, God's Pantry","address":"311 N 6TH ST, STEUBENVILLE, OH 43952","city":"STEUBENVILLE","state":"OH","zip":"43952","phone":"7402828010","website":"","email":"","description":"Food pantry providing choice pantry services to the community"},{"id":"064ae9a9-0144-43d3-97f0-1ca722392802","lat":40.36408,"lng":-80.61465,"name":"STEUBENVILLE","org":"Urban Mission, God's Pantry","address":"311 N 6TH ST, STEUBENVILLE, OH 43952","city":"STEUBENVILLE","state":"OH","zip":"43952","phone":"7402828010","website":"","email":"","description":"Food pantry providing choice pantry services to the community"},{"id":"b1e439fd-a606-487b-957a-707a7f63748c","lat":40.42133,"lng":-80.65926,"name":"STEUBENVILLE","org":"Bell Chapel United Methodist Food Pantry","address":"3427 STATE ROUTE 213, STEUBENVILLE, OH 43952","city":"STEUBENVILLE","state":"OH","zip":"43952","phone":"740-283-2239","website":"","email":"","description":"United Methodist church food pantry providing prepack pantry services to the community"},{"id":"cc4c684b-4e61-4fb7-8519-75f49ddfa2a8","lat":41.508236,"lng":-83.50251,"name":"STONY RIDGE","org":"St. John's Lutheran - Stony Ridge","address":"5520 Fremont-Pike Road, STONY RIDGE, OH 43463","city":"STONY RIDGE","state":"OH","zip":"43463","phone":"(419)837-5115","website":"","email":"","description":"Lutheran church providing food pantry services to the community"},{"id":"3335bd85-0f25-4305-bd66-02f0cabea7fd","lat":40.28039,"lng":-82.8858,"name":"SUNBURY","org":"Vineyard Church Delaware County Pantry","address":"1001 W CHERRY ST, SUNBURY, OH 43074","city":"SUNBURY","state":"OH","zip":"43074","phone":"740-965-8888","website":"","email":"","description":"Food pantry providing choice-based food distribution services to the community"},{"id":"f0de196c-1751-48f1-9586-6da19d990a69","lat":41.671363,"lng":-83.910619,"name":"SWANTON","org":"Holy Trinity St. Vincent's De Paul","address":"2649 U.S. 20, SWANTON, OH 43558","city":"SWANTON","state":"OH","zip":"43558","phone":"(419)644-4014","website":"","email":"","description":"Food pantry operated by Holy Trinity St. Vincent's De Paul providing food assistance to the community"},{"id":"d24021c3-e906-4071-8ba9-532127b32789","lat":41.713011,"lng":-83.682357,"name":"SYLVANIA","org":"Olivet Lutheran Church","address":"5840 Monroe Street, SYLVANIA, OH 43560","city":"SYLVANIA","state":"OH","zip":"43560","phone":"(419)882-2077","website":"https://olivetsylvania.org/","email":"","description":"Lutheran church providing food assistance services including soup kitchen and food pantry to the community"},{"id":"51a7ad45-2ca5-4d10-9484-bbd620a8aeb5","lat":41.72003,"lng":-83.674208,"name":"SYLVANIA","org":"Sylvania Area Family Services, Inc.","address":"5440 Marshall Rd., SYLVANIA, OH 43560","city":"SYLVANIA","state":"OH","zip":"43560","phone":"(419)882-8415","website":"https://sa-fs.org/","email":"","description":"Community organization providing food pantry services and family support in the Sylvania area"},{"id":"ee37effc-ed3f-4647-9f22-6599fb597593","lat":40.56143,"lng":-80.87433,"name":"Salineville","org":"Northeast Jefferson Food Pantry","address":"11182 State Route 164, Salineville, OH 43945","city":"Salineville","state":"OH","zip":"43945","phone":"330-627-4080","website":"","email":"","description":"Food pantry providing emergency food assistance and regular food distribution services to the community."},{"id":"ef126aa4-214c-4a3e-a0d0-5be9108659ed","lat":41.096464,"lng":-81.73563224,"name":"Sharon Center","org":"St. Paul Lutheran Church","address":"6462 Ridge Rd, Sharon Center, OH 44281","city":"Sharon Center","state":"OH","zip":"44281","phone":"330-239-1340","website":"","email":"","description":"Lutheran church providing food pantry services to residents of Medina County through their weekly choice pantry program."},{"id":"a1a23d36-0b38-4acc-bb19-9d0657c4f6f3","lat":40.26851856,"lng":-80.78303164,"name":"Smithfield","org":"Smithfield Friends Pantry","address":"1599 Main St, Smithfield, OH 43948","city":"Smithfield","state":"OH","zip":"43948","phone":"740-598-4876","website":"","email":"","description":"Food pantry providing choice pantry services to the community in Smithfield, Ohio."},{"id":"4fe5ff21-4c40-4fa2-8df6-8ef930dc28f1","lat":39.808268,"lng":-82.29748452,"name":"Somerset","org":"Somerset Area Food Pantry","address":"139 E Main St, Somerset, OH 43783","city":"Somerset","state":"OH","zip":"43783","phone":"740-743-1029","website":"","email":"","description":"Food pantry serving Reading & Clayton Township residents with choice pantry services"},{"id":"4d488768-d1ec-4bca-9923-3c3567afa93f","lat":39.9138994,"lng":-82.9671621,"name":"South Columbus","org":"Facces The Family Adolescent & Child Community Engagement Service","address":"2515 Lockbourne Road, South Columbus, OH 43207","city":"South Columbus","state":"OH","zip":"43207","phone":"(614) 319-6070","website":"https://thefacces.org/events/category/facces-food/fresh-market/","email":"","description":"Have to register online for picku up and set appointments \nCall in advance"},{"id":"d6fe143a-5022-40c6-83a0-3c465e1513a2","lat":39.9521457,"lng":-82.9709713,"name":"South Columbus","org":"St. John's Food Pantry","address":"640 South Ohio Avenue, South Columbus, OH 43205","city":"South Columbus","state":"OH","zip":"43205","phone":"(315)902-4130","website":"","email":"","description":"All Franklin County residents"},{"id":"10218e7b-db65-4193-a73d-eff51a3ccd33","lat":39.9318403,"lng":-82.9766842,"name":"South Columbus","org":"Impact Community Action","address":"711 Southwood Avenue, South Columbus, OH 43207","city":"South Columbus","state":"OH","zip":"43207","phone":"(614) 252-2799","website":"https://www.impactca.org/","email":"","description":"Community action organization providing services in South Columbus"},{"id":"e8cbbcf6-b7b7-4592-a398-e6367e8dbcf5","lat":40.0006982,"lng":-82.96793170000001,"name":"South Linden","org":"St Stephens","address":"1500 East 17th Avenue, South Linden, OH 43219","city":"South Linden","state":"OH","zip":"43219","phone":"","website":"","email":"","description":"Food service organization: St Stephens"},{"id":"29ec159d-b04d-4cce-899d-90a70fb8e348","lat":41.6400797,"lng":-83.5498856,"name":"Southside","org":"St John's Lutheran Church","address":"708 South Erie Street, Southside, OH 43609","city":"Southside","state":"OH","zip":"43609","phone":"","website":"https://www.facebook.com/p/Mustard-Seed-Toledo-100069197396576/","email":"","description":"Meat distribution"},{"id":"83bb622d-d3a0-4dae-a1ba-5e849c8a3f45","lat":41.60704339999999,"lng":-83.6502842,"name":"Southwyck","org":"Soma City Church","address":"4621 Glendale Avenue, Southwyck, OH 43614","city":"Southwyck","state":"OH","zip":"43614","phone":"(419) 370-0335","website":"https://somacity.org/kidsandstudents","email":"","description":"Food assistance organization"},{"id":"e8822eba-b8c9-4b4c-aaa1-20677d059a72","lat":41.1145,"lng":-83.178,"name":"TIFFIN","org":"Salvation Army Tiffin","address":"505 E MARKET ST, TIFFIN, OH 44883","city":"TIFFIN","state":"OH","zip":"44883","phone":"419-447-2252","website":"","email":"","description":"The Salvation Army providing food pantry services and community support in Tiffin, Ohio."},{"id":"b03fb08e-cc77-4516-915d-736f9663da4b","lat":41.63099,"lng":-83.60382,"name":"Faith Lutheran Church (Feed Your Neighbor)","org":"Faith Lutheran Church (Feed Your Neighbor)","address":"2440 South Ave., TOLEDO, OH 43609","city":"TOLEDO","state":"OH","zip":"43609","phone":"(419)385-7459","website":"","email":"","description":"Faith-based organization providing food pantry services to the community"},{"id":"68f60f62-b049-4ea6-bd5b-2289edc31f58","lat":41.632275,"lng":-83.557205,"name":"TOLEDO","org":"Cindy's Cafe At St. Lucas Lutheran Church","address":"745 Walbridge St., TOLEDO, OH 43609","city":"TOLEDO","state":"OH","zip":"43609","phone":"(419)724-5280","website":"https://www.stlucastoledo.org/","email":"","description":"Lutheran church offering soup kitchen services to the community"},{"id":"6b564274-194a-434e-9d6d-e3dbd42f7f35","lat":41.625049,"lng":-83.621891,"name":"TOLEDO","org":"Bible Temple","address":"3333 Airport Highway, TOLEDO, OH 43609","city":"TOLEDO","state":"OH","zip":"43609","phone":"(419)385-7225","website":"","email":"","description":"Religious organization providing food pantry services to the community"},{"id":"ab7fb0ac-ad2d-4951-9f9f-6cd44d2a2aa9","lat":41.679959,"lng":-83.584756,"name":"TOLEDO","org":"Christ Church Triumphant","address":"1701 Stahlwood Ave, TOLEDO, OH 43613","city":"TOLEDO","state":"OH","zip":"43613","phone":"(419)690-9786","website":"https://www.facebook.com/christchurchtriumphant/","email":"","description":"Church organization operating a food pantry to serve the Toledo community"},{"id":"41949df7-022e-4fe4-b72b-4aab887f09ca","lat":41.654611,"lng":-83.536084,"name":"TOLEDO","org":"Community Heart Of Toledo - St. Paul's Lutheran","address":"428 N. Erie St., TOLEDO, OH 43604","city":"TOLEDO","state":"OH","zip":"43604","phone":"(419)243-4214","website":"https://www.stpaulstoledo.org/","email":"","description":"Community organization providing soup kitchen services through St. Paul's Lutheran Church in Toledo, Ohio."},{"id":"36ee0eb1-4564-4945-81ce-5465443dbfd7","lat":41.705491,"lng":-83.641856,"name":"TOLEDO","org":"Emmanuel Baptist Church","address":"4207 W. Laskey Road, TOLEDO, OH 43623","city":"TOLEDO","state":"OH","zip":"43623","phone":"(301) 266-1610","website":"https://www.emmanuelbaptist.com/","email":"jsbiskit@aol.com","description":"Religious organization providing food pantry services to the Toledo community"},{"id":"3d4bc603-9652-4d80-867c-d86ec55e9ff5","lat":41.649148,"lng":-83.66599,"name":"TOLEDO","org":"Epiphany Lutheran Church (Feed Your Neighbor)","address":"915 N Reynolds Rd, TOLEDO, OH 43615","city":"TOLEDO","state":"OH","zip":"43615","phone":"(419)243-9178","website":"","email":"","description":"Lutheran church providing food pantry services to the community through their Feed Your Neighbor program"},{"id":"c3401b1d-cb0f-4b5e-8c62-78b47a137275","lat":41.650268,"lng":-83.559896,"name":"TOLEDO","org":"Family House","address":"669 Indiana Ave., TOLEDO, OH 43604","city":"TOLEDO","state":"OH","zip":"43604","phone":"(419)242-5505","website":"https://familyhousetoledo.org/","email":"","description":"Shelter services organization providing housing assistance and support services"},{"id":"47419f0d-1fab-44d4-9acd-fa72027b43f5","lat":41.619142,"lng":-83.527973,"name":"TOLEDO","org":"God's Instruments Outreach & Food Pantry","address":"1705 Tracy St., TOLEDO, OH 43605","city":"TOLEDO","state":"OH","zip":"43605","phone":"(419)214-2648","website":"","email":"","description":"Community food pantry providing food assistance to families and individuals in need"},{"id":"60bcb396-5595-4619-aa0f-fbf02d343ce8","lat":41.660005,"lng":-83.545482,"name":"TOLEDO","org":"Grand Lodge Food Pantry","address":"1947 Franklin Ave., TOLEDO, OH 43604","city":"TOLEDO","state":"OH","zip":"43604","phone":"(419)810-0993","website":"https://grandlodgefoodpantry.org/","email":"","description":"Community food pantry providing food assistance to individuals and families in need"},{"id":"db878ec7-eca1-4f30-8828-37613a7bc5e9","lat":41.668248,"lng":-83.57764,"name":"TOLEDO","org":"Greater Grace Christian Church","address":"3342 Monroe St., TOLEDO, OH 43606","city":"TOLEDO","state":"OH","zip":"43606","phone":"(419)984-8448","website":"https://www.facebook.com/greatergracetoledooutreach/","email":"","description":"Greater Grace Christian Church operates a food pantry in Toledo, Ohio, providing food assistance to the local community."},{"id":"491179d1-8dbf-4850-8d12-924bf4988fd9","lat":41.644644,"lng":-83.503652,"name":"TOLEDO","org":"Holiness Temple Church Of God In Christ","address":"602 Dearborn Ave., TOLEDO, OH 43605","city":"TOLEDO","state":"OH","zip":"43605","phone":"(567)694-9988","website":"","email":"","description":"Religious organization providing food pantry services to the community"},{"id":"d928933e-8735-47d5-b9dc-798769170fc0","lat":41.612134,"lng":-83.587767,"name":"TOLEDO","org":"Holy Trinity Lutheran Church","address":"1825 Glendale Avenue, TOLEDO, OH 43614","city":"TOLEDO","state":"OH","zip":"43614","phone":"(419)382-5644","website":"","email":"","description":"Lutheran church providing food pantry services to the Toledo community"},{"id":"ed27f48d-6fa8-40fb-8239-150c52cb6004","lat":41.654856,"lng":-83.542525,"name":"TOLEDO","org":"Market Place For All People","address":"1201 Madison Ave., TOLEDO, OH 43604","city":"TOLEDO","state":"OH","zip":"43604","phone":"(419)243-8284","website":"","email":"","description":"Community food pantry providing food assistance services to individuals and families in need"},{"id":"32c44c6a-e4a2-4f9b-be0d-bc4621fe0c18","lat":41.670844,"lng":-83.583769,"name":"TOLEDO","org":"Monroe Street Neighborhood Center","address":"3613 Monroe Street, TOLEDO, OH 43606","city":"TOLEDO","state":"OH","zip":"43606","phone":"(419)474-1184","website":"https://monroesnc.com/","email":"","description":"Community center providing food pantry services to residents in the Toledo area"},{"id":"81fdd6c9-0e4a-444f-bcc8-99bf20640e89","lat":41.627877,"lng":-83.56131,"name":"TOLEDO","org":"Mosaic Ministries Of South Toledo","address":"860 Orchard St., TOLEDO, OH 43609","city":"TOLEDO","state":"OH","zip":"43609","phone":"(419)346-9425","website":"https://www.mosaicministries.us/","email":"","description":"A faith-based organization providing food assistance services to the South Toledo community through their food pantry program."},{"id":"45a2ef93-0dad-4db8-b1a5-d352696cddd1","lat":41.719213,"lng":-83.477329,"name":"TOLEDO","org":"Mustard Seed Outreach (Feed Your Neighbor)","address":"5420 302nd St, TOLEDO, OH 43611","city":"TOLEDO","state":"OH","zip":"43611","phone":"(419)243-9178","website":"","email":"","description":"Community food pantry providing food assistance through the Toledo Northwestern Ohio Food Bank network"},{"id":"a0571f1e-3fdb-417f-a258-9a1f2d90722b","lat":41.681592,"lng":-83.589029,"name":"TOLEDO","org":"New Life House Of Faith","address":"3274 Upton Ave., TOLEDO, OH 43613","city":"TOLEDO","state":"OH","zip":"43613","phone":"(419)214-0772","website":"https://newlifehouseoffaith.org/home","email":"","description":"Faith-based organization providing food pantry services to the Toledo community"},{"id":"ccccc9ce-8a3e-4d52-81aa-36930fbdbc63","lat":41.672643,"lng":-83.526534,"name":"TOLEDO","org":"New Covenant Church Of The Living God","address":"2519 Stickney Avenue, TOLEDO, OH 43608","city":"TOLEDO","state":"OH","zip":"43608","phone":"(419)726-6836","website":"","email":"","description":"Religious organization providing food assistance services to the community through a food pantry program."},{"id":"23ea4c94-8c11-4fe3-9cac-b6914fb0edcb","lat":41.632062,"lng":-83.55448,"name":"TOLEDO","org":"Nuestra Gente Community Projects","address":"1411 Broadway St., TOLEDO, OH 43609","city":"TOLEDO","state":"OH","zip":"43609","phone":"(567)702-0040","website":"https://nuestragentecommunityprojects.org/","email":"","description":"Community organization providing food assistance services through their food pantry program"},{"id":"fc33b61c-070d-49be-8c56-f1d8771d655a","lat":41.635283,"lng":-83.55038,"name":"TOLEDO","org":"Outreach Of Immaculate Conception","address":"1102 Broadway St., TOLEDO, OH 43609","city":"TOLEDO","state":"OH","zip":"43609","phone":"(419)243-1819","website":"","email":"","description":"Community organization providing food assistance through pantry services in Toledo, Ohio."},{"id":"ccbe7d26-325d-404a-a978-44c11bae4ecd","lat":41.641485,"lng":-83.56749,"name":"TOLEDO","org":"Pentecostal Church Of God","address":"143 N. Hawley Street, TOLEDO, OH 43607","city":"TOLEDO","state":"OH","zip":"43607","phone":"(419)243-5487","website":"","email":"","description":"Religious organization providing food assistance services to the Toledo community"},{"id":"d34373d4-5436-47a6-9eb3-b4552ee9685c","lat":41.656531,"lng":-83.588174,"name":"TOLEDO","org":"Redeemer Lutheran Church","address":"1702 Upton Avenue, TOLEDO, OH 43607","city":"TOLEDO","state":"OH","zip":"43607","phone":"(419)536-3781","website":"","email":"","description":"Lutheran church operating a food pantry to serve the Toledo community"},{"id":"c2e680d5-5744-4a1c-8dbd-819d8a62cec6","lat":41.692292,"lng":-83.575283,"name":"TOLEDO","org":"Pilgrim Church","address":"1375 Sylvania Avenue, TOLEDO, OH 43612","city":"TOLEDO","state":"OH","zip":"43612","phone":"(419)478-6012","website":"","email":"","description":"Faith-based organization providing food assistance through a food pantry program to the Toledo community."},{"id":"7c74dc36-805d-4f9a-82fa-71062f82f739","lat":41.707019,"lng":-83.628677,"name":"TOLEDO","org":"River Of God International Church","address":"5025 Rambo Lane, TOLEDO, OH 43623","city":"TOLEDO","state":"OH","zip":"43623","phone":"419-480-0770","website":"","email":"","description":"Religious organization providing food assistance services to the community through their food pantry program."},{"id":"8b6a8438-af1a-49e1-be75-2721a56bc18c","lat":41.656813,"lng":-83.533676,"name":"TOLEDO","org":"Salvation Army","address":"620 N. Erie St., TOLEDO, OH 43604","city":"TOLEDO","state":"OH","zip":"43604","phone":"(518) 346-0222","website":"https://easternusa.salvationarmy.org/empire/cortland/","email":"","description":"Food pantry and soup kitchen services. Eat-In soup kitchen Wednesday 12-1pm. Food pantry open Monday, Tuesday, and Thursday 10am-1:30pm. Appointments not necessary."},{"id":"3b1c7532-c06f-4884-af2f-3fbd1bd21dba","lat":41.685985,"lng":-83.589523,"name":"TOLEDO","org":"River Of Life Church","address":"3611 Upton Ave., TOLEDO, OH 43613","city":"TOLEDO","state":"OH","zip":"43613","phone":"(419)380-9357","website":"https://www.therivertoledo.com/","email":"","description":"Church organization providing food pantry services to the Toledo community"},{"id":"75b04400-4348-4ee8-b3cf-152e9c07c3b6","lat":41.64014,"lng":-83.549579,"name":"TOLEDO","org":"St. John's Lutheran - Cindys Corner Food Pantry","address":"708 S. Erie St., TOLEDO, OH 43609","city":"TOLEDO","state":"OH","zip":"43609","phone":"(419)724-5280","website":"https://www.stlucastoledo.org/","email":"","description":"Food pantry operated by St. John's Lutheran Church providing food assistance to the community"},{"id":"89f02d0a-71e2-441a-b1b9-4e08ee6c826b","lat":41.648675,"lng":-83.546021,"name":"TOLEDO","org":"St. Patrick's Historic Church","address":"130 Avondale Avenue, TOLEDO, OH 43604","city":"TOLEDO","state":"OH","zip":"43604","phone":"(419)243-6452","website":"","email":"","description":"St. Patrick's Historic Church is a religious organization providing food pantry services to the Toledo community."},{"id":"9cf3e575-66b0-45d1-acb5-282b459d8789","lat":41.594125,"lng":-83.643243,"name":"TOLEDO","org":"St. Vincent De Paul-St. Patrick Of Heatherdowns","address":"4201 Heatherdowns Blvd, TOLEDO, OH 43614","city":"TOLEDO","state":"OH","zip":"43614","phone":"(419)381-1540","website":"","email":"","description":"Catholic charitable organization providing food pantry services to the Toledo community through St. Patrick of Heatherdowns parish"},{"id":"96adddd8-6920-4ea2-beaf-f683bd50a28f","lat":41.645626,"lng":-83.604363,"name":"TOLEDO","org":"The Refreshing Place","address":"2500 Nebraska Avenue, TOLEDO, OH 43607","city":"TOLEDO","state":"OH","zip":"43607","phone":"567-315-8990","website":"","email":"","description":"Community organization providing food pantry services to support local families and individuals in need."},{"id":"aac96b65-98e1-4e67-827f-1b0b15ac6783","lat":41.599121,"lng":-83.668343,"name":"TOLEDO","org":"The Redeemed Christian Church of God","address":"2239 Cheyenne Blvd., TOLEDO, OH 43614","city":"TOLEDO","state":"OH","zip":"43614","phone":"(518) 463-5231","website":"http://www.rccgalbanyny.org/our-ministries/rccg-albany-food-pantry/","email":"","description":"A Christian church organization providing food pantry services to the community in Toledo, Ohio."},{"id":"19ee2924-1668-4f88-965a-f3455ab5edf1","lat":41.639732,"lng":-83.518828,"name":"TOLEDO","org":"Vision Of Hope Ministries-Salem United East Toledo","address":"602 Federal St., TOLEDO, OH 43605","city":"TOLEDO","state":"OH","zip":"43605","phone":"(419)283-0903","website":"","email":"","description":"Food pantry ministry providing food assistance to the community in East Toledo"},{"id":"c1d1c3e2-e503-454d-ae7d-d311d66f9ddc","lat":41.649455,"lng":-83.555815,"name":"TOLEDO","org":"Warren A.M.E Church","address":"915 Collingwood Blvd., TOLEDO, OH 43604","city":"TOLEDO","state":"OH","zip":"43604","phone":"(419)243-2237","website":"https://warren-ame.org/","email":"","description":"A church that operates a food pantry to serve the local community in Toledo, Ohio."},{"id":"5fa9dc43-4972-4a45-8a2d-4776a16936de","lat":41.677266,"lng":-83.52633,"name":"TOLEDO","org":"Wesley United Methodist Church (Feed Your Neighbor)","address":"2934 Stickney Ave, TOLEDO, OH 43608","city":"TOLEDO","state":"OH","zip":"43608","phone":"(419)243-9178","website":"","email":"","description":"Methodist church operating a food pantry program serving the Toledo community"},{"id":"aff201fc-d1a9-4ba1-8b35-69c42473f3bb","lat":41.692778,"lng":-83.603418,"name":"Toledo","org":"Aldersgate United Methodist Church","address":"4030 Douglas Rd., Toledo, OH 43613","city":"Toledo","state":"OH","zip":"43613","phone":"(419)473-1294","website":"https://aldersgatetoledoumc.org/","email":"","description":"United Methodist Church operating a food pantry serving the Toledo community"},{"id":"a5a5c250-5536-4407-9466-962a6091a35d","lat":41.665919,"lng":-83.553498,"name":"Toledo","org":"Beach House Family Shelter","address":"2283 Ashland Ave., Toledo, OH 43620","city":"Toledo","state":"OH","zip":"43620","phone":"(419)241-9277","website":"https://www.lfhtoledo.org/","email":"","description":"Family shelter providing temporary housing and support services"},{"id":"5f3189bb-db91-4f94-8c95-ce2356917fda","lat":41.691003,"lng":-83.552557,"name":"Toledo","org":"F.O.P. 40 Charities Food Pantry","address":"255 Gradolph Street, Toledo, OH 43612","city":"Toledo","state":"OH","zip":"43612","phone":"(419)578-7800","website":"https://fop40charities.org/","email":"","description":"Community food pantry providing food assistance to individuals and families in need in the Toledo area."},{"id":"a6123608-c7a7-4354-bb57-f9660b0baaba","lat":41.706504,"lng":-83.621683,"name":"Toledo","org":"Fairgreen Presbyterian Church (Feed Your Neighbor)","address":"3220 W Laskey Rd, Toledo, OH 43613","city":"Toledo","state":"OH","zip":"43613","phone":"(419)243-9178","website":"","email":"","description":"Presbyterian church operating a food pantry program to serve community members in need"},{"id":"78fa43d7-8d6e-4229-b84c-dfad88861d4b","lat":41.638231,"lng":-83.621422,"name":"Toledo","org":"Food For Thought Toledo, Inc.","address":"3350 Hill Ave., Toledo, OH 43607","city":"Toledo","state":"OH","zip":"43607","phone":"(419)654-0235","website":"","email":"","description":"Community food pantry providing food assistance to individuals and families in need in the Toledo area"},{"id":"fb8bd889-a810-4441-ad3f-743ef767522c","lat":41.66464,"lng":-83.491997,"name":"Toledo","org":"Free At Last Ministries - Dominion Christian Center","address":"2401 Valentine Street, Toledo, OH 43605","city":"Toledo","state":"OH","zip":"43605","phone":"(419)470-9964","website":"","email":"","description":"Faith-based organization providing food pantry services to the Toledo community"},{"id":"4659ef1d-bd1d-4083-a3e0-1a7fc67e6bef","lat":41.671217,"lng":-83.553349,"name":"Toledo","org":"Grace Community Center","address":"406 W. Delaware Avenue, Toledo, OH 43610","city":"Toledo","state":"OH","zip":"43610","phone":"(419)248-2467","website":"","email":"","description":"Community center providing food pantry services to local residents"},{"id":"6f6fb6ae-ce8f-409e-b720-8b9e80d1e934","lat":41.653709,"lng":-83.686096,"name":"Toledo","org":"Help Feed Toledo Area At Gateway Baptist Church","address":"6047 Dorr St., Toledo, OH 43615","city":"Toledo","state":"OH","zip":"43615","phone":"(419)873-2777","website":"","email":"","description":"Food pantry operated by Gateway Baptist Church providing food assistance to the Toledo area community"},{"id":"17cde69e-e664-4490-b878-2ee7f802faea","lat":41.651011,"lng":-83.555679,"name":"Toledo","org":"Hope Center (The Tabernacle Church)","address":"531 Pinewood Ave., Toledo, OH 43604","city":"Toledo","state":"OH","zip":"43604","phone":"(419)255-8478","website":"https://thetabernacletoledo.org/","email":"","description":"Food pantry operated by The Tabernacle Church providing food assistance to the Toledo community"},{"id":"55f4eb41-1c8c-4b61-92e6-17d817d59b9a","lat":41.643671,"lng":-83.511912,"name":"Toledo","org":"Manna Food Pantry @ Memorial U.C.C.","address":"1301 Starr Ave., Toledo, OH 43605","city":"Toledo","state":"OH","zip":"43605","phone":"(419)344-7692","website":"","email":"","description":"Food pantry providing food assistance to community members in need"},{"id":"dbb798cd-ba53-487b-ae27-f62f01ef0884","lat":41.663516,"lng":-83.555562,"name":"Toledo","org":"Lutheran Social Services - Feed Your Neighbor","address":"2149 Collingwood Blvd., Toledo, OH 43620","city":"Toledo","state":"OH","zip":"43620","phone":"(419)243-9178","website":"","email":"","description":"Lutheran Social Services food pantry providing food assistance to community members in need."},{"id":"8b617741-d2a9-4082-b0b4-4044727136e8","lat":41.705976,"lng":-83.633776,"name":"Toledo","org":"Northpoint Church","address":"3708 W. Laskey Road, Toledo, OH 43623","city":"Toledo","state":"OH","zip":"43623","phone":"(419)472-5346","website":"","email":"","description":"Faith-based organization providing food pantry services to the Toledo community"},{"id":"74d09887-ba68-4ef2-89db-817f98ccb4d9","lat":41.638517,"lng":-83.688552,"name":"Toledo","org":"Our Lady Of Lourdes","address":"6149 Hill Avenue, Toledo, OH 43615","city":"Toledo","state":"OH","zip":"43615","phone":"(404) 522-6776","website":"https://www.olltoledo.com/","email":"","description":"Catholic church providing food assistance services including soup kitchen and food pantry programs to the Toledo community."},{"id":"fda23349-2838-4b32-a6d7-69ea9b1e2ee6","lat":41.663536,"lng":-83.570404,"name":"Toledo","org":"St. Martin De Porres - Social Concerns","address":"1119 W. Bancroft Street, Toledo, OH 43606","city":"Toledo","state":"OH","zip":"43606","phone":"(419)241-4581","website":"","email":"","description":"Catholic organization providing food pantry services to the Toledo community through their social concerns ministry."},{"id":"ffadeb8c-0001-4095-8f01-87cdca1ce21a","lat":41.653684,"lng":-83.672648,"name":"Toledo","org":"St. Vincent De Paul-Little Flower","address":"5522 Dorr St, Toledo, OH 43615","city":"Toledo","state":"OH","zip":"43615","phone":"(419)531-5268","website":"","email":"","description":"Catholic charity organization providing food pantry services to the community"},{"id":"b80c9fd8-afd1-4c2b-9215-819b08fe76bf","lat":41.650445,"lng":-83.558539,"name":"Toledo","org":"The Indiana Ave. M.B. Church","address":"640 Indiana Ave., Toledo, OH 43604","city":"Toledo","state":"OH","zip":"43604","phone":"(419)246-3850","website":"","email":"","description":"Faith-based organization providing food pantry services to the Toledo community"},{"id":"80897c4a-f512-4770-b73f-2cbea69d3893","lat":41.660564,"lng":-83.548865,"name":"Toledo","org":"Thomas M. Wernert Center","address":"208 W. Woodruff Ave., Toledo, OH 43604","city":"Toledo","state":"OH","zip":"43604","phone":"(419)242-3000","website":"https://www.wernertcenter.org/","email":"info@wernertcenter.org","description":"Community center providing soup kitchen services to those in need in Toledo, Ohio"},{"id":"8172e49a-8a42-4747-a0a8-429b8e3d9abb","lat":41.638058,"lng":-83.654213,"name":"Toledo","org":"The University Church","address":"4747 Hill Ave., Toledo, OH 43615","city":"Toledo","state":"OH","zip":"43615","phone":"(419)534-3080","website":"","email":"","description":"A church-based organization providing food pantry services to the community in Toledo, Ohio."},{"id":"b685ef8a-05b3-41e6-bce9-bd4cea8c9572","lat":41.659888,"lng":-83.613729,"name":"Toledo","org":"University of Toledo (UT Students Only)","address":"2801 W. Bancroft St, Toledo, OH 43606","city":"Toledo","state":"OH","zip":"43606","phone":"(419)530-4357","website":"https://www.utoledo.edu/studentaffairs/food-pantry/","email":"","description":"Food pantry service exclusively for students currently enrolled at the University of Toledo"},{"id":"7d90a5ac-9867-40f2-aeb5-8690ff3ba637","lat":40.86873,"lng":-84.5832,"name":"VAN WERT","org":"Van Wert CO-OP Food Pantry","address":"113 W CENTRAL AVE, VAN WERT, OH 45891","city":"VAN WERT","state":"OH","zip":"45891","phone":"419-203-4969","website":"","email":"","description":"Community food pantry providing choice pantry services to residents in need"},{"id":"0863cc74-3bff-4f62-a3f6-63203f11fcbf","lat":40.87771,"lng":-84.57192,"name":"VAN WERT","org":"Karla's Kupboard -Trinity Friends Food Pantry","address":"605 N FRANKLIN ST, VAN WERT, OH 45891","city":"VAN WERT","state":"OH","zip":"45891","phone":"419-238-2788","website":"","email":"","description":"Food pantry providing prepackaged food assistance to community members in Van Wert, Ohio"},{"id":"cf918f3c-74a2-41be-9ea8-7aa85bb572ae","lat":38.95739,"lng":-82.29884,"name":"VINTON","org":"Vinton Baptist Church","address":"11818 STATE ROUTE 160, VINTON, OH 45686","city":"VINTON","state":"OH","zip":"45686","phone":"740-388-8671","website":"","email":"","description":"A Baptist church in Vinton, Ohio that operates a food pantry providing prepackaged food assistance to the community."},{"id":"213cab59-384b-4db9-b9f6-879dcc629ef8","lat":38.9577748,"lng":-82.2989156,"name":"Vinton Baptist Church","org":"Vinton Baptist Church","address":"11818 STATE ROUTE 160, VINTON, OH 45686","city":"VINTON","state":"OH","zip":"45686","phone":"740-388-8671","website":"","email":"","description":"A Baptist church in Vinton, Ohio that operates a food pantry providing prepackaged food assistance to the community."},{"id":"3545b4b5-d3d7-453f-b1af-3c480377efbd","lat":39.5361,"lng":-83.44224,"name":"WASHINGTON COURT HOUSE","org":"Fayette County Food Pantry","address":"214 N HINDE ST, WASHINGTON COURT HOUSE, OH 43160","city":"WASHINGTON COURT HOUSE","state":"OH","zip":"43160","phone":"740-335-2067","website":"","email":"","description":"Food pantry providing choice pantry services to the Fayette County community"},{"id":"f531febd-8b23-476e-a966-45b0b34b8b2d","lat":39.54493,"lng":-83.44388,"name":"WASHINGTON COURT HOUSE","org":"Heritage Memorial Food Pantry","address":"412 ROSE AVE, WASHINGTON COURT HOUSE, OH 43160","city":"WASHINGTON COURT HOUSE","state":"OH","zip":"43160","phone":"740-636-1111","website":"","email":"","description":"Community food pantry providing emergency food assistance through prepack pantry services"},{"id":"ff477c24-125d-466c-8370-862e711ef8c4","lat":41.544469,"lng":-84.145624,"name":"WAUSEON","org":"Fulton County Alano Club","address":"222 S. Brunell Street, WAUSEON, OH 43567","city":"WAUSEON","state":"OH","zip":"43567","phone":"(419)335-6211","website":"","email":"","description":"Community organization operating a food pantry to serve local residents in need"},{"id":"27ed0b11-f44b-4b54-a1d7-b7b6a37ab96a","lat":41.548428,"lng":-84.158987,"name":"WAUSEON","org":"True North Church","address":"850 W. Elm St., WAUSEON, OH 43567","city":"WAUSEON","state":"OH","zip":"43567","phone":"(419)335-8783","website":"https://www.tnchurch.org/","email":"","description":"Community church providing food assistance through soup kitchen and food pantry services"},{"id":"54ec4a2d-a3bb-48b4-a7a8-e858f9fff529","lat":39.11021,"lng":-82.54162,"name":"Jackson Co Mobile Market","org":"SE Ohio Foodbank","address":"96 MEADOW RUN RD, WELLSTON, OH 45692","city":"WELLSTON","state":"OH","zip":"45692","phone":"740-385-6813","website":"","email":"","description":"Food bank providing emergency food assistance and mobile market services to residents in southeastern Ohio"},{"id":"011a30f9-c57c-4940-934d-8c1988bede01","lat":39.11469,"lng":-82.53704,"name":"WELLSTON","org":"TLC Ministries","address":"901 S RAILROAD AVE, WELLSTON, OH 45692","city":"WELLSTON","state":"OH","zip":"45692","phone":"740-988-4368","website":"","email":"","description":"Community organization providing food pantry services with choice pantry distribution model"},{"id":"19e5abb8-49ba-4ea5-911d-eeb97c1c35ef","lat":39.11465362,"lng":-82.59281433,"name":"WELLSTON","org":"TLC Ministries","address":"22783 STATE ROUTE 93, WELLSTON, OH 45692","city":"WELLSTON","state":"OH","zip":"45692","phone":"740-988-4368","website":"","email":"","description":"Community organization providing food pantry services with choice pantry distribution model"},{"id":"2c33d792-c276-4688-95db-e752ce8f71d7","lat":39.94402,"lng":-83.26778,"name":"Good Samaritan Food Pantry","org":"Good Samaritan Food Pantry","address":"36 S CENTER ST, WEST JEFFERSON, OH 43162","city":"WEST JEFFERSON","state":"OH","zip":"43162","phone":"614-379-3212","website":"https://standres.org/contact-us","email":"","description":"Food pantry providing food assistance services. Call to verify hours of operation and to see if an appointment is required."},{"id":"b427b60d-1656-4545-ac4c-195327cf144a","lat":40.10511,"lng":-82.92803,"name":"WARM Main Location","org":"WARM Westerville Area Resource Ministry","address":"150 HEATHERDOWN DR STE A, WESTERVILLE, OH 43081","city":"WESTERVILLE","state":"OH","zip":"43081","phone":"6148990196","website":"","email":"","description":"Community resource ministry providing food pantry services to families in the Westerville area"},{"id":"348b8cad-ab08-47b7-af0e-4dc9c6f8d1db","lat":40.10149,"lng":-82.89188,"name":"WESTERVILLE","org":"Central College Church Pantry","address":"975 S SUNBURY RD, WESTERVILLE, OH 43081","city":"WESTERVILLE","state":"OH","zip":"43081","phone":"614-882-2347","website":"","email":"","description":"A church-based food pantry providing prepackaged food assistance to the community in Westerville, Ohio."},{"id":"bc68e33d-ca0c-4d2e-bb3c-c5b1b0441365","lat":39.140833,"lng":-82.376944,"name":"Wilkesville Mobile","org":"St. Francis Center","address":"Wilkesville Community Center 164 Main St., WILKESVILLE, OH 45695","city":"WILKESVILLE","state":"OH","zip":"45695","phone":"7405965820","website":"","email":"info@sfcla.org","description":"Since 1972, St. Francis Center has provided hunger-relief and supportive services to our community. In order to recieve our pantry, you must first register on our website or in person (Fridays 12 - 1 pm)."},{"id":"67a310cf-9c39-4ae5-8350-6090c26ce71e","lat":41.06947,"lng":-81.74175,"name":"Wadsworth","org":"Helping Hands Ministry","address":"7615 Ridge Rd, Wadsworth, OH 44281","city":"Wadsworth","state":"OH","zip":"44281","phone":"330-336-4622","website":"","email":"","description":"Community food assistance organization providing choice pantry services to families in need"},{"id":"cd4c50a9-d3f8-437a-bf93-c5249afc9287","lat":40.32526,"lng":-82.14111,"name":"Warsaw","org":"Free Pentecostal Holiness Church Pantry","address":"24136 Township Road 113, Warsaw, OH 43844","city":"Warsaw","state":"OH","zip":"43844","phone":"740-824-3201","website":"","email":"","description":"A church-based food pantry providing prepack food assistance to community members in need."},{"id":"80febf03-bb0f-4b8d-b12a-7d83133a294c","lat":41.521849,"lng":-83.736492,"name":"Waterville","org":"Anthony Wayne Community Food Ministry, Inc.","address":"8217 Dutch Road, Waterville, OH 43566","city":"Waterville","state":"OH","zip":"43566","phone":"(844)643-6637","website":"https://www.awcfm.com/","email":"info@awcfm.com","description":"Community food ministry providing food pantry services to residents in the Waterville, Ohio area through the Toledo Northwestern Ohio Food Bank network."},{"id":"0b2167b6-b76a-440c-a235-38396bc748a8","lat":41.557279,"lng":-84.135289,"name":"Wauseon","org":"Emmaus Lutheran Church","address":"841 N. Shoop Ave., Wauseon, OH 43567","city":"Wauseon","state":"OH","zip":"43567","phone":"(419)445-8361","website":"","email":"","description":"Lutheran church providing food pantry services to the community"},{"id":"f51b921d-d43a-4639-983e-c82a62906984","lat":41.549795,"lng":-84.140449,"name":"Wauseon","org":"Wauseon - Fish Food Pantry","address":"129 E. Elm St., Wauseon, OH 43567","city":"Wauseon","state":"OH","zip":"43567","phone":"(419)337-7342","website":"","email":"","description":"Community food pantry providing emergency food assistance to families and individuals in need in the Wauseon area."},{"id":"c8dcaef7-1690-4ec3-9b9f-49cf06573b97","lat":40.66700458,"lng":-81.25711108,"name":"Waynesburg","org":"Helping Hands Network","address":"126 S Main St, Waynesburg, OH 44688","city":"Waynesburg","state":"OH","zip":"44688","phone":"330-866-2005","website":"","email":"","description":"Community organization providing food pantry services to residents of the Sandy Valley Local School District"},{"id":"ae7fe2a6-93c1-4b3e-b9d8-b196b47ec603","lat":39.9748441,"lng":-83.086584,"name":"West Scioto","org":"Church Triumphant","address":"1001 Vera Place, West Scioto, OH 43204","city":"West Scioto","state":"OH","zip":"43204","phone":"(614) 272-6256","website":"https://tctoc.org/","email":"","description":"Community church providing food assistance and emergency services to local families"},{"id":"8559642a-35fd-4615-8c2e-c07804ec1d18","lat":41.451244,"lng":-83.360195,"name":"Woodville","org":"Woodville Good Samaritan Council","address":"212 Bridge Street, Woodville, OH 43469","city":"Woodville","state":"OH","zip":"43469","phone":"(419)849-2400","website":"","email":"","description":"Community organization providing food assistance through a food pantry program"},{"id":"032a4fac-0048-48cd-8fda-7d83b2de5f18","lat":40.80254,"lng":-81.93604,"name":"Wooster","org":"People to People Ministries","address":"454 E Bowman St, Wooster, OH 44691","city":"Wooster","state":"OH","zip":"44691","phone":"330-262-1662","website":"","email":"","description":"Community ministry organization providing food pantry services to individuals and families in need."},{"id":"3f603f94-c086-4578-b2d8-5e8b78337974","lat":40.15899,"lng":-80.70464,"name":"YORKVILLE","org":"Yorkville Methodist Church","address":"121 3RD ST, YORKVILLE, OH 43971","city":"YORKVILLE","state":"OH","zip":"43971","phone":"740-859-3455","website":"","email":"","description":"Methodist church providing food assistance services including produce markets and pantry services to the community."},{"id":"c6d527cc-4007-4be5-94ac-a05e03a13407","lat":39.282937,"lng":-82.39324,"name":"Zaleski Mobile","org":"St. Francis Center","address":"St. Sylvester's Parish Hall 119 N 2nd St., ZALESKI, OH 45698","city":"ZALESKI","state":"OH","zip":"45698","phone":"7405965820","website":"","email":"info@sfcla.org","description":"Since 1972, St. Francis Center has provided hunger-relief and supportive services to our community. In order to recieve our pantry, you must first register on our website or in person (Fridays 12 - 1 pm)."},{"id":"ada2bf36-72d0-4080-a1fb-5c49dda61a55","lat":39.93576,"lng":-82.00142,"name":"ZANESVILLE","org":"Eastside Community Ministry Food Pantry","address":"221 STILLWELL ST, ZANESVILLE, OH 43701","city":"ZANESVILLE","state":"OH","zip":"43701","phone":"740-452-7519","website":"","email":"","description":"Community food pantry providing choice pantry services to families and individuals in need in the Zanesville, Ohio area."}]}