{"metadata":{"generated":"2025-08-05T21:28:09.906136+00:00","total_locations":5,"states_covered":42,"coverage":"42 US states/territories","source":"HAARRRvest - Pantry Pirate Radio Database","database_path":"pantry_pirate_radio.sqlite","format_version":"1.0","filtered_by":"state = State not available"},"locations":[{"id":"b7a09e3c-8bee-45ca-83af-fe7065b5c826","lat":33.4047482,"lng":-86.9694655,"name":"City not available","org":"Triumph the Church and Kingdom of God in Christ","address":"Address not available, City not available, State not available 00000","city":"City not available","state":"State not available","zip":"00000","phone":"(205)4246892","website":"","email":"","description":"Organization information not available"},{"id":"8dcb65e9-2fa0-410b-ad22-d5fec9c3d583","lat":34.0396194,"lng":-94.3429125,"name":"City not available","org":"First Presbyterian Church","address":"Address not available, City not available, State not available Postal code not available","city":"City not available","state":"State not available","zip":"Postal code not available","phone":"(662)8434239","website":"","email":"firstpca@fpcweaverville.com","description":"Food service organization: First Presbyterian Church"},{"id":"1cbba74d-96c0-4d39-b807-21f3149dd501","lat":34.177836899999996,"lng":-85.76490799999999,"name":"City not available","org":"Leesburg Missionary Baptist Church","address":"Address not available, City not available, State not available Postal code not available","city":"City not available","state":"State not available","zip":"Postal code not available","phone":"(256)5267595","website":"","email":"","description":"Organization information not available"},{"id":"5463ce25-76e8-4f90-8b53-2de56942d25a","lat":33.9354515,"lng":-83.7163467,"name":"City not available","org":"Bethlehem First United Methodist Church","address":"Address not available, City not available, State not available Postal code not available","city":"City not available","state":"State not available","zip":"Postal code not available","phone":"(770)8673727","website":"","email":"","description":"Organization information not available"},{"id":"08bdb141-855e-4ffd-b49e-f4b072ed0a39","lat":35.7300561,"lng":-85.91933159999999,"name":"City not available","org":"Centertown United Methodist Church","address":"Address not available, City not available, State not available Postal code not available","city":"City not available","state":"State not available","zip":"Postal code not available","phone":"(931)9393701","website":"","email":"","description":"Organization information not available"}]}