{"metadata":{"generated":"2025-08-04T14:16:27.447406+00:00","total_locations":3,"states_covered":35,"coverage":"35 US states/territories","source":"HAARRRvest - Pantry Pirate Radio Database","database_path":"pantry_pirate_radio.sqlite","format_version":"1.0","filtered_by":"state = State not provided"},"locations":[{"id":"c90bad91-2f03-4bd3-a635-dfe179cd007a","lat":34.6345233,"lng":-120.4588509,"name":"City not provided","org":"La Purisma Catholic Church - Food Distribution Center","address":"Address not provided, City not provided, State not provided Postal code not provided","city":"City not provided","state":"State not provided","zip":"Postal code not provided","phone":"(805) 315-8592","website":"","email":"","description":"Food distribution services provided by La Purisma Catholic Church"},{"id":"7f873959-c251-43d6-9086-c4ed9c3ecece","lat":33.7462533,"lng":-116.9459633,"name":"City not provided","org":"Valley Community Pantry","address":"Address not provided, City not provided, State not provided Postal code not provided","city":"City not provided","state":"State not provided","zip":"Postal code not provided","phone":"(951) 929-1101","website":"","email":"","description":"Community food pantry providing food assistance services"},{"id":"25de3408-c10f-48ae-89dc-81cfb32bc23d","lat":34.533178299999996,"lng":-101.7741053,"name":"City not provided","org":"El Buen Pastor United Methodist Church","address":"Address not provided, City not provided, State not provided Postal code not provided","city":"City not provided","state":"State not provided","zip":"Postal code not provided","phone":"(806)9952403","website":"","email":"","description":"El Buen Pastor United Methodist Church"}]}