{"metadata":{"generated":"2025-07-27T04:08:36.038554+00:00","total_locations":26,"states_covered":26,"coverage":"26 US states/territories","source":"HAARRRvest - Pantry Pirate Radio Database","database_path":"pantry_pirate_radio.sqlite","format_version":"1.0","filtered_by":"state = TX"},"locations":[{"id":"a1482efe-9167-4e70-a1ec-466aab688653","lat":27.73989,"lng":-98.08245,"name":"Alice Mobile Pantry Location","org":"MP - Mi Casa Home Health Agency","address":"2020 N JOHNSON ST, ALICE, TX 78332","city":"ALICE","state":"TX","zip":"78332","phone":"(361)664-3900","website":"","email":"","description":"Mobile pantry service providing food assistance to residents"},{"id":"617b70cc-ba01-449e-af02-d06b3806ee03","lat":27.80437991,"lng":-97.79680988,"name":"MP - South Texas Colonial Initiative - Banquete Location","org":"MP - South Texas Colonial Initiative","address":"4339 Fourth St., BANQUETE, TX 78339","city":"BANQUETE","state":"TX","zip":"78339","phone":"(361)854-5248","website":"","email":"","description":"Food assistance organization providing mobile pantry services"},{"id":"8ef67fcf-bd68-4135-b2ed-40c6a3bb5872","lat":28.40522,"lng":-97.74901,"name":"BEEVILLE","org":"MP - First United Methodist/First Baptist Beeville","address":"106 E CLEVELAND ST, BEEVILLE, TX 78102","city":"BEEVILLE","state":"TX","zip":"78102","phone":"UNKNOWN","website":"","email":"","description":"Food pantry providing prepack pantry services"},{"id":"3ec54019-07ea-411f-95a4-572bf56ff4c9","lat":28.40492969,"lng":-97.74965309,"name":"BEEVILLE","org":"MP - First United Methodist/First Baptist Beeville","address":"106 E CLEVELAND ST, BEEVILLE, TX 78102","city":"BEEVILLE","state":"TX","zip":"78102","phone":"UNKNOWN","website":"","email":"","description":"Food pantry providing prepack pantry services"},{"id":"7a5d06f4-8040-484e-8cf2-8e8eec3b1a0c","lat":27.58143,"lng":-97.80057,"name":"MP - Bishop Location","org":"MP - Bishop","address":"103 E JOYCE ST, BISHOP, TX 78343","city":"BISHOP","state":"TX","zip":"78343","phone":"(361)206-1714","website":"","email":"","description":"Mobile food pantry service providing prepack pantry distributions"},{"id":"3266261b-01c3-4ede-b68b-9259931cce4b","lat":25.905764,"lng":-97.491386,"name":"Brownsville","org":"Mesa Llena Food Program","address":"1254 E Tyler St, Brownsville, TX 78520","city":"Brownsville","state":"TX","zip":"78520","phone":"9565422368","website":"http://www.goodneighborsettlement.org","email":"","description":"Food program providing assistance to the community"},{"id":"0dfcad2b-7fa5-49f3-bb85-7473e742288e","lat":27.39611,"lng":-98.35586,"name":"MP - 3 in 1 Food Pantry Location","org":"MP - 3 in 1 Food Pantry","address":"2000 FM 716, CONCEPCION, TX 78349","city":"CONCEPCION","state":"TX","zip":"78349","phone":"(361)539-4377","website":"","email":"","description":"Food pantry providing mobile pantry services"},{"id":"9ff86141-3aaf-40ca-b99c-b11294254bd2","lat":27.75873,"lng":-97.41298,"name":"Casa De Dios -Pantry Location","org":"Casa De Dios -Pantry","address":"3402 AYERS ST, CORPUS CHRISTI, TX 78415","city":"CORPUS CHRISTI","state":"TX","zip":"78415","phone":"3618876291","website":"","email":"","description":"Food pantry providing prepack pantry services"},{"id":"1ec19758-93bd-405b-b0c7-2e185b0bd8c3","lat":27.80285,"lng":-97.4557,"name":"Diabetes Hands on Pantry Location","org":"Diabetes Hands On Program","address":"826 KRILL ST, CORPUS CHRISTI, TX 78408","city":"CORPUS CHRISTI","state":"TX","zip":"78408","phone":"361-887-7979","website":"","email":"","description":"Food pantry service providing choice pantry access"},{"id":"46f357d4-9963-46d1-882b-40fa5ef08967","lat":27.80068,"lng":-97.39401,"name":"MP - South Coastal AHEC Main Office","org":"MP - South Coastal AHEC","address":"400 MANN ST STE 400, CORPUS CHRISTI, TX 78401","city":"CORPUS CHRISTI","state":"TX","zip":"78401","phone":"(361)881-8133","website":"","email":"","description":"Organization providing mobile pantry services"},{"id":"86d40755-09f9-4ba5-bbf0-a7983020e853","lat":27.66172,"lng":-97.28646,"name":"MP - St. Peter's by the Sea United Methodist","org":"MP - St. Peter's by the Sea United Methodist","address":"1541 WALDRON RD PO BOX 18070, CORPUS CHRISTI, TX 78418","city":"CORPUS CHRISTI","state":"TX","zip":"78418","phone":"(361)937-1456","website":"","email":"","description":"United Methodist church providing mobile pantry services"},{"id":"fda63857-b628-459a-b88e-96659f19db2c","lat":27.642001,"lng":-97.770569,"name":"Driscoll Location","org":"MP - Driscoll","address":"133 W Dragon St., DRISCOLL, TX 78351","city":"DRISCOLL","state":"TX","zip":"78351","phone":"(361)726-5911","website":"","email":"","description":"Mobile food pantry providing prepack pantry services"},{"id":"aa16a7d5-5d69-427c-8442-fdad1130fdf6","lat":26.256742,"lng":-98.202003,"name":"Edinburg","org":"DHR Health","address":"101 Paseo Del Prado, Edinburg, TX 78539","city":"Edinburg","state":"TX","zip":"78539","phone":"(956) 362-2050","website":"www.dhrhealth.com","email":"","description":"DHR Health organization"},{"id":"66216e08-4c9a-43a6-9f86-fdb483dd1742","lat":27.23465,"lng":-98.14729,"name":"MP - Falfurrias Location","org":"MP - Falfurrias","address":"408 W TRAVIS ST, FALFURRIAS, TX 78355","city":"FALFURRIAS","state":"TX","zip":"78355","phone":"UNKNOWN","website":"","email":"","description":"Food pantry organization providing mobile pantry services"},{"id":"bcaca1c7-6f72-4f21-94e8-d1b5aa431c46","lat":32.6805,"lng":-97.26498,"name":"Herman Clark","org":"Tarrant Area Foodbank","address":"5201 Ca Roberson Blvd, FORT WORTH, TX 76119","city":"FORT WORTH","state":"TX","zip":"76119","phone":"817-857-7100","website":"","email":"","description":"Food assistance organization providing prepack pantry services"},{"id":"d3d2a996-0941-4cb3-a9bf-ab7f7b4ca3f6","lat":32.76137,"lng":-97.35254,"name":"Tarrant Area Foodbank Main Location","org":"Tarrant Area Foodbank","address":"2525 CULLEN ST, FORT WORTH, TX 76107","city":"FORT WORTH","state":"TX","zip":"76107","phone":"817-857-7100","website":"","email":"","description":"Food assistance organization providing prepack pantry services"},{"id":"a4d6f3bf-92af-40a0-b0d0-4502fb1bcbd6","lat":28.07983,"lng":-97.03203,"name":"NAD - Fulton Community Church","org":"NAD - Fulton Community Church","address":"215 N. 3rd St., FULTON, TX 78358","city":"FULTON","state":"TX","zip":"78358","phone":"(361) 729-2180","website":"","email":"","description":"Community church providing food pantry services"},{"id":"66b9eb82-8316-4be6-8295-3520fb526bd3","lat":27.514425,"lng":-97.86085,"name":"Los Hermanos Flores Park","org":"MP - Central Baptist Church","address":"N. 12th Street Los Hermanos Flores Park, KINGSVILLE, TX 78363","city":"KINGSVILLE","state":"TX","zip":"78363","phone":"(361)592-2381","website":"","email":"","description":"Mobile food pantry service providing prepack pantry distributions"},{"id":"d30488e0-0f68-4bbd-a7f9-c5cbcb5f5aab","lat":27.51701,"lng":-97.87784,"name":"MP - The Cross","org":"MP - The Cross","address":"109 N ARMSTRONG AVE, KINGSVILLE, TX 78363","city":"KINGSVILLE","state":"TX","zip":"78363","phone":"(361) 296-4187","website":"","email":"","description":"Food pantry service providing prepack pantry assistance"},{"id":"f98c1f64-a058-4413-94bf-4abbf13a77dc","lat":32.8084853,"lng":-97.41599839999999,"name":"Lake Worth","org":"Ragz2riches Foundation Inc","address":"6117 Graham Street, Lake Worth, TX 76135","city":"Lake Worth","state":"TX","zip":"76135","phone":"(716) 908-0751","website":"","email":"","description":"Ragz2Riches Meal Station: Serving Meals, Building Stronger Communities\n\nRagz2Riches Foundation invites you to join us every other Saturday from 12:00 PM to 2:00 PM for a ready-to-eat meal at our meal station. We are dedicated to supporting and uplifting our community, providing nourishment and connection to all who attend.\n\nDetails:\nüóìÔ∏è When: Every other Saturday\n‚è∞ Time: 12:00 PM - 2:00 PM\nüìç Where: 6117 Graham Street Lake Worth Texas \nü™™ What to Bring: Please have a valid ID ready.\n\nImportant Notes:\n\nMeals are served on a first come, first served basis.\nEveryone is welcome, regardless of religious preference or background.\nCome share in the spirit of community and care with Ragz2Riches. We look forward to serving you!"},{"id":"ba5545d4-9beb-4999-93be-f732df666925","lat":28.10022766,"lng":-97.82893756,"name":"NAD - Mathis Location","org":"NAD - Mathis","address":"525 N. Frio St., MATHIS, TX 78368","city":"MATHIS","state":"TX","zip":"78368","phone":"(361) 678-8956","website":"","email":"","description":"Food pantry providing prepack pantry services"},{"id":"8e0cac9b-ab8b-4aaa-9e40-7105dafaf3e5","lat":27.951121,"lng":-98.073418,"name":"Mobile Pantry - Orange Grove Location","org":"MP - South Coastal AHEC","address":"306 Voekel, ORANGE GROVE, TX 78372","city":"ORANGE GROVE","state":"TX","zip":"78372","phone":"(361)881-8133","website":"","email":"","description":"Organization providing mobile pantry services"},{"id":"46d7d639-8707-4224-ab8e-88555ece8922","lat":28.65174,"lng":-98.00255,"name":"MP - Pawnee Location","org":"MP - Pawnee","address":"14132 FM 673, PAWNEE, TX 78145","city":"PAWNEE","state":"TX","zip":"78145","phone":"(361)786-2706","website":"","email":"","description":"Mobile pantry providing food assistance services"},{"id":"9282a975-2802-46bb-bea9-7227f158f00d","lat":27.34559,"lng":-97.75819,"name":"Riviera Mobile Pantry Location","org":"MP - Riviera Christians in Action","address":"299 E. FM 771 P.O. BOX 126, RIVIERA, TX 78379","city":"RIVIERA","state":"TX","zip":"78379","phone":"(361)296-4187","website":"","email":"","description":"Food pantry organization providing mobile pantry services to the community"},{"id":"2fec2573-708f-4f39-94a0-27b252c2a287","lat":28.06194,"lng":-97.05755,"name":"MP - Coastal Oaks Church","org":"MP - Coastal Oaks Church","address":"2002 FM 3036, ROCKPORT, TX 78382","city":"ROCKPORT","state":"TX","zip":"78382","phone":"(361) 729-5320","website":"","email":"","description":"Mobile pantry service providing food assistance"},{"id":"76abf945-8c56-4cd1-8bf1-63ac8d3cd970","lat":29.41762,"lng":-98.5941,"name":"San Antonio Food Bank","org":"San Antonio Food Bank","address":"5200 Historic Old Hwy 90, SAN ANTONIO, TX 78227","city":"SAN ANTONIO","state":"TX","zip":"78227","phone":"(210)4318326","website":"","email":"","description":"Food distribution services providing emergency food assistance to individuals and families in need throughout South Texas"}]}