{"metadata":{"generated":"2025-08-04T13:23:06.575066+00:00","total_locations":3,"states_covered":32,"coverage":"32 US states/territories","source":"HAARRRvest - Pantry Pirate Radio Database","database_path":"pantry_pirate_radio.sqlite","format_version":"1.0","filtered_by":"state = Unknown"},"locations":[{"id":"8fad806e-fca9-4915-af93-5a1bd902dd0f","lat":33.622378,"lng":-86.6103582,"name":"Unknown","org":"First Baptist Church","address":"Unknown, Unknown, Unknown Unknown","city":"Unknown","state":"Unknown","zip":"Unknown","phone":"(662)8432701","website":"","email":"","description":"Food service organization: First Baptist Church"},{"id":"7b9253a1-24f3-4fba-9973-76c30e578a5b","lat":33.1073593,"lng":-83.2577992,"name":"Unknown","org":"Church Central","address":"Address Not Available, Unknown, Unknown 00000","city":"Unknown","state":"Unknown","zip":"00000","phone":"(478)4147812","website":"","email":"","description":"Church Central"},{"id":"8a6d744e-96b3-4fea-b7c3-3d0ce2038b65","lat":34.1837522,"lng":-119.1652572,"name":"Unknown","org":"Seventh Day Adventist Community Health Services - Food Distribution Center","address":"Unknown, Unknown, Unknown Unknown","city":"Unknown","state":"Unknown","zip":"Unknown","phone":"(805) 240-3440","website":"","email":"","description":"Food distribution services provided by Seventh Day Adventist Community Health Services"}]}