{"metadata":{"generated":"2025-08-06T15:12:29.648729+00:00","total_locations":202,"states_covered":44,"coverage":"44 US states/territories","source":"HAARRRvest - Pantry Pirate Radio Database","database_path":"pantry_pirate_radio.sqlite","format_version":"1.0","filtered_by":"state = WA"},"locations":[{"id":"99a32a42-9db7-487e-8c21-4161fee10870","lat":46.9741375,"lng":-123.8183349,"name":"Aberdeen","org":"Salvation Army Grays Harbor","address":"118 W Wishkah, Aberdeen, WA 98520","city":"Aberdeen","state":"WA","zip":"98520","phone":"","website":"","email":"","description":"Food bank operated by Salvation Army providing food assistance to community members in need."},{"id":"90ee1748-ac6c-43b1-aca6-39da835de12f","lat":48.519839736375,"lng":-122.60954555759,"name":"Anacortes","org":"Salvation Army Anacortes","address":"300 R Ave Unit 100, Anacortes, WA 98221","city":"Anacortes","state":"WA","zip":"98221","phone":"","website":"","email":"","description":"Food bank operated by Salvation Army providing food assistance services to the community"},{"id":"4f7c86ec-7eb4-4f11-b5ba-77a27e689f0c","lat":48.1548783,"lng":-122.1867093,"name":"Arlington","org":"Salt of the Earth Food Blessing","address":"3310 Smokey Point Dr, Arlington, WA 98223","city":"Arlington","state":"WA","zip":"98223","phone":"","website":"","email":"contact@soteblessings.org","description":"Food bank providing food assistance to community members in need"},{"id":"9d09b058-3706-4b30-b0ff-3a51d5ebe244","lat":48.1525393,"lng":-122.1617089,"name":"Arlington","org":"Volunteers Of America Everett Food Bank","address":"17212 51st Ave NE, Arlington, WA 98233","city":"Arlington","state":"WA","zip":"98233","phone":"","website":"","email":"","description":"Food bank operated by Volunteers Of America providing food assistance to the community in Arlington, Washington."},{"id":"6bf7586f-b7ab-4aa9-b21a-5aa520154aa9","lat":48.1627772,"lng":-122.1837971,"name":"Arlington","org":"Stilly Valley Center","address":"18308 Smokey Point Blvd, Arlington, WA 98223","city":"Arlington","state":"WA","zip":"98223","phone":"","website":"","email":"","description":"Community center providing food assistance services to residents in the Arlington area."},{"id":"3a66f33e-f06b-43d3-b8d4-e223bd6d2640","lat":47.2996261,"lng":-122.2203928,"name":"Auburn","org":"YMCA of Greater Seattle","address":"932 Auburn Way S., Auburn, WA 98002","city":"Auburn","state":"WA","zip":"98002","phone":"","website":"","email":"","description":"YMCA organization providing food bank services to the Greater Seattle area community"},{"id":"49402ce7-2df0-40f7-8280-59391ff6e4f2","lat":47.6275854,"lng":-122.1396116,"name":"Bellevue","org":"Renewal Food Bank","address":"15022 Bel-Red Rd, Bellevue, WA 98006","city":"Bellevue","state":"WA","zip":"98006","phone":"","website":"","email":"","description":"Food bank providing food assistance and distribution services to the community"},{"id":"be54c8cc-c5ad-48e0-bfa6-e6be73d13ca4","lat":48.769103,"lng":-122.491767,"name":"Bellingham","org":"Salvation Army Bellingham","address":"2912 Northwest Ave, Bellingham, WA 98227","city":"Bellingham","state":"WA","zip":"98227","phone":"","website":"","email":"","description":"Food bank providing emergency food assistance to individuals and families in need in the Bellingham area."},{"id":"61e09037-2722-4708-9fcd-1b686e3f265d","lat":47.571449,"lng":-122.6533827,"name":"Bremerton","org":"St. Vincent De Paul Bremerton","address":"1137 N Callow Ave, Bremerton, WA 98312","city":"Bremerton","state":"WA","zip":"98312","phone":"","website":"","email":"","description":"Food bank providing emergency food assistance to community members in need"},{"id":"787c9fd5-1686-4451-adac-5a9e5e24c975","lat":47.5675695,"lng":-122.6318985,"name":"Bremerton","org":"Salvation Army Bremerton","address":"832 6th St, Bremerton, WA 98337","city":"Bremerton","state":"WA","zip":"98337","phone":"","website":"","email":"","description":"Food bank operated by The Salvation Army providing food assistance to individuals and families in the Bremerton area."},{"id":"4d598346-c0ae-444f-9cb4-c3632f989d1a","lat":48.4731886,"lng":-122.3513721,"name":"Burlington","org":"Tri-Parish Food Bank","address":"935 Peterson Rd, Burlington, WA 98233","city":"Burlington","state":"WA","zip":"98233","phone":"","website":"","email":"","description":"Food bank providing food assistance and emergency food supplies to individuals and families in need"},{"id":"b9484e39-013f-483c-9db6-901e42a5794b","lat":46.19891,"lng":-123.381642,"name":"Cathlamet","org":"St. Vincent De Paul at St. Catherine's","address":"400 Columbia St, Cathlamet, WA 98612","city":"Cathlamet","state":"WA","zip":"98612","phone":"","website":"","email":"","description":"Food bank operated by St. Vincent De Paul providing food assistance to community members in need."},{"id":"1dc7d106-dbef-4697-a78e-2b3ff3e7866d","lat":46.7178205,"lng":-122.9512628,"name":"Centralia","org":"Salvation Army Centralia","address":"303 N Gold St, Centralia, WA 98531","city":"Centralia","state":"WA","zip":"98531","phone":"","website":"","email":"","description":"Food assistance organization providing food bank services to the Centralia community"},{"id":"b5781ade-4560-4c7b-bbfe-00dc0de73ed0","lat":47.3666345,"lng":-122.1029597,"name":"Covington","org":"The Storehouse","address":"26201 180th Ave SE, Covington, WA 98042","city":"Covington","state":"WA","zip":"98042","phone":"(205)2652900","website":"","email":"","description":"A food bank providing food assistance to the community in Covington, Washington"},{"id":"eb1e5630-a6cb-4259-86d1-ff4ddb4a1c38","lat":47.7915066,"lng":-122.3571731,"name":"Edmonds","org":"Westgate Chapel Food Bank","address":"22901 Edmonds Way, Edmonds, WA 98020","city":"Edmonds","state":"WA","zip":"98020","phone":"","website":"","email":"","description":"Food bank providing food assistance to the community in Edmonds, Washington"},{"id":"1e91ee9e-61ee-4087-9a88-9b47104cf79a","lat":47.0039716,"lng":-123.4054998,"name":"Elma","org":"Set Free Christian Fellowship Meal Program","address":"427 W Main St, Elma, WA 98541","city":"Elma","state":"WA","zip":"98541","phone":"","website":"","email":"","description":"Christian fellowship organization providing meal programs to the community"},{"id":"66a98753-a7f6-4488-be15-d38a8eaa8904","lat":47.9837524,"lng":-122.2109162,"name":"Everett","org":"Salvation Army Everett","address":"2525 Rucker Ave, Everett, WA 98206","city":"Everett","state":"WA","zip":"98206","phone":"","website":"","email":"","description":"Community food assistance organization providing food bank services in Everett, Washington."},{"id":"7247e218-b5fb-4d59-aebc-9d0fc509bcc3","lat":47.3255351,"lng":-122.313915,"name":"Federal Way","org":"Urban Food Systems Pact - Into His Chamber International Church Ministry","address":"30817 Pacific Hwy S, Federal Way, WA 98003","city":"Federal Way","state":"WA","zip":"98003","phone":"","website":"","email":"","description":"Food bank organization providing food assistance services to the community through Into His Chamber International Church Ministry."},{"id":"ed4976f8-6870-4895-8b44-c7f640260794","lat":47.314479228721,"lng":-122.300938313036,"name":"Federal Way","org":"South King Healthcare Services","address":"2505 S 320th st Suite 235, Federal Way, WA 98003","city":"Federal Way","state":"WA","zip":"98003","phone":"","website":"","email":"","description":"Healthcare services organization operating a food bank to support community food security needs"},{"id":"e04cbed2-912b-4b22-8470-78f6cd00d8ae","lat":46.139541466785,"lng":-122.900115057314,"name":"Kelso","org":"South Kelso Neighborhood Association","address":"351 Three Rivers Dr #212, Kelso, WA 98626","city":"Kelso","state":"WA","zip":"98626","phone":"","website":"","email":"","description":"Community organization providing food assistance services through food bank operations in Kelso, Washington."},{"id":"0797ab22-d393-4756-b548-e0574219f3aa","lat":47.3741943,"lng":-122.2370044,"name":"Kent","org":"Sacred Heart Shelter","address":"739 3rd Ave S, Kent, WA 98032","city":"Kent","state":"WA","zip":"98032","phone":"","website":"","email":"","description":"Sacred Heart Shelter provides shelter services to individuals and families in need in Kent, Washington."},{"id":"c1161c0a-058b-4018-97c8-7c80bb57dd1d","lat":47.800060020667,"lng":-122.508955440721,"name":"Kingston","org":"Sharenet Food Bank","address":"25994 Barber Cut-Off Rd, Kingston, WA 98346","city":"Kingston","state":"WA","zip":"98346","phone":"","website":"","email":"","description":"Food bank providing food assistance to community members in need"},{"id":"24501dbb-e5f1-49f3-a916-2534762cc07c","lat":47.9036536,"lng":-124.6290055,"name":"La Push","org":"Quileute Tribe","address":"191 Ocean Drive, La Push, WA 98350","city":"La Push","state":"WA","zip":"98350","phone":"","website":"","email":"","description":"Tribal organization providing food assistance services to the community through food bank operations."},{"id":"0bc59bed-d633-4d0f-9f36-2b4884b7292c","lat":47.0405544,"lng":-122.8093442,"name":"Lacey","org":"Sacred Heart Food Pantry","address":"812 Bowker St SE, Lacey, WA 98509","city":"Lacey","state":"WA","zip":"98509","phone":"(518) 668-2046","website":"https://www.sacredheartlg.org/event-items/food-pantry-open/","email":"","description":"Food pantry providing food assistance to community members in Lake George, NY area"},{"id":"00744748-8293-4d62-bd7f-7efb98139c0b","lat":46.125986672065,"lng":-122.951126984763,"name":"Longview","org":"Republican","address":"503 20th Ave E, Longview, WA 98632","city":"Longview","state":"WA","zip":"98632","phone":"","website":"https://www.seattle.gov/neighborhoods/p-patch-gardening/garden-list/republican","email":"p-patch.don@seattle.gov","description":"Community garden providing space for local food production and gardening activities."},{"id":"812abbdc-a94f-4f85-842e-9dc7a9ef643a","lat":46.1230079,"lng":-122.9395142,"name":"Longview","org":"St. Vincent De Paul Longview Food Bank","address":"1222 Baltimore St, Longview, WA 98632","city":"Longview","state":"WA","zip":"98632","phone":"","website":"","email":"","description":"Food bank providing food assistance to community members in need"},{"id":"62d6e80d-45e7-4900-bbfe-c694860325ee","lat":46.1406241,"lng":-122.9289122,"name":"Longview","org":"Salvation Army Kelso/Longview","address":"1639 10th Ave, Longview, WA 98632","city":"Longview","state":"WA","zip":"98632","phone":"","website":"","email":"","description":"Salvation Army location providing food assistance services to the Kelso/Longview community through food bank operations."},{"id":"5fecd741-3523-4aef-b02e-31a6cd0d47cf","lat":47.8463672,"lng":-121.9788276,"name":"Monroe","org":"Sky Valley Food Bank","address":"233 Sky River Pwy, Monroe, WA 98272","city":"Monroe","state":"WA","zip":"98272","phone":"","website":"","email":"","description":"Food bank providing food assistance and emergency food services to individuals and families in need"},{"id":"bd7819f4-6ba5-4e94-b400-3fbad547c992","lat":48.4099835,"lng":-122.3382059,"name":"Mount Vernon","org":"Skagit Valley Neighbors In Need","address":"1615 S 2nd St, Mount Vernon, WA 98273","city":"Mount Vernon","state":"WA","zip":"98273","phone":"","website":"","email":"","description":"Community food bank providing food assistance to local residents in need"},{"id":"2151d957-6d76-4b80-ab94-30d232efffd9","lat":47.4963542,"lng":-121.7833138,"name":"North Bend","org":"Snoqualmie Valley Food Bank","address":"122 E 3rd St, North Bend, WA 98045","city":"North Bend","state":"WA","zip":"98045","phone":"","website":"","email":"","description":"Food bank serving the Snoqualmie Valley community with food assistance programs"},{"id":"57588e4e-c93c-4a8f-8de5-63b89553b95f","lat":47.0477438,"lng":-122.8999995,"name":"Olympia","org":"Thurston County Food Bank","address":"220 Thurston Ave NE, Olympia, WA 98501","city":"Olympia","state":"WA","zip":"98501","phone":"","website":"","email":"","description":"Food bank providing food assistance to individuals and families in Thurston County, Washington."},{"id":"a7068350-6e40-45e2-a1a2-a0ed9272d995","lat":48.1224514,"lng":-123.4912359,"name":"Port Angeles","org":"Serenity House","address":"2321 W 18th St, Port Angeles, WA 98363","city":"Port Angeles","state":"WA","zip":"98363","phone":"","website":"","email":"","description":"Food bank providing food assistance services to the community"},{"id":"e69d01fe-29c4-4ca1-bb5a-2b58a9266265","lat":48.1164888,"lng":-123.4281557,"name":"Port Angeles","org":"Salvation Army Port Angeles","address":"123 S Peabody St, Port Angeles, WA 98362","city":"Port Angeles","state":"WA","zip":"98362","phone":"","website":"","email":"","description":"Food assistance organization providing food bank services to the Port Angeles community"},{"id":"c544128c-6118-48bc-afca-a46694a4fb2d","lat":48.0226457,"lng":-122.7671693,"name":"Port Hadlock","org":"Tri Area Food Bank","address":"760 Chimacum Rd, Port Hadlock, WA 98339","city":"Port Hadlock","state":"WA","zip":"98339","phone":"","website":"","email":"","description":"Food bank providing food assistance to the community"},{"id":"2a33a462-2522-42a6-8dfd-3130118f9101","lat":47.5343647,"lng":-122.6257074,"name":"Port Orchard","org":"South Kitsap Helpline","address":"1012 Mitchell Ave, Port Orchard, WA 98366","city":"Port Orchard","state":"WA","zip":"98366","phone":"","website":"","email":"","description":"Food bank providing emergency food assistance to families and individuals in the South Kitsap area"},{"id":"6d423637-4253-4d80-a677-0b6ab2623c47","lat":47.1534036,"lng":-122.3032532,"name":"Puyallup","org":"Salvation Army Puyallup Valley","address":"4009 9th St SW, Puyallup, WA 98373","city":"Puyallup","state":"WA","zip":"98373","phone":"","website":"","email":"","description":"Food pantry service providing food assistance to the Puyallup Valley community through the Salvation Army organization."},{"id":"03faf647-dfcc-4d20-879c-f8f16a612bb2","lat":47.8216548,"lng":-122.8791026,"name":"Quilcene","org":"Quilcene Food Bank","address":"294952 Hwy 101, Quilcene, WA 98376","city":"Quilcene","state":"WA","zip":"98376","phone":"","website":"","email":"","description":"Community food bank providing food assistance and emergency food supplies to individuals and families in need."},{"id":"4e44c7a3-8641-45df-9e96-b50b6a628e2e","lat":46.535698835056,"lng":-121.925609094056,"name":"Randle","org":"White Pass Food Bank","address":"116 Kindle Rd, Randle, WA 98377","city":"Randle","state":"WA","zip":"98377","phone":"","website":"","email":"","description":"Food bank providing food assistance to the community"},{"id":"dfbede02-c27e-4706-be44-62d22a47b7ab","lat":47.489152600751,"lng":-122.177321753547,"name":"Renton","org":"Renton Technical College","address":"3000 NE 4th St Building C Room 102, Renton, WA 98056","city":"Renton","state":"WA","zip":"98056","phone":"","website":"","email":"","description":"Technical college providing food assistance through an on-campus food bank"},{"id":"4c377607-ccc4-400e-9b91-3e933cd15b2a","lat":47.4742782,"lng":-122.2206323,"name":"Renton","org":"Urban Food Systems Pact -Renton School District Elementary Schools","address":"300 SW 7th St, Renton, WA 98057","city":"Renton","state":"WA","zip":"98057","phone":"","website":"","email":"","description":"Food bank services provided through Renton School District Elementary Schools in partnership with Food Lifeline"},{"id":"4b6c1365-e4f4-441f-b655-e382a0ef2461","lat":47.443533044981,"lng":-122.15111740965,"name":"Renton","org":"Team Attitude","address":"14203 177th SE A303, Renton, WA 98058","city":"Renton","state":"WA","zip":"98058","phone":"","website":"","email":"","description":"Community organization providing food bank services to support local residents in need."},{"id":"afcc9f3e-fa07-4949-9090-a028656e3ac4","lat":47.4840079,"lng":-122.2140885,"name":"Renton","org":"Salvation Army Renton","address":"206 S Tobin St, Renton, WA 98055","city":"Renton","state":"WA","zip":"98055","phone":"","website":"","email":"","description":"Food bank operated by The Salvation Army providing food assistance to the community in Renton, Washington."},{"id":"536bc77b-bb07-4378-aa65-035334319351","lat":46.822491,"lng":-123.0965327,"name":"Rochester","org":"ROOF Community Services","address":"10140 Hwy 12, Rochester, WA 98579","city":"Rochester","state":"WA","zip":"98579","phone":"","website":"","email":"","description":"Community organization providing food assistance through food bank services in Rochester, Washington."},{"id":"ec2602b6-27f1-4faa-96ec-4e40c92a4eb1","lat":47.5963414,"lng":-122.03452,"name":"Sammamish","org":"Vedic Cultural Center","address":"1420 228th Ave SE, Sammamish, WA 98075","city":"Sammamish","state":"WA","zip":"98075","phone":"","website":"","email":"","description":"Cultural center providing food bank services to the community"},{"id":"19899232-3197-4a44-a3a3-12b5eee1af1c","lat":47.6205604,"lng":-122.3545167,"name":"Queen Anne Food Program at Sacred Heart FB","org":"Queen Anne Food Program at Sacred Heart FB","address":"232 Warren Ave N, Seattle, WA 98109","city":"Seattle","state":"WA","zip":"98109","phone":"","website":"","email":"","description":"Food bank providing food assistance services to the community in Seattle, Washington."},{"id":"f34500e9-5e18-4466-82ea-f8cae7ae549d","lat":47.6664252,"lng":-122.3029968,"name":"Ravenna Community Garden","org":"Ravenna Community Garden","address":"5200 Ravenna Ave NE, Seattle, WA 98105","city":"Seattle","state":"WA","zip":"98105","phone":"","website":"https://www.seattle.gov/neighborhoods/p-patch-gardening/garden-list/ravenna","email":"p-patch.don@seattle.gov","description":"Community garden providing space for residents to grow their own food and participate in community gardening activities."},{"id":"aa4a163b-1c6f-4369-b0cb-18d983ceb599","lat":47.5217192,"lng":-122.3548636,"name":"Salvation Army White Center Food Bank Location","org":"Salvation Army White Center Food Bank","address":"9050 16th Ave SW, Seattle, WA 98146","city":"Seattle","state":"WA","zip":"98146","phone":"","website":"","email":"","description":"Food bank operated by the Salvation Army providing food assistance to the community."},{"id":"234170c9-eabf-4715-995b-1d94547db5fc","lat":47.7083777,"lng":-122.3550889,"name":"Seattle","org":"Salvation Army Adult Rehab Center","address":"10750 Greenwood Ave N, Seattle, WA 98133","city":"Seattle","state":"WA","zip":"98133","phone":"","website":"","email":"","description":"Adult rehabilitation center operated by The Salvation Army providing food assistance through their food bank program."},{"id":"ed87d0fa-8c98-4b69-83ff-70b00d74c9ba","lat":47.6624223,"lng":-122.3075758,"name":"Seattle","org":"ROOTS","address":"4541 19th Ave NE, Seattle, WA 98105","city":"Seattle","state":"WA","zip":"98105","phone":"","website":"","email":"","description":"Community food bank providing food assistance services"},{"id":"e58275f4-95ef-4ad6-b2f2-528ba28c4504","lat":47.5102052,"lng":-122.2697135,"name":"Seattle","org":"Restore and Repair Outreach","address":"10030 51st Ave S, Seattle, WA 98178","city":"Seattle","state":"WA","zip":"98178","phone":"","website":"","email":"","description":"Community organization providing food assistance through food bank services in Seattle, Washington."},{"id":"4a17f19f-d785-41d2-a4dc-c0fa6f706c27","lat":47.6182751,"lng":-122.3346219,"name":"Seattle","org":"Recovery Cafe","address":"2022 Boren Ave, Seattle, WA 98121","city":"Seattle","state":"WA","zip":"98121","phone":"","website":"","email":"","description":"A food assistance organization providing food bank services to the community."},{"id":"e128f242-35b9-4f00-9a1e-1cdd6081cdd1","lat":47.5625438,"lng":-122.2938019,"name":"Seattle","org":"Rainier Vista Boys & Girls Club","address":"4520 Martin Luther King Jr Way S, Seattle, WA 98108","city":"Seattle","state":"WA","zip":"98108","phone":"","website":"","email":"","description":"Boys & Girls Club providing food bank services to the community"},{"id":"5755776b-4653-4800-85a4-4e37cbfd6ec7","lat":47.5225503,"lng":-122.2704621,"name":"Seattle","org":"Rainier Valley Food Bank","address":"9021 Rainier Ave S., Seattle, WA 98118","city":"Seattle","state":"WA","zip":"98118","phone":"","website":"","email":"","description":"Food bank providing food assistance and grocery distribution services to individuals and families in the Rainier Valley area of Seattle."},{"id":"614571cd-7b30-4b52-97b7-bce0409eef5e","lat":47.5190005,"lng":-122.358199,"name":"Seattle","org":"Delridge Farmers Market","address":"9421 18th Ave SW, Seattle, WA 98106","city":"Seattle","state":"WA","zip":"98106","phone":"","website":"https://www.achdo.org/delridgefarmersmarket","email":"","description":"Farmers market providing fresh produce and local goods in the Delridge neighborhood of Seattle."},{"id":"8566c141-55b6-4208-bab1-00b73676db91","lat":47.531504,"lng":-122.320037,"name":"Seattle","org":"El Mercadito Co-Op Pop-Up & Farmer's Market","address":"7900 10th Ave S, Seattle, WA 98108","city":"Seattle","state":"WA","zip":"98108","phone":"","website":"https://cultivatesouthpark.org/mercadito","email":"","description":"Community pop-up farmer's market providing fresh produce and food access in South Park, Seattle."},{"id":"605adf79-6c35-41d0-9e69-ce4cdb196034","lat":47.5260258,"lng":-122.2619035,"name":"Seattle","org":"Rainier Beach Urban Farm & Wetlands","address":"5513 S Cloverdale St, Seattle, WA 98118","city":"Seattle","state":"WA","zip":"98118","phone":"","website":"https://tilthalliance.org/our-work/urban-farms-gardens/rainier-beach-urban-farm-wetlands/","email":"","description":"Urban farm and wetlands providing community gardens and farm stand services in the Rainier Beach area of Seattle."},{"id":"b54c6359-9455-400f-89aa-72de2b7558d3","lat":47.522731,"lng":-122.345454,"name":"Seattle","org":"Westcrest Garden","address":"9000 8th Ave SW, Seattle, WA 98106","city":"Seattle","state":"WA","zip":"98106","phone":"","website":"https://www.seattle.gov/neighborhoods/p-patch-gardening/garden-list/westcrest-garden","email":"p-patch.don@seattle.gov","description":"Community garden providing space for local residents to grow their own food and participate in community gardening activities."},{"id":"4386028a-ee5b-4eb7-b46c-ed6a2d8a6b48","lat":47.6022219,"lng":-122.3047799,"name":"Seattle","org":"Clean Greens Farm & Farm Market","address":"116 21st Ave, Seattle, WA 98122","city":"Seattle","state":"WA","zip":"98122","phone":"","website":"https://www.cleangreensfarmmarket.com/csa","email":"blackdollarcleangreens@gmail.com","description":"Farm market offering Community Supported Agriculture (CSA) programs providing fresh, locally grown produce to the Seattle community."},{"id":"a0ae9cc0-14a0-4617-a184-a23948c8a81f","lat":47.602676,"lng":-122.3024328,"name":"Seattle","org":"Squire Park","address":"14th Ave & E Fir St, Seattle, WA 98122","city":"Seattle","state":"WA","zip":"98122","phone":"","website":"https://www.seattle.gov/neighborhoods/p-patch-gardening/garden-list/squire-park","email":"p-patch.don@seattle.gov","description":"Community garden providing space for local residents to grow their own fresh produce"},{"id":"46bb6992-a283-4726-949b-ba37ff094c46","lat":47.5620426,"lng":-122.3164401,"name":"Seattle","org":"Snoqualmie P-Patch Community Garden","address":"4549 13th Ave S, Seattle, WA 98108","city":"Seattle","state":"WA","zip":"98108","phone":"","website":"https://www.seattle.gov/neighborhoods/p-patch-gardening/garden-list/snoqualmie4549 13th Ave S","email":"p-patch.don@seattle.gov","description":"Community garden providing space for local food production and gardening activities in Seattle"},{"id":"968dc0cd-9650-48df-b238-ded4401de01e","lat":47.6658699,"lng":-122.3135511,"name":"Seattle","org":"University Heights","address":"5031 University Way NE, Seattle, WA 98105","city":"Seattle","state":"WA","zip":"98105","phone":"","website":"https://www.seattle.gov/neighborhoods/p-patch-gardening/garden-list/university-heights","email":"p-patch.don@seattle.gov","description":"Community garden facility providing gardening space and resources for local residents"},{"id":"08b14352-1914-4126-84b5-fd5085a724e8","lat":47.6560496,"lng":-122.3199207,"name":"Seattle","org":"University District","address":"4009 8th Ave NE, Seattle, WA 98105","city":"Seattle","state":"WA","zip":"98105","phone":"","website":"https://www.seattle.gov/neighborhoods/p-patch-gardening/garden-list/university-district","email":"p-patch.don@seattle.gov","description":"Community garden facility providing gardening space and resources for local residents"},{"id":"9acf6954-daff-4af9-aa2c-ba939754c80a","lat":47.6721834,"lng":-122.3605938,"name":"Seattle","org":"Phinney Ridge","address":"5926 3rd Ave NW, Seattle, WA 98107","city":"Seattle","state":"WA","zip":"98107","phone":"","website":"https://www.seattle.gov/neighborhoods/p-patch-gardening/garden-list/phinney-ridge","email":"p-patch.don@seattle.gov","description":"Community garden providing space for local food production and gardening activities."},{"id":"dd9d29c9-09b7-4b94-8a81-f858ee3f6814","lat":47.6177101,"lng":-122.3124323,"name":"Seattle","org":"Howell Collective","address":"1514 E Howell St, Seattle, WA 98122","city":"Seattle","state":"WA","zip":"98122","phone":"","website":"https://www.seattle.gov/neighborhoods/p-patch-gardening/garden-list/howell-collective","email":"p-patch.don@seattle.gov","description":"Community garden collective providing access to gardening space and resources in Seattle"},{"id":"234486cd-9351-4da7-8d38-1fbc09707752","lat":47.6000413,"lng":-122.3299333,"name":"Seattle","org":"Yesler Terrace: Freeway","address":"I-5 & S Main St, Seattle, WA 98104","city":"Seattle","state":"WA","zip":"98104","phone":"","website":"https://www.seattle.gov/neighborhoods/p-patch-gardening/garden-list/yesler-terrace-freeway","email":"p-patch.don@seattle.gov","description":"Community garden located at the intersection of I-5 and S Main Street in Seattle, providing gardening space for local residents."},{"id":"013210b7-6c2f-4d66-9a7c-d04e557595ce","lat":47.5839676,"lng":-122.3234274,"name":"Seattle","org":"Yesler Terrace: Ballpark","address":"819 8th Ave S, Seattle, WA 98104","city":"Seattle","state":"WA","zip":"98104","phone":"","website":"https://www.seattle.gov/neighborhoods/p-patch-gardening/garden-list/yesler-terrace-ballpark","email":"p-patch.don@seattle.gov","description":"Community garden providing space for residents to grow their own food and access fresh produce"},{"id":"b73d95d7-a19b-4c32-8ce2-00f743c16f9b","lat":47.564688007145,"lng":-122.385444996127,"name":"Seattle","org":"West Genesee Garden","address":"42nd Ave SW & SW Genesee St, Seattle, WA 98116","city":"Seattle","state":"WA","zip":"98116","phone":"","website":"https://www.seattle.gov/neighborhoods/p-patch-gardening/garden-list/west-genesee-garden","email":"p-patch.don@seattle.gov","description":"Community garden providing access to gardening space and resources for local residents."},{"id":"f402a221-5711-4fa4-a692-877e4dbeae5d","lat":47.6249854,"lng":-122.3502493,"name":"Seattle","org":"UpGarden","address":"300 Mercer St, Seattle, WA 98109","city":"Seattle","state":"WA","zip":"98109","phone":"","website":"https://www.seattle.gov/neighborhoods/p-patch-gardening/garden-list/upgarden","email":"p-patch.don@seattle.gov","description":"Community garden providing space for local food production and gardening activities"},{"id":"67130930-ef5e-4f6a-882e-c8f97e07bd73","lat":47.619809,"lng":-122.325172,"name":"Seattle","org":"Unpaving Paradise","address":"200 Summit Ave E, Seattle, WA 98102","city":"Seattle","state":"WA","zip":"98102","phone":"","website":"https://www.seattle.gov/neighborhoods/p-patch-gardening/garden-list/unpaving-paradise","email":"p-patch.don@seattle.gov","description":"Community garden providing space for local food production and gardening activities in Seattle."},{"id":"344ad787-aa0a-43dd-8b9a-a30314c110b3","lat":47.650943909609,"lng":-122.347380594512,"name":"Seattle","org":"Troll's Knoll","address":"820 N 36th St and Aurora Ave N, Seattle, WA 98103","city":"Seattle","state":"WA","zip":"98103","phone":"","website":"https://www.seattle.gov/neighborhoods/p-patch-gardening/garden-list/trolls-knoll","email":"p-patch.don@seattle.gov","description":"Community garden facility providing space for local food production and gardening activities."},{"id":"be021af0-418a-435a-aaf5-5b82d43e2a80","lat":47.6708403,"lng":-122.3936898,"name":"Seattle","org":"Thyme Patch Park","address":"2853 NW 58th St, Seattle, WA 98107","city":"Seattle","state":"WA","zip":"98107","phone":"","website":"https://www.seattle.gov/neighborhoods/p-patch-gardening/garden-list/thyme-patch-park","email":"p-patch.don@seattle.gov","description":"Community garden providing fresh produce growing opportunities for local residents"},{"id":"0fea751b-8676-4e3b-bc32-cfc16182889c","lat":47.526104891452,"lng":-122.279326078612,"name":"Seattle","org":"Thistle","address":"Martin Luther King Way Jr Way S & S Cloverdale St, Seattle, WA 98118","city":"Seattle","state":"WA","zip":"98118","phone":"","website":"https://www.seattle.gov/neighborhoods/p-patch-gardening/garden-list/thistle","email":"p-patch.don@seattle.gov","description":"Community garden providing space for local food production and gardening activities"},{"id":"c13465be-948e-4bab-8634-e1067e16e19c","lat":47.6211694,"lng":-122.3193127,"name":"Seattle","org":"Thomas Street Gardens","address":"1010 E Thomas St, Seattle, WA 98102","city":"Seattle","state":"WA","zip":"98102","phone":"","website":"https://www.seattle.gov/neighborhoods/p-patch-gardening/garden-list/thomas-street-gardens","email":"p-patch.don@seattle.gov","description":"Community garden providing space for local food production and gardening activities"},{"id":"670007c9-5c7f-47ff-ad16-2f39bbfad00a","lat":47.611588988272,"lng":-122.300102972565,"name":"Seattle","org":"Spring Street","address":"E Spring St & 25th Ave, Seattle, WA 98122","city":"Seattle","state":"WA","zip":"98122","phone":"","website":"https://www.seattle.gov/neighborhoods/p-patch-gardening/garden-list/spring-street","email":"p-patch.don@seattle.gov","description":"Community garden located at the intersection of E Spring St and 25th Ave in Seattle, providing space for residents to grow their own food."},{"id":"88f1a397-2701-4e0a-8c39-c97b8d0d4a26","lat":47.536859,"lng":-122.39188,"name":"Seattle","org":"Solstice","address":"7400 Fauntleroy Way SW, Seattle, WA 98136","city":"Seattle","state":"WA","zip":"98136","phone":"","website":"https://www.seattle.gov/neighborhoods/p-patch-gardening/garden-list/solstice","email":"p-patch.don@seattle.gov","description":"Community garden providing space for local food cultivation and gardening activities"},{"id":"07ffa2b9-1792-4f64-884b-09ee0392dc45","lat":47.6799448,"lng":-122.3153054,"name":"Seattle","org":"Roosevelt P-Patch Community Garden","address":"7012 12th Ave NE, Seattle, WA 98115","city":"Seattle","state":"WA","zip":"98115","phone":"","website":"https://www.seattle.gov/neighborhoods/p-patch-gardening/garden-list/roosevelt","email":"p-patch.don@seattle.gov","description":"Community garden providing fresh produce growing opportunities for local residents in the Roosevelt neighborhood of Seattle."},{"id":"2ef73342-e7b8-473e-9829-e8a144331c69","lat":47.562992355646,"lng":-122.291596698889,"name":"Seattle","org":"Rainer Vista Sunrise Garden","address":"33rd Ave S & S Oregon St, Seattle, WA 98108","city":"Seattle","state":"WA","zip":"98108","phone":"","website":"https://www.seattle.gov/neighborhoods/p-patch-gardening/garden-list/rainer-vista-sunrise-garden","email":"p-patch.don@seattle.gov","description":"Community garden providing gardening space and resources for local residents"},{"id":"5c4c68b1-d8a7-4f31-92e5-595b5f72669f","lat":47.63564639149,"lng":-122.347569690248,"name":"Seattle","org":"Queen Pea","address":"5th Ave N & Howe St, Seattle, WA 98109","city":"Seattle","state":"WA","zip":"98109","phone":"","website":"https://www.seattle.gov/neighborhoods/p-patch-gardening/garden-list/queen-pea","email":"p-patch.don@seattle.gov","description":"Community garden providing fresh produce access and gardening opportunities in Seattle"},{"id":"1bdd4f6f-d36b-4570-a10e-4fc16f98c44b","lat":47.566251,"lng":-122.2978937,"name":"Seattle","org":"Rainier Vista Dakota Garden","address":"2902 S Dakota St, Seattle, WA 98108","city":"Seattle","state":"WA","zip":"98108","phone":"","website":"https://www.seattle.gov/neighborhoods/p-patch-gardening/garden-list/rainier-vista-dakota-garden","email":"p-patch.don@seattle.gov","description":"Community garden providing space for local residents to grow their own food and vegetables"},{"id":"f505781c-a263-4303-a637-17d7caffa994","lat":47.5612624,"lng":-122.2950406,"name":"Seattle","org":"Rainier Vista Snoqualmie","address":"2917 S Snoqualmie St, Seattle, WA 98108","city":"Seattle","state":"WA","zip":"98108","phone":"","website":"https://www.seattle.gov/neighborhoods/p-patch-gardening/garden-list/rainier-vista-snoqualmie","email":"p-patch.don@seattle.gov","description":"Community garden providing fresh produce growing opportunities in the Rainier Vista neighborhood of Seattle."},{"id":"2a5cabbf-f09d-4eda-8329-181b36aeb0d8","lat":47.638878097124,"lng":-122.351910510264,"name":"Seattle","org":"Queen Anne","address":"3rd Ave N & Lynn St, Seattle, WA 98109","city":"Seattle","state":"WA","zip":"98109","phone":"","website":"https://www.seattle.gov/neighborhoods/p-patch-gardening/garden-list/queen-anne","email":"p-patch.don@seattle.gov","description":"Community garden providing fresh produce growing opportunities in the Queen Anne neighborhood of Seattle."},{"id":"b1e9a73a-2579-4f5c-b4f7-c5b9f6c00a35","lat":47.712508,"lng":-122.3153209,"name":"Seattle","org":"Pinehurst","address":"11525 12th Ave NE, Seattle, WA 98125","city":"Seattle","state":"WA","zip":"98125","phone":"","website":"https://www.seattle.gov/neighborhoods/p-patch-gardening/garden-list/pinehurst","email":"p-patch.don@seattle.gov","description":"Community garden providing space for local food production and gardening activities"},{"id":"0512c44b-b57d-49e6-a121-30a073d04fbc","lat":47.6880103,"lng":-122.3001555,"name":"Seattle","org":"Picardo Farm","address":"8040 25th Ave NE, Seattle, WA 98115","city":"Seattle","state":"WA","zip":"98115","phone":"","website":"https://www.seattle.gov/neighborhoods/p-patch-gardening/garden-list/picardo-farm","email":"p-patch.don@seattle.gov","description":"Community garden facility providing gardening space and resources for local residents"},{"id":"ee79a4d0-3d74-4037-9ba7-b406c37159b0","lat":47.6251069,"lng":-122.3066628,"name":"Seattle","org":"Pelican Tea Garden","address":"1909 E Roy St, Seattle, WA 98112","city":"Seattle","state":"WA","zip":"98112","phone":"","website":"https://www.seattle.gov/neighborhoods/p-patch-gardening/garden-list/pelican-tea-garden","email":"","description":"Community garden providing fresh produce and gardening opportunities for local residents in Seattle."},{"id":"e8e836c2-d982-4567-83df-449f69059ce9","lat":47.5456597,"lng":-122.3217992,"name":"Seattle","org":"Oxbow Park","address":"6400 Corson Ave S, Seattle, WA 98108","city":"Seattle","state":"WA","zip":"98108","phone":"","website":"https://www.seattle.gov/neighborhoods/p-patch-gardening/garden-list/oxbow-park","email":"p-patch.don@seattle.gov","description":"Community garden facility providing space for local food production and gardening activities"},{"id":"0569f884-3966-4864-ac47-3d96e5f17f9a","lat":47.541327517266,"lng":-122.291035764986,"name":"Seattle","org":"New Holly Youth & Family","address":"32nd Ave S & S Brighton St, Seattle, WA 98108","city":"Seattle","state":"WA","zip":"98108","phone":"","website":"https://www.seattle.gov/neighborhoods/p-patch-gardening/garden-list/new-holly-youth-and-family","email":"p-patch.don@seattle.gov","description":"Community organization providing community garden services in the New Holly neighborhood of Seattle."},{"id":"c23d4e9b-2800-4449-b78a-ddd6a2e51ed4","lat":47.53619800207,"lng":-122.281983980109,"name":"Seattle","org":"New Holly Rockery","address":"Holly Park Dr S & S 40th, Seattle, WA 98118","city":"Seattle","state":"WA","zip":"98118","phone":"","website":"https://www.seattle.gov/neighborhoods/p-patch-gardening/garden-list/new-holly-rockery","email":"p-patch.don@seattle.gov","description":"Community garden providing space for local residents to grow fresh produce and build community connections."},{"id":"b9cb98d5-700d-49d0-85e4-4ffe5f81502b","lat":47.5383932,"lng":-122.2878747,"name":"Seattle","org":"New Holly Power Garden","address":"7123 Holly Park Dr S, Seattle, WA 98118","city":"Seattle","state":"WA","zip":"98118","phone":"","website":"https://www.seattle.gov/neighborhoods/p-patch-gardening/garden-list/new-holly-power-garden","email":"p-patch.don@seattle.gov","description":"Community garden providing gardening space and resources for local residents in Seattle"},{"id":"557a9f5d-48b1-46a9-a13e-b3c7e02c0a55","lat":47.54264909194,"lng":-122.294779709678,"name":"Seattle","org":"New Holly Lucky Garden","address":"S Holly St & Shaffer Ave S, Seattle, WA 98108","city":"Seattle","state":"WA","zip":"98108","phone":"","website":"https://www.seattle.gov/neighborhoods/p-patch-gardening/garden-list/new-holly-lucky-garden","email":"p-patch.don@seattle.gov","description":"Community garden providing fresh food access and gardening opportunities for local residents"},{"id":"e371b4a7-52e5-4f60-b467-f5ca27278539","lat":47.541299982714,"lng":-122.295849994894,"name":"Seattle","org":"New Holly 29 Ave Garden","address":"29th Ave S & S Brighton St, Seattle, WA 98108","city":"Seattle","state":"WA","zip":"98108","phone":"","website":"https://www.seattle.gov/neighborhoods/p-patch-gardening/garden-list/new-holly-29-ave-garden","email":"p-patch.don@seattle.gov","description":"Community garden located in Seattle providing space for residents to grow their own food and participate in community gardening activities."},{"id":"4abcc3f0-0f95-4937-82f7-b663b31f8031","lat":47.5220017,"lng":-122.3292792,"name":"Seattle","org":"Marra Farm","address":"9026 4th Ave S, Seattle, WA 98108","city":"Seattle","state":"WA","zip":"98108","phone":"","website":"https://www.seattle.gov/neighborhoods/p-patch-gardening/garden-list/marra-farm","email":"p-patch.don@seattle.gov","description":"Community garden facility providing gardening spaces and agricultural programs for local residents"},{"id":"b7e0f23f-ec83-4d84-923e-623c036d2269","lat":47.6516177,"lng":-122.3924118,"name":"Seattle","org":"Magnolia Manor Park","address":"3500 28th Ave W, Seattle, WA 98199","city":"Seattle","state":"WA","zip":"98199","phone":"","website":"https://www.seattle.gov/neighborhoods/p-patch-gardening/garden-list/magnolia-manor-park","email":"p-patch.don@seattle.gov","description":"Community garden providing space for residents to grow their own food and participate in community gardening activities."},{"id":"2504149b-0616-4b58-a748-2f4399883ccd","lat":47.702755,"lng":-122.323242,"name":"Seattle","org":"Maple Leaf","address":"5th Ave NE & NE 103rd St, Seattle, WA 98125","city":"Seattle","state":"WA","zip":"98125","phone":"","website":"https://www.seattle.gov/neighborhoods/p-patch-gardening/garden-list/maple-leaf","email":"p-patch.don@seattle.gov","description":"Community garden providing fresh produce access through the P-Patch program in Seattle"},{"id":"01e315bc-2ad2-48b1-ae33-c69f0cdf8d50","lat":47.6828717,"lng":-122.258467,"name":"Seattle","org":"Magnuson Park","address":"7400 Sand Point Way NE, Seattle, WA 98115","city":"Seattle","state":"WA","zip":"98115","phone":"","website":"https://www.seattle.gov/neighborhoods/p-patch-gardening/garden-list/magnuson-park","email":"p-patch.don@seattle.gov","description":"Community garden facility providing gardening space and resources for local residents"},{"id":"4c0c3309-551d-4508-88a2-29adfbfdb4c5","lat":47.6251178,"lng":-122.2827571,"name":"Seattle","org":"Madison Valley","address":"3000 E Mercer St, Seattle, WA 98112","city":"Seattle","state":"WA","zip":"98112","phone":"","website":"https://www.seattle.gov/neighborhoods/p-patch-gardening/garden-list/madison-valley","email":"p-patch.don@seattle.gov","description":"Community garden program providing space for local residents to grow their own food and participate in community gardening activities."},{"id":"bb5b0c45-1e13-4dc9-ba02-1f380b31f6c4","lat":47.5575585,"lng":-122.3051703,"name":"Seattle","org":"Maa Nyei Lai Ndeic (My Mother's Garden)","address":"4913 Columbia Dr S, Seattle, WA 98108","city":"Seattle","state":"WA","zip":"98108","phone":"","website":"https://www.seattle.gov/neighborhoods/p-patch-gardening/garden-list/maa-nyei-lai-ndeic-(my-mothers-garden)","email":"p-patch.don@seattle.gov","description":"Community garden providing access to fresh produce and gardening resources for local residents."},{"id":"3222ec68-a6aa-4cd3-b135-4e7e4c6e0860","lat":47.5283683,"lng":-122.3643456,"name":"Seattle","org":"Longfellow Creek","address":"SW Thistle St & 25th Ave SW, Seattle, WA 98106","city":"Seattle","state":"WA","zip":"98106","phone":"","website":"https://www.seattle.gov/neighborhoods/p-patch-gardening/garden-list/longfellow-creek","email":"p-patch.don@seattle.gov","description":"Community garden providing space for local residents to grow their own food"},{"id":"48c84094-fbdf-414d-9e31-0064b08b7e62","lat":47.677767005599,"lng":-122.34728646574,"name":"Seattle","org":"Linden Orchard","address":"Linden Ave N & N 67th St, Seattle, WA 98103","city":"Seattle","state":"WA","zip":"98103","phone":"","website":"https://www.seattle.gov/neighborhoods/p-patch-gardening/garden-list/linden-orchard","email":"p-patch.don@seattle.gov","description":"Community garden providing fresh produce access in Seattle's Linden Ave area"},{"id":"0575ced2-aad3-463b-b967-1bc3347582b1","lat":47.695954520114,"lng":-122.335165479377,"name":"Seattle","org":"Licton Springs","address":"College Way N & N 92nd St, Seattle, WA 98103","city":"Seattle","state":"WA","zip":"98103","phone":"","website":"https://www.seattle.gov/neighborhoods/p-patch-gardening/garden-list/licton-springs","email":"p-patch.don@seattle.gov","description":"Community garden providing fresh produce access in the Licton Springs neighborhood of Seattle"},{"id":"7ac17c50-075b-4467-ac08-9bb999a6aa62","lat":47.5926547,"lng":-122.301297,"name":"Seattle","org":"Judkins Community Garden","address":"24th Ave S & S Norman St, Seattle, WA 98144","city":"Seattle","state":"WA","zip":"98144","phone":"","website":"https://www.seattle.gov/neighborhoods/p-patch-gardening/garden-list/judkins","email":"p-patch.don@seattle.gov","description":"Community garden providing space for local residents to grow fresh produce and vegetables."},{"id":"c7b7a7f1-e4d0-43e4-9c21-b0c6d12982f0","lat":47.540611409368,"lng":-122.286267384089,"name":"Seattle","org":"John C. Little Garden","address":"37th Ave S & S Willow St, Seattle, WA 98118","city":"Seattle","state":"WA","zip":"98118","phone":"","website":"https://www.seattle.gov/neighborhoods/p-patch-gardening/garden-list/john-c-little-garden","email":"p-patch.don@seattle.gov","description":"Community garden providing space for local food production and gardening activities in Seattle"},{"id":"bafaa4f1-0688-4e03-b2c0-07ce7b4954f5","lat":47.7238768,"lng":-122.318232,"name":"Seattle","org":"Jackson Park","address":"13049 10th Ave NE, Seattle, WA 98125","city":"Seattle","state":"WA","zip":"98125","phone":"","website":"https://www.seattle.gov/neighborhoods/p-patch-gardening/garden-list/jackson-park","email":"p-patch.don@seattle.gov","description":"Community garden providing gardening space and resources for local residents"},{"id":"6a8b94ca-1199-4322-a50d-ae3819621bca","lat":47.6414561,"lng":-122.3769596,"name":"Seattle","org":"Interbay","address":"2451 15th Ave W, Seattle, WA 98119","city":"Seattle","state":"WA","zip":"98119","phone":"","website":"https://www.seattle.gov/neighborhoods/p-patch-gardening/garden-list/interbay","email":"p-patch.don@seattle.gov","description":"Community garden providing opportunities for local food production and gardening education"},{"id":"6f77e76c-3a12-450a-a85d-398f796b0e79","lat":47.6261836,"lng":-122.2920494,"name":"Seattle","org":"Ida Mia Garden","address":"E Madison St & Lake Washington Blvd E, Seattle, WA 98112","city":"Seattle","state":"WA","zip":"98112","phone":"","website":"https://www.seattle.gov/neighborhoods/p-patch-gardening/garden-list/ida-mia-garden","email":"p-patch.don@seattle.gov","description":"Community garden providing space for residents to grow their own food and participate in community gardening activities."},{"id":"ee3035cb-a360-44f4-83c9-ccc2cbaa528f","lat":47.7202563,"lng":-122.2917911,"name":"Seattle","org":"Lake City Court","address":"12536 33rd Ave NE, Seattle, WA 98125","city":"Seattle","state":"WA","zip":"98125","phone":"","website":"https://www.seattle.gov/neighborhoods/p-patch-gardening/garden-list/lake-city-court","email":"p-patch.don@seattle.gov","description":"Community garden site providing opportunities for local food growing and community engagement"},{"id":"3d9751c1-19c6-4847-9eca-d407008ddf85","lat":47.6006058,"lng":-122.3165423,"name":"Seattle","org":"Horiuchi Park","address":"156 Boren Ave, Seattle, WA 98122","city":"Seattle","state":"WA","zip":"98122","phone":"","website":"https://www.seattle.gov/neighborhoods/p-patch-gardening/garden-list/horiuchi-park","email":"p-patch.don@seattle.gov","description":"Community garden providing space for local food production and gardening activities in Seattle."},{"id":"802389c8-0418-4ab4-a5f6-ba09e09bab8f","lat":47.578358011124,"lng":-122.296189964887,"name":"Seattle","org":"Hillside Garden","address":"MLK Jr Wy S and S McClellan St, Seattle, WA 98144","city":"Seattle","state":"WA","zip":"98144","phone":"","website":"https://www.seattle.gov/neighborhoods/p-patch-gardening/garden-list/hillside-garden","email":"p-patch.don@seattle.gov","description":"Community garden providing gardening space and resources for local residents"},{"id":"46c82f75-99c0-4c84-a694-c0d226c4d58a","lat":47.5525645,"lng":-122.2750908,"name":"Seattle","org":"Hillman City","address":"4613 S Lucile St, Seattle, WA 98118","city":"Seattle","state":"WA","zip":"98118","phone":"","website":"https://www.seattle.gov/neighborhoods/p-patch-gardening/garden-list/hillman-city","email":"p-patch.don@seattle.gov","description":"Community garden providing space for local residents to grow fresh produce and connect with their community."},{"id":"20c89f3e-6199-4b21-a9b5-be467574273b","lat":47.5504841,"lng":-122.36952,"name":"Seattle","org":"High Point MacArthur Lane Park","address":"2726 SW MacArthur Ln, Seattle, WA 98126","city":"Seattle","state":"WA","zip":"98126","phone":"","website":"https://www.seattle.gov/neighborhoods/p-patch-gardening/garden-list/high-point-macarthur-lane-park","email":"p-patch.don@seattle.gov","description":"Community garden providing fresh produce access through P-Patch gardening program in Seattle"},{"id":"bf96ab7f-1d53-4060-8594-833302259b96","lat":47.55013631077,"lng":-122.373674205678,"name":"Seattle","org":"High Point Juneau","address":"32nd Ave SW & SW Juneau St, Seattle, WA 98126","city":"Seattle","state":"WA","zip":"98126","phone":"","website":"https://www.seattle.gov/neighborhoods/p-patch-gardening/garden-list/high-point-juneau","email":"p-patch.don@seattle.gov","description":"Community garden located in Seattle providing space for local food cultivation and gardening activities."},{"id":"60a1ce65-90ad-433a-9f0b-0ff6b87c73f0","lat":47.546132988085,"lng":-122.291548988918,"name":"Seattle","org":"High Point Commons Garden","address":"SW Graham St & 32nd Ave SW, Seattle, WA 98126","city":"Seattle","state":"WA","zip":"98126","phone":"","website":"https://www.seattle.gov/neighborhoods/p-patch-gardening/garden-list/high-point-commons-garden","email":"p-patch.don@seattle.gov","description":"Community garden providing fresh produce growing opportunities for local residents"},{"id":"352be158-a277-4eb1-931a-74661b3099b2","lat":47.657804706906,"lng":-122.359633428212,"name":"Seattle","org":"Hazel Heights","address":"Baker Ave NW & NW 42nd St, Seattle, WA 98107","city":"Seattle","state":"WA","zip":"98107","phone":"","website":"https://www.seattle.gov/neighborhoods/p-patch-gardening/garden-list/hazel-heights","email":"p-patch.don@seattle.gov","description":"Community garden facility providing space for local food production and gardening activities"},{"id":"73ad80ed-a302-4e21-9fbd-45afd0e4a2aa","lat":47.6171004,"lng":-122.296166,"name":"Seattle","org":"Hawkins","address":"504 Martin Luther King Junior Way, Seattle, WA 98122","city":"Seattle","state":"WA","zip":"98122","phone":"","website":"https://www.seattle.gov/neighborhoods/p-patch-gardening/garden-list/hawkins","email":"p-patch.don@seattle.gov","description":"Community garden providing space for local food cultivation and community gardening activities."},{"id":"c627bfcc-244c-4102-b143-67c1910db9bd","lat":47.7234694,"lng":-122.3290365,"name":"Seattle","org":"Haller Lake Community Garden","address":"13035 1st Ave NE, Seattle, WA 98125","city":"Seattle","state":"WA","zip":"98125","phone":"","website":"https://www.seattle.gov/neighborhoods/p-patch-gardening/garden-list/haller-lake","email":"p-patch.don@seattle.gov","description":"Community garden providing space for local food production and gardening education"},{"id":"a7192182-fb55-4e45-bcbb-5c9418aba2e6","lat":47.667885999041,"lng":-122.373670014727,"name":"Seattle","org":"Greg's Garden","address":"14th Ave NW & NW 54th St, Seattle, WA 98107","city":"Seattle","state":"WA","zip":"98107","phone":"","website":"https://www.seattle.gov/neighborhoods/p-patch-gardening/garden-list/gregs-garden","email":"p-patch.don@seattle.gov","description":"A community garden providing gardening space and resources for local residents in Seattle."},{"id":"daf6bae5-0ec9-4759-8e12-77d3d8b59fac","lat":47.693510985791,"lng":-122.349928022525,"name":"Seattle","org":"Greenwood Station","address":"Fremont Ave N & N 89th St, Seattle, WA 98103","city":"Seattle","state":"WA","zip":"98103","phone":"","website":"https://www.seattle.gov/neighborhoods/p-patch-gardening/garden-list/greenwood-station","email":"p-patch.don@seattle.gov","description":"Community garden providing space for local food production and gardening activities in the Greenwood neighborhood of Seattle."},{"id":"c4b74856-291d-4d3c-826d-8158d13f0a26","lat":47.6927104,"lng":-122.3611739,"name":"Seattle","org":"Greenwood","address":"343 NW 88th St, Seattle, WA 98117","city":"Seattle","state":"WA","zip":"98117","phone":"","website":"https://www.seattle.gov/neighborhoods/p-patch-gardening/garden-list/greenwood","email":"p-patch.don@seattle.gov","description":"Community garden providing opportunities for local residents to grow fresh produce and build community connections."},{"id":"cb10e3e9-ac84-44d3-9de2-bb99f24a8de9","lat":47.6631643,"lng":-122.332262,"name":"Seattle","org":"Good Shepherd","address":"4618 Bagley Ave N, Seattle, WA 98103","city":"Seattle","state":"WA","zip":"98103","phone":"","website":"https://www.seattle.gov/neighborhoods/p-patch-gardening/garden-list/good-shepherd","email":"p-patch.don@seattle.gov","description":"Community garden providing fresh produce access and gardening opportunities for local residents"},{"id":"62ed1367-f8e0-4632-becf-754f5dd1bda5","lat":47.6546018,"lng":-122.3447799,"name":"Seattle","org":"Fremont","address":"3935 Woodland Park Ave N, Seattle, WA 98103","city":"Seattle","state":"WA","zip":"98103","phone":"","website":"https://www.seattle.gov/neighborhoods/p-patch-gardening/garden-list/fremont","email":"p-patch.don@seattle.gov","description":"Community garden program providing space for residents to grow their own food and build community connections."},{"id":"877d1829-f7a4-4f1a-804b-2c7d4f34dc18","lat":47.5871258,"lng":-122.2918077,"name":"Seattle","org":"Colman Park","address":"1716 32nd Ave S, Seattle, WA 98144","city":"Seattle","state":"WA","zip":"98144","phone":"","website":"https://www.seattle.gov/neighborhoods/p-patch-gardening/garden-list/colman-park","email":"p-patch.don@seattle.gov","description":"Community garden facility providing space for local food cultivation and gardening activities"},{"id":"78f3beba-90db-4449-872c-aa1da9ff81e7","lat":47.7022766,"lng":-122.350827,"name":"Seattle","org":"Evanston P-Patch Community Garden","address":"604 N 101st St, Seattle, WA 98133","city":"Seattle","state":"WA","zip":"98133","phone":"","website":"https://www.seattle.gov/neighborhoods/p-patch-gardening/garden-list/evanston","email":"p-patch.don@seattle.gov","description":"Community garden providing space for residents to grow their own food and participate in local food production."},{"id":"2653839f-0cb8-4f4a-8709-f32e61966ed4","lat":47.5728654,"lng":-122.2933854,"name":"Seattle","org":"Estelle Street","address":"3400 Rainier Ave S, Seattle, WA 98144","city":"Seattle","state":"WA","zip":"98144","phone":"","website":"https://www.seattle.gov/neighborhoods/p-patch-gardening/garden-list/estelle-street","email":"p-patch.don@seattle.gov","description":"Community garden providing fresh produce growing opportunities for local residents"},{"id":"9cdee6c3-132c-424b-b6ce-13af7a39d744","lat":47.6468044,"lng":-122.3260495,"name":"Seattle","org":"Eastlake","address":"2900 Fairview Ave E, Seattle, WA 98102","city":"Seattle","state":"WA","zip":"98102","phone":"","website":"https://www.seattle.gov/neighborhoods/p-patch-gardening/garden-list/eastlake","email":"p-patch.don@seattle.gov","description":"Community garden providing space for local food production and gardening activities."},{"id":"fb60b5ca-197c-485f-8360-60c7ae7eabbd","lat":47.5565915,"lng":-122.3641441,"name":"Seattle","org":"Delridge","address":"5078 25th Ave SW, Seattle, WA 98106","city":"Seattle","state":"WA","zip":"98106","phone":"","website":"https://www.seattle.gov/neighborhoods/p-patch-gardening/garden-list/delridge","email":"p-patch.don@seattle.gov","description":"Community garden providing fresh produce access through P-Patch gardening program in Seattle"},{"id":"570b0267-aec0-4ce1-9227-3ac3bde251d6","lat":47.57128,"lng":-122.288127,"name":"Seattle","org":"Courtland Place","address":"3600 36th Ave S, Seattle, WA 98144","city":"Seattle","state":"WA","zip":"98144","phone":"","website":"https://www.seattle.gov/neighborhoods/p-patch-gardening/garden-list/courtland-place","email":"p-patch.don@seattle.gov","description":"Community garden providing space for local food production and gardening activities."},{"id":"fde9afca-4fe6-462e-8dfd-a94344db2c97","lat":47.5955476,"lng":-122.3097553,"name":"Seattle","org":"Climbing Water","address":"800 Hiawatha Pl S, Seattle, WA 98144","city":"Seattle","state":"WA","zip":"98144","phone":"","website":"https://www.seattle.gov/neighborhoods/p-patch-gardening/garden-list/climbing-water","email":"p-patch.don@seattle.gov","description":"Community garden providing space for local food production and gardening activities"},{"id":"e4eb6b47-fa1f-4a1e-b357-f8c34c9462e2","lat":47.6210312,"lng":-122.3328656,"name":"Seattle","org":"Cascade","address":"310 Minor Ave N, Seattle, WA 98109","city":"Seattle","state":"WA","zip":"98109","phone":"","website":"https://www.seattle.gov/neighborhoods/p-patch-gardening/garden-list/cascade","email":"p-patch.don@seattle.gov","description":"Community garden providing space for local food production and gardening activities."},{"id":"dae37753-cff8-468c-9d54-c4e4b201d2f2","lat":47.6676355,"lng":-122.2820924,"name":"Seattle","org":"Burke-Gilman Gardens","address":"5200 Mithun Pl NE, Seattle, WA 98105","city":"Seattle","state":"WA","zip":"98105","phone":"","website":"https://www.seattle.gov/neighborhoods/p-patch-gardening/garden-list/burke-gilman-gardens","email":"p-patch.don@seattle.gov","description":"Community garden providing space for local food cultivation and gardening activities"},{"id":"d722720d-a1b9-4eeb-b7c7-e4b4aa719dad","lat":47.6771417,"lng":-122.3540013,"name":"Seattle","org":"Phinney Neighborhood Farmers Market","address":"6532 Phinney Ave N, Seattle, WA 98103","city":"Seattle","state":"WA","zip":"98103","phone":"","website":"https://seattlefarmersmarkets.org/pfm","email":"","description":"Farmers market providing fresh produce and local food access in the Phinney neighborhood of Seattle."},{"id":"d6abe20c-058a-4e0d-83c0-850c974add0d","lat":47.623257351864,"lng":-122.318653130121,"name":"Seattle","org":"Broadway Hill","address":"500-598 Federal Ave E, Seattle, WA 98102","city":"Seattle","state":"WA","zip":"98102","phone":"","website":"https://www.seattle.gov/neighborhoods/p-patch-gardening/garden-list/broadway-hill-","email":"p-patch.don@seattle.gov","description":"Community garden providing space for residents to grow their own food and participate in local food production."},{"id":"52d3e695-0c5b-4263-9d63-fc5db7ec21d6","lat":47.587467,"lng":-122.2959813,"name":"Seattle","org":"Bradner Gardens Park","address":"750 Bradner Pl S, Seattle, WA 98144","city":"Seattle","state":"WA","zip":"98144","phone":"","website":"https://www.seattle.gov/neighborhoods/p-patch-gardening/garden-list/bradner-gardens-park","email":"p-patch.don@seattle.gov","description":"Community garden facility providing space for local residents to grow their own food and participate in community gardening activities."},{"id":"fe825010-f0bc-43f1-a44c-6b40163d02f2","lat":47.5540395,"lng":-122.326427,"name":"Seattle","org":"Brandon Street Orchard","address":"625 S Brandon St, Seattle, WA 98108","city":"Seattle","state":"WA","zip":"98108","phone":"","website":"https://www.seattle.gov/neighborhoods/p-patch-gardening/garden-list/brandon-street-orchard","email":"p-patch.don@seattle.gov","description":"Community garden providing fresh produce and gardening opportunities for local residents"},{"id":"4020afd0-7327-4128-9974-505cdac6b50b","lat":47.732288016813,"lng":-122.347732969722,"name":"Seattle","org":"Bitter Lake","address":"Linden Ave N & N 143rd St, Seattle, WA 98133","city":"Seattle","state":"WA","zip":"98133","phone":"","website":"https://www.seattle.gov/neighborhoods/p-patch-gardening/garden-list/bitter-lake","email":"p-patch.don@seattle.gov","description":"Community garden providing space for local food production and gardening activities"},{"id":"b0ed2f62-f948-472b-8e8c-ac71d2a9bde1","lat":47.613925108506,"lng":-122.351409188635,"name":"Seattle","org":"Belltown","address":"Elliot Avenue & Vine Street, Seattle, WA 98121","city":"Seattle","state":"WA","zip":"98121","phone":"","website":"https://www.seattle.gov/neighborhoods/p-patch-gardening/garden-list/belltown","email":"p-patch.don@seattle.gov","description":"Community garden providing fresh produce growing opportunities in the Belltown neighborhood of Seattle"},{"id":"6ea336c8-4d8a-4cc3-9f63-c1d14c6785e8","lat":47.56699,"lng":-122.3135979,"name":"Seattle","org":"Beacon Food Forest","address":"15th Ave S & S Dakota St, Seattle, WA 98108","city":"Seattle","state":"WA","zip":"98108","phone":"","website":"https://www.seattle.gov/neighborhoods/p-patch-gardening/garden-list/beacon-food-forest","email":"p-patch.don@seattle.gov","description":"Community garden providing fresh produce access through food forest cultivation in Seattle."},{"id":"0b58b953-5118-4e1a-9486-6f16b3f9d8fc","lat":47.5879622,"lng":-122.3139037,"name":"Seattle","org":"Beacon Bluff","address":"1701 15th Ave S, Seattle, WA 98144","city":"Seattle","state":"WA","zip":"98144","phone":"","website":"https://www.seattle.gov/neighborhoods/p-patch-gardening/garden-list/beacon-bluff","email":"p-patch.don@seattle.gov","description":"Community garden providing space for residents to grow their own food and connect with neighbors in the Beacon Hill area of Seattle."},{"id":"f46ca1bd-ee5c-406b-92c6-b38807f44639","lat":47.521060997397,"lng":-122.375417976815,"name":"Seattle","org":"Barton Street","address":"SW Barton St & 34th Ave SW, Seattle, WA 98126","city":"Seattle","state":"WA","zip":"98126","phone":"","website":"https://www.seattle.gov/neighborhoods/p-patch-gardening/garden-list/barton-street","email":"p-patch.don@seattle.gov","description":"Community garden located in Seattle providing space for local food production and gardening activities."},{"id":"84f49898-6f25-4bd9-a7f2-212854a38b3f","lat":47.6908998,"lng":-122.3889632,"name":"Seattle","org":"Ballard","address":"8527 25th Ave NW, Seattle, WA 98117","city":"Seattle","state":"WA","zip":"98117","phone":"","website":"https://www.seattle.gov/neighborhoods/p-patch-gardening/garden-list/ballard","email":"p-patch.don@seattle.gov","description":"Community garden program providing gardening opportunities and resources for local residents."},{"id":"7ab78b38-d39a-491b-8a0f-85bd73ffbe88","lat":47.502637993313,"lng":-122.26992149943,"name":"Seattle","org":"Leo Street P-Patch","address":"51st Ave S & S Leo St, Seattle, WA 98178","city":"Seattle","state":"WA","zip":"98178","phone":"","website":"https://www.seattle.gov/neighborhoods/p-patch-gardening/garden-list/leo-street","email":"p-patch.don@seattle.gov","description":"Community garden providing gardening space and food access resources in Seattle"},{"id":"254c03dc-836f-45eb-864e-8f921a1a84d8","lat":47.5439606,"lng":-122.2827202,"name":"Seattle","org":"Angel Morgan","address":"3956 S Morgan St, Seattle, WA 98118","city":"Seattle","state":"WA","zip":"98118","phone":"","website":"https://www.seattle.gov/neighborhoods/p-patch-gardening/garden-list/angel-morgan","email":"p-patch.don@seattle.gov","description":"Community garden providing fresh produce and gardening opportunities in Seattle"},{"id":"4ba7d90a-91bc-42cb-a7db-f5f29fcaef63","lat":47.639547287319,"lng":-122.399640168249,"name":"Seattle","org":"Magnolia Neighborhood Farmers Market","address":"W McGraw Street & 33rd Ave W in the Magnolia Village, Seattle, WA 98199","city":"Seattle","state":"WA","zip":"98199","phone":"","website":"https://seattlefarmersmarkets.org/mfm","email":"","description":"Farmers market serving the Magnolia Village community in Seattle, providing fresh local produce and food access."},{"id":"1616148d-76c0-4983-9248-65c54f23f363","lat":47.7193734,"lng":-122.298168,"name":"Seattle","org":"Lake City Neighborhood Farmers Market","address":"NE 125th St & 28th Ave NE, Seattle, WA 98125","city":"Seattle","state":"WA","zip":"98125","phone":"","website":"https://seattlefarmersmarkets.org/lcfm","email":"","description":"A neighborhood farmers market providing fresh produce and local food access in the Lake City area of Seattle."},{"id":"d2e2f48e-0ffa-4c02-a0d1-56f9967d3935","lat":47.55867189614,"lng":-122.286166214517,"name":"Seattle","org":"Columbia CIty Neighborhood Farmers Market","address":"37th Ave S & S Edmunds St, Seattle, WA 98118","city":"Seattle","state":"WA","zip":"98118","phone":"","website":"https://seattlefarmersmarkets.org/ccfm","email":"","description":"Farmers market providing fresh produce and food access in the Columbia City neighborhood of South Seattle."},{"id":"38734148-8b43-47b8-96dd-e0d76182230d","lat":47.6798267,"lng":-122.3682054,"name":"Seattle","org":"Kirke Park","address":"7028 9th Ave NW, Seattle, WA 98117","city":"Seattle","state":"WA","zip":"98117","phone":"","website":"https://www.seattle.gov/neighborhoods/p-patch-gardening/garden-list/kirke-park","email":"p-patch.don@seattle.gov","description":"Community garden providing fresh produce access through Food Lifeline network"},{"id":"f35d1fbf-b2c9-4acd-8202-dcc7e360f9af","lat":47.618761728282,"lng":-122.320196872568,"name":"Seattle","org":"Capitol Hill Neighborhood Farmers Market","address":"E Barbara Bailey Way (E Denny Way between Broadway & 10th Ave E), Seattle, WA 98112","city":"Seattle","state":"WA","zip":"98112","phone":"","website":"https://seattlefarmersmarkets.org/chfm","email":"","description":"Community farmers market providing fresh produce and local goods in the Capitol Hill neighborhood."},{"id":"a23fe62f-5ff1-4082-8214-99baed0332d2","lat":47.561080813204,"lng":-122.386782664054,"name":"Seattle","org":"West Seattle Neighborhood Farmers Market","address":"California Ave SW & SW Alaska, Seattle, WA 98116","city":"Seattle","state":"WA","zip":"98116","phone":"","website":"https://seattlefarmersmarkets.org/wsfm","email":"","description":"A neighborhood farmers market located in the West Seattle Junction area, offering fresh local produce and food access to the community."},{"id":"b45a5297-437d-4292-866e-b04199681840","lat":47.665683507288,"lng":-122.313075433075,"name":"Seattle","org":"University District Neighborhood Farmers Market","address":"University Way NE (the \"Ave\") between 50th & 52nd, Seattle, WA 98105","city":"Seattle","state":"WA","zip":"98105","phone":"","website":"https://seattlefarmersmarkets.org/udfm","email":"","description":"A neighborhood farmers market located in Seattle's University District, providing access to fresh local produce and farm products."},{"id":"5afb58ec-e2fa-4832-b73e-87e19d6b8265","lat":47.6082056,"lng":-122.2953035,"name":"Seattle","org":"YWCA Central Area Food Bank","address":"2820 Cherry St, Seattle, WA 98122","city":"Seattle","state":"WA","zip":"98122","phone":"","website":"","email":"","description":"Food bank providing food assistance to community members in need"},{"id":"be5595b6-578e-4020-b428-4f965b4198a7","lat":47.6131493,"lng":-122.3415287,"name":"Seattle","org":"YWCA Angeline's Meal Program","address":"2024 3rd Ave, Seattle, WA 98121","city":"Seattle","state":"WA","zip":"98121","phone":"","website":"","email":"","description":"YWCA program providing meal services to the community"},{"id":"8c0ed1fe-e592-4c7d-8535-4a7c27995f7e","lat":47.6182446,"lng":-122.3303681,"name":"Seattle","org":"Youthcare Orion Center","address":"1828 Yale Ave, Seattle, WA 98101","city":"Seattle","state":"WA","zip":"98101","phone":"","website":"","email":"","description":"Youth services organization providing food assistance through food bank services"},{"id":"4980cb4f-9cfe-4a85-a4ce-41900596e003","lat":47.6793983,"lng":-122.3558989,"name":"Seattle","org":"Woodland Park Presbyterian Church","address":"225 N 70th St, Seattle, WA 98103","city":"Seattle","state":"WA","zip":"98103","phone":"","website":"","email":"","description":"Presbyterian church providing food bank services to the community"},{"id":"be815790-5627-4766-b759-9ffa8327f8c6","lat":47.5131747,"lng":-122.3548478,"name":"Seattle","org":"White Center Food Bank","address":"10016 16th Ave SW, Seattle, WA 98146","city":"Seattle","state":"WA","zip":"98146","phone":"","website":"","email":"","description":"A food bank providing food assistance and emergency food services to individuals and families in need."},{"id":"ba5242b9-e089-4b61-a486-fe4eaa98381c","lat":47.5443163,"lng":-122.375864,"name":"Seattle","org":"West Seattle Food Bank","address":"3419 SW Morgan St, Seattle, WA 98126","city":"Seattle","state":"WA","zip":"98126","phone":"","website":"","email":"","description":"A food bank providing food assistance services to the West Seattle community"},{"id":"85569ea3-ccaa-40fb-ab39-3b7ffd742009","lat":47.545296,"lng":-122.2778577,"name":"Seattle","org":"West African Community Council","address":"6322 44th Ave S, Seattle, WA 98118","city":"Seattle","state":"WA","zip":"98118","phone":"","website":"","email":"","description":"Community organization providing food assistance and support services to the West African community and surrounding areas."},{"id":"4d6c2527-ee72-44a8-aad1-070361b42e69","lat":47.5068558,"lng":-122.3456613,"name":"Seattle","org":"Victory Outreach Seattle","address":"824 SW 108th, Seattle, WA 98168","city":"Seattle","state":"WA","zip":"98168","phone":"","website":"","email":"","description":"Community organization providing food assistance through food bank services in Seattle, Washington."},{"id":"517f16c7-195a-45b9-a77f-e9a57aa1e039","lat":47.5994034,"lng":-122.298889,"name":"Seattle","org":"Urban Food Systems Pact - Jackson Heights","address":"2524 S. Jackson St, Seattle, WA 98144","city":"Seattle","state":"WA","zip":"98144","phone":"","website":"","email":"","description":"Food bank organization providing food assistance services in the Jackson Heights area of Seattle."},{"id":"ef143cc7-687a-460e-8f79-6a83e5d29f07","lat":47.5318906,"lng":-122.269227,"name":"Seattle","org":"Urban Food Systems Pact -Faith Deliverance","address":"5112 S. Kenyon St, Seattle, WA 98118","city":"Seattle","state":"WA","zip":"98118","phone":"","website":"","email":"","description":"Food bank providing food assistance to the community through the Urban Food Systems Pact program"},{"id":"a2dd9a69-62e0-406d-adad-d520f489bff5","lat":47.4902525,"lng":-122.2470674,"name":"Seattle","org":"Urban Food Systems Pact - Green Tree Park Hill Estates","address":"6900 S. 125th St., Seattle, WA 98003","city":"Seattle","state":"WA","zip":"98003","phone":"","website":"","email":"","description":"Food bank providing emergency food assistance to individuals and families in the Seattle area"},{"id":"8f6da2c1-be29-4c25-8851-47eb53fe5da3","lat":47.698526,"lng":-122.3772145,"name":"Seattle","org":"United Friends Group Homes","address":"9523 15th Ave NW, Seattle, WA 98117","city":"Seattle","state":"WA","zip":"98117","phone":"","website":"","email":"","description":"Community organization providing food assistance through food bank services in Seattle, Washington."},{"id":"30f0fadc-76de-46cb-b545-f9f03d84116e","lat":47.480036484767,"lng":-122.247942389104,"name":"Seattle","org":"Urban Food Systems Pact - Creston Point","address":"13445 MLK Jr. Way S, Seattle, WA 98178","city":"Seattle","state":"WA","zip":"98178","phone":"","website":"","email":"","description":"Food bank providing food assistance services to the community"},{"id":"998d0482-1080-4cc3-a842-2298a1c28961","lat":47.6141901,"lng":-122.350154,"name":"Seattle","org":"Uplift NW","address":"2515 Western Ave, Seattle, WA 98121","city":"Seattle","state":"WA","zip":"98121","phone":"","website":"","email":"","description":"Food bank providing food assistance services to the community in Seattle, Washington."},{"id":"fa3f691b-4f6c-4761-8d8b-0896616d43df","lat":47.665583,"lng":-122.317622,"name":"Seattle","org":"University District Food Bank","address":"5017 Roosevelt Way NE, Seattle, WA 98105","city":"Seattle","state":"WA","zip":"98105","phone":"","website":"","email":"","description":"Food bank providing food assistance to the University District community in Seattle, Washington"},{"id":"c0354622-4116-44c3-9bee-c03c10017424","lat":47.6365615,"lng":-122.3441767,"name":"Seattle","org":"The Inn Enhanced Shelter","address":"1911 Aurora Ave N, Seattle, WA 98119","city":"Seattle","state":"WA","zip":"98119","phone":"","website":"","email":"","description":"Enhanced shelter providing temporary housing and support services for individuals experiencing homelessness."},{"id":"ab63c626-03c6-4b0a-8563-b33cb352c910","lat":47.7052707,"lng":-122.3415797,"name":"Seattle","org":"The Giving Room at Epic Life Church","address":"10510 Stone Ave N, Seattle, WA 98133","city":"Seattle","state":"WA","zip":"98133","phone":"","website":"","email":"","description":"Food bank service providing food assistance to community members in need"},{"id":"03dde8a4-c91c-45e3-8df2-2df6b9fed12c","lat":47.5972712,"lng":-122.3066221,"name":"Seattle","org":"The Food Bank At St. Mary's","address":"611 20th Ave S, Seattle, WA 98144","city":"Seattle","state":"WA","zip":"98144","phone":"","website":"","email":"","description":"Community food bank providing food assistance and pantry services to local residents in need."},{"id":"2704b426-756c-4dbc-877a-7ac6218d6a1a","lat":47.5485301,"lng":-122.3291828,"name":"Seattle","org":"St. Vincent De Paul Georgetown Food Bank","address":"5972 4th Ave S, Seattle, WA 98108","city":"Seattle","state":"WA","zip":"98108","phone":"","website":"","email":"","description":"Food bank providing food assistance services to the Georgetown community in Seattle."},{"id":"0a820be7-e5fb-4b8b-a396-aa36b48b7b33","lat":47.5885203,"lng":-122.3385647,"name":"Seattle","org":"St. Martin De Porres Shelter","address":"1561 Alaskan Way S, Seattle, WA 98134","city":"Seattle","state":"WA","zip":"98134","phone":"","website":"","email":"","description":"Shelter providing emergency housing services in Seattle, WA"},{"id":"ea53e675-139b-4958-85a9-d423cf4b83da","lat":47.6154852,"lng":-122.337756,"name":"Seattle","org":"St. Martin's On Westlake","address":"2008 Westlake Ave, Seattle, WA 98121","city":"Seattle","state":"WA","zip":"98121","phone":"","website":"","email":"","description":"Food bank providing food assistance services to the community"},{"id":"01d88047-854c-44ec-b9c5-2f2aa17584c7","lat":47.529603078742,"lng":-122.320535957031,"name":"Seattle","org":"South Park Senior Center","address":"8201 10th Ave S #4, Seattle, WA 98108","city":"Seattle","state":"WA","zip":"98108","phone":"","website":"","email":"","description":"Senior center providing food bank services to the community"},{"id":"fc81d5e0-4086-46fc-aabf-84205f0ab41c","lat":47.6136783,"lng":-122.3444883,"name":"Seattle","org":"Sound Generations","address":"2208 2nd Ave, Seattle, WA 98121","city":"Seattle","state":"WA","zip":"98121","phone":"","website":"","email":"","description":"Community organization providing food bank services to support local residents with nutritional assistance."},{"id":"b8431c1c-0f6d-4874-9ce6-26252518c2a9","lat":47.5952928,"lng":-122.3254625,"name":"Seattle","org":"Salvation Army William Booth Center","address":"811 Maynard Ave S, Seattle, WA 98134","city":"Seattle","state":"WA","zip":"98134","phone":"","website":"","email":"","description":"Food bank providing food assistance services to the community"},{"id":"73fe7601-ed9a-4dc6-9f94-bf9e7593470d","lat":47.6133296,"lng":-122.3284889,"name":"Seattle","org":"Salvation Army Capitol Hill","address":"1101 Pike St, Seattle, WA 98101","city":"Seattle","state":"WA","zip":"98101","phone":"","website":"","email":"","description":"Food assistance organization providing food bank services to the Seattle Capitol Hill community"},{"id":"eec0365a-e929-4b98-a79e-1c3ab8342158","lat":47.595918,"lng":-122.3257398,"name":"Seattle Indian Center Food Bank","org":"Seattle Indian Center Food Bank","address":"624 S. Dearborn Street, Seattle, WA 98134","city":"Seattle","state":"WA","zip":"98134","phone":"","website":"","email":"","description":"Food bank providing food assistance services to the community through the Seattle Indian Center"},{"id":"29f8a912-8fa4-4e8a-91cb-98b2e1c8c9c4","lat":47.668794,"lng":-122.3128979,"name":"Shiga's Garden","org":"Shiga's Garden","address":"5522 University Way NE, Seattle, WA 98105","city":"Seattle","state":"WA","zip":"98105","phone":"","website":"https://www.seattle.gov/neighborhoods/p-patch-gardening/garden-list/shigas-garden","email":"p-patch.don@seattle.gov","description":"Community garden providing space for local food production and gardening activities"},{"id":"e6c36dc2-41d7-4214-b9d2-e50d2c1fc8ec","lat":48.08247,"lng":-123.1031386,"name":"Sequim","org":"Sequim Food Bank","address":"144 W Alder, Sequim, WA 98382","city":"Sequim","state":"WA","zip":"98382","phone":"","website":"","email":"","description":"Food bank providing food assistance and pantry services to individuals and families in need"},{"id":"92f5c31a-63b6-4206-8fb5-11e1090f5cda","lat":47.2118147,"lng":-123.1013039,"name":"Shelton","org":"The Saints' Pantry Food Bank","address":"214 S 2nd St, Shelton, WA 98584","city":"Shelton","state":"WA","zip":"98584","phone":"","website":"","email":"","description":"A food bank providing emergency food assistance to individuals and families in need in the Shelton, WA area."},{"id":"bb9722ac-51ff-4950-9e4a-90427c0f698f","lat":47.7347047,"lng":-122.3495251,"name":"Shoreline","org":"St. Dunstan's Episcopal Church","address":"722 N 145th St, Shoreline, WA 98133","city":"Shoreline","state":"WA","zip":"98133","phone":"","website":"","email":"","description":"Episcopal church providing food bank services to the Shoreline community"},{"id":"b04e5718-f33d-4617-a7c5-0554ee544917","lat":47.764102200868,"lng":-122.32888642807,"name":"Shoreline","org":"Shoreline Lake Forest Park Senior Center","address":"18560 1st Ave NE Bldg G, Shoreline, WA 98133","city":"Shoreline","state":"WA","zip":"98133","phone":"","website":"","email":"","description":"Senior center providing food bank services to the community"},{"id":"62ff06ae-6c27-444c-a717-bad0cb3f8635","lat":47.708217412097,"lng":-121.361868270376,"name":"Skykomish","org":"Skykomish","address":"108 Old Cascade Hwy NE, Skykomish, WA 98288","city":"Skykomish","state":"WA","zip":"98288","phone":"","website":"","email":"","description":"Food bank providing food assistance to the Skykomish community"},{"id":"00202ffb-af85-43cc-b543-af9b7bf5b52f","lat":47.4969731,"lng":-122.2454769,"name":"Skyway","org":"Urban Food Systems Pact -New Birth","address":"12643 Renton Ave S., Skyway, WA 98178","city":"Skyway","state":"WA","zip":"98178","phone":"","website":"","email":"","description":"Food bank providing food assistance to the Skyway community"},{"id":"3bf58b09-9754-4533-983b-836f55182e68","lat":47.9131781,"lng":-122.0959099,"name":"Snohomish","org":"Salt Of The Earth Meal Program","address":"210 Avenue B, Snohomish, WA 98290","city":"Snohomish","state":"WA","zip":"98290","phone":"","website":"","email":"","description":"Community meal program providing food assistance in Snohomish, Washington"},{"id":"d0d69bad-07f0-4203-b43f-af5c5e9afa8c","lat":47.9294582,"lng":-122.0994069,"name":"Snohomish","org":"Snohomish Community Food Bank","address":"1330 Ferguson Park Rd, Snohomish, WA 98292","city":"Snohomish","state":"WA","zip":"98292","phone":"","website":"","email":"","description":"Community food bank providing food assistance to residents in the Snohomish area"},{"id":"5b4e3ad6-ca6e-42a8-8d6f-870371783f7c","lat":47.6212293,"lng":-122.3419696,"name":"South Lake Union","org":"One Love Community Fridge @ Dignity for Divas","address":"306 Dexter Avenue North, South Lake Union, WA 98109","city":"South Lake Union","state":"WA","zip":"98109","phone":"","website":"https://www.onelovecommunityfridge.org/fridges","email":"","description":"Open 24/7! Free, outdoor community fridge/pantry operated by local volunteers."},{"id":"77415378-d5f8-49c6-ae1a-ee12e21dba31","lat":47.11127030000001,"lng":-122.4316224,"name":"Spanaway","org":"Spanaway Lutheran Church","address":"16001 A Street South, Spanaway, WA 98387","city":"Spanaway","state":"WA","zip":"98387","phone":"(253) 531-7000","website":"https://spanawaylutheran.org/","email":"","description":"Spanaway Lutheran Church"},{"id":"a68d0527-f025-4052-ba2f-08df1adaef6d","lat":48.2419439,"lng":-122.3707446,"name":"Stanwood","org":"Stanwood Camano Food Bank","address":"27030 102nd Ave NW, Stanwood, WA 98292","city":"Stanwood","state":"WA","zip":"98292","phone":"","website":"","email":"","description":"Food bank providing food assistance to the Stanwood-Camano Island community"},{"id":"897612ca-6fbb-4a72-b3a1-bafe7b86d743","lat":47.8672886,"lng":-121.8208338,"name":"Sultan","org":"Volunteers Of America Sultan Food Bank","address":"617 1st St., Sultan, WA 98294","city":"Sultan","state":"WA","zip":"98294","phone":"","website":"","email":"","description":"Food bank operated by Volunteers of America providing food assistance to the Sultan, WA community"},{"id":"c2a8a39e-6ade-46b6-9641-02f5bee364d7","lat":47.2027665,"lng":-122.2209517,"name":"Sumner","org":"Sumner Community Food Bank","address":"15625 Main St E, Sumner, WA 98370","city":"Sumner","state":"WA","zip":"98370","phone":"","website":"","email":"","description":"Community food bank providing food assistance to local residents in need"},{"id":"493ea42b-e538-4ede-9f12-3f7136b149e9","lat":47.2042575,"lng":-122.2463787,"name":"Sumner","org":"St. Andrew Emmanuel Food Pantry","address":"1401 Valley Ave E, Sumner, WA 98390","city":"Sumner","state":"WA","zip":"98390","phone":"","website":"","email":"","description":"Food pantry providing emergency food assistance to families and individuals in need"},{"id":"08487d62-6d6a-43a6-838e-a5eb42377860","lat":47.123819974774,"lng":-122.554244037044,"name":"Tacoma","org":"Tillicum American Lake Gardens Community Service Center","address":"14916 Washington Ave SW, Tacoma, WA 98498","city":"Tacoma","state":"WA","zip":"98498","phone":"","website":"","email":"","description":"Community service center providing food assistance through food bank services to local residents."},{"id":"e0572478-fe18-4023-8930-5d88e246277c","lat":47.2355018,"lng":-122.4099468,"name":"Tacoma","org":"TACS Food Bank","address":"3108 Portland Ave, Tacoma, WA 98404","city":"Tacoma","state":"WA","zip":"98404","phone":"","website":"","email":"","description":"Community food bank providing food assistance and pantry services to local residents in need."},{"id":"a75eb841-26b7-4b26-9c38-8e1656e01d87","lat":47.2495971,"lng":-122.446318,"name":"Tacoma","org":"St. Leo Food Connection (Pierce)","address":"1323 S Yakima Ave, Tacoma, WA 98405","city":"Tacoma","state":"WA","zip":"98405","phone":"","website":"","email":"","description":"Food bank providing food assistance services in the Tacoma area"},{"id":"1570f51e-dc0d-4f17-9a32-b4609e404f38","lat":47.1799704,"lng":-122.4139305,"name":"Tacoma","org":"SE Tacoma Nourish Food Bank","address":"1704 E 85th St, Tacoma, WA 98445","city":"Tacoma","state":"WA","zip":"98445","phone":"","website":"","email":"","description":"Community food bank providing food assistance to individuals and families in the SE Tacoma area"},{"id":"292da8cb-ede4-49e7-9416-845d82488b21","lat":47.2565859,"lng":-122.4590376,"name":"Tacoma","org":"Salvation Army Tacoma Lodge","address":"1521 6th Ave, Tacoma, WA 98405","city":"Tacoma","state":"WA","zip":"98405","phone":"","website":"","email":"","description":"Food bank operated by the Salvation Army providing food assistance to the Tacoma community"},{"id":"30353966-4829-4fab-a20e-c31d59587dfa","lat":47.256609,"lng":-122.458818,"name":"Tacoma","org":"Salvation Army Tacoma Food Bank","address":"1501 6th Ave, Tacoma, WA 98405","city":"Tacoma","state":"WA","zip":"98405","phone":"","website":"","email":"","description":"Food bank providing food assistance and emergency food distribution services to individuals and families in need in the Tacoma area."},{"id":"cf62dec9-0f36-4b63-9dca-1b7c198b9db5","lat":46.439340199891,"lng":-122.846549479738,"name":"Toledo","org":"Toledo Food Bank","address":"101 N 2nd, Toledo, WA 98572","city":"Toledo","state":"WA","zip":"98572","phone":"","website":"","email":"","description":"Community food bank providing food assistance and support to individuals and families in need."},{"id":"1326ee3e-aeb0-4f99-9ce2-6ee816973818","lat":47.4786078,"lng":-122.2924526,"name":"Thursday's Table","org":"Thursday's Table","address":"3118 S 140th St, Tukwila, WA 98168","city":"Tukwila","state":"WA","zip":"98168","phone":"","website":"","email":"","description":"Community food bank providing emergency food assistance and pantry services to individuals and families in need."},{"id":"421d3f16-2ec9-4be9-8263-f607a6cf280e","lat":47.4746735,"lng":-122.283029,"name":"Tukwila","org":"Tukwila Village farmers Market","address":"14350 Tukwila International Blvd., Tukwila, WA 98168","city":"Tukwila","state":"WA","zip":"98168","phone":"","website":"https://foodinnovationnetwork.org/markets/","email":"","description":"Farmers market providing fresh produce and food access in the Tukwila community"},{"id":"bc66e4b3-98f2-478f-8cb1-530f07b95b83","lat":45.632694,"lng":-122.558449,"name":"Vancouver","org":"The Salvation Army- Vancouver WA","address":"11018 NE 14th St, Vancouver, WA 98684","city":"Vancouver","state":"WA","zip":"98684","phone":"(360) 448-2893","website":"https://vancouver.salvationarmy.org/","email":"","description":"The Salvation Army organization in Vancouver, WA"},{"id":"1e8da2db-d686-4a75-9b0b-cdef6bb38d03","lat":47.4170472,"lng":-122.4634564,"name":"Vashon","org":"Vashon Maury Community Food Bank","address":"10030 SW 210th St, Vashon, WA 98070","city":"Vashon","state":"WA","zip":"98070","phone":"","website":"","email":"","description":"Community food bank providing food assistance services to residents of Vashon and Maury Island"},{"id":"3324718b-b78a-4cd3-b8f4-3e9f0b681533","lat":45.9010858,"lng":-122.7542051,"name":"Woodland","org":"Woodland ACTION","address":"736 Davidson Ave, Woodland, WA 98674","city":"Woodland","state":"WA","zip":"98674","phone":"","website":"","email":"","description":"Community organization providing food assistance through food bank services in Woodland, Washington."},{"id":"6dd08441-a19d-411a-b10d-718fdcd2f5f2","lat":46.9388845,"lng":-122.5929125,"name":"Yelm","org":"Yelm Prairie Christian Center Meal Program","address":"501 NE 103rd Ave, Yelm, WA 98597","city":"Yelm","state":"WA","zip":"98597","phone":"","website":"","email":"","description":"Christian center providing meal programs to the community in Yelm, Washington."},{"id":"511b6c34-d8f9-4afe-9615-7193ccd68184","lat":46.948496460425,"lng":-122.605034095517,"name":"Yelm","org":"Yelm Community Services","address":"624 Crystal Springs Rd NW, Yelm, WA 98597","city":"Yelm","state":"WA","zip":"98597","phone":"","website":"","email":"","description":"Community services organization providing food assistance through food bank services in Yelm, Washington."}]}